timestamp,lat,log,alt,roll,pitch,yaw,vel_x,vel_y,vel_z,acc_x,acc_y,acc_z,act_vx,act_vy,act_yr,capacity,vol,cur,power
474448687,0.634765,2.223,92.5888,-0.041974,-0.0127561,0.939264,0.0836287,0.033039,0.0335595,0.0349744,0.055723,-0.303218,-1.2,-0.6,0,9535,46.926,26.299,12341.1
474549045,0.634765,2.223,92.5958,-0.0443694,-0.00733011,0.937494,0.0790212,0.0309631,0.0185543,0.0272592,0.0190867,-0.197429,-1.2,-0.6,0,9535,46.926,26.299,12341.1
474649425,0.634765,2.223,92.5698,-0.0748534,0.0789763,0.935007,0.0687651,0.0275021,0.0410824,-0.202883,-0.00828769,0.413347,-1.2,-0.6,0,9535,46.926,26.299,12341.1
474749773,0.634765,2.223,92.5629,-0.113718,0.159776,0.929622,0.0354674,-0.0946565,0.0195697,-1.17623,-0.517507,0.0921787,-1.2,-0.6,0,9535,46.926,26.299,12341.1
474850084,0.634765,2.223,92.552,-0.133463,0.200278,0.924855,-0.00937443,-0.305752,0.00025876,-1.88419,-0.876695,0.688141,-1.2,-0.6,0,9535,46.926,26.299,12341.1
474950511,0.634765,2.223,92.5612,-0.136929,0.200674,0.924503,-0.0785152,-0.544238,0.00767113,-2.16607,-0.861633,0.608699,-1.2,-0.6,0,9535,46.926,26.299,12341.1
475050841,0.634765,2.223,92.5391,-0.12583,0.174661,0.92697,-0.12714,-0.76918,0.0202195,-1.9068,-0.906615,0.455221,-1.2,-0.6,0,9535,46.926,26.299,12341.1
475151199,0.634765,2.223,92.5258,-0.109692,0.138111,0.930161,-0.165109,-0.950751,0.0174801,-1.43116,-0.684509,0.5394,-1.2,-0.6,0,9535,46.926,26.299,12341.1
475251561,0.634765,2.223,92.5096,-0.093399,0.105328,0.93335,-0.19474,-1.09862,0.0234324,-1.13093,-0.606392,0.468988,-1.2,-0.6,0,9535,46.926,26.299,12341.1
475351895,0.634765,2.223,92.5271,-0.0818567,0.0782294,0.93514,-0.220856,-1.21262,0.0342902,-0.919709,-0.459449,0.183704,-1.2,-0.6,0,9535,46.926,26.299,12341.1
475452335,0.634765,2.223,92.5259,-0.0718087,0.0549986,0.936752,-0.242351,-1.29538,0.035673,-0.629633,-0.275575,0.0876504,2.3,2.3,0,9535,46.926,26.502,12436.3
475552681,0.634765,2.223,92.5422,-0.0455548,0.0102903,0.940234,-0.256279,-1.35338,0.0428544,-0.424478,-0.224763,0.186748,2.3,2.3,0,9535,46.919,26.502,12434.5
475653060,0.634765,2.223,92.5619,0.0894187,-0.154453,0.932084,-0.257293,-1.34881,0.0996367,0.391137,0.21215,0.79645,2.3,2.3,0,9535,46.919,26.502,12434.5
475753437,0.634765,2.223,92.6096,0.200737,-0.265296,0.91156,-0.288167,-1.08461,0.0631515,2.16102,2.01575,0.0770833,2.3,2.3,0,9535,46.919,26.502,12434.5
475853773,0.634765,2.223,92.6265,0.264651,-0.327302,0.894647,-0.334669,-0.711453,-0.0204789,2.79828,2.49489,1.1147,2.3,2.3,0,9535,46.919,26.502,12434.5
475954134,0.634765,2.223,92.6501,0.294553,-0.354241,0.887228,-0.388563,-0.233291,-0.0311845,3.20145,2.92259,2.21158,2.3,2.3,0,9535,46.919,26.502,12434.5
476054485,0.634765,2.223,92.6726,0.29453,-0.359209,0.887155,-0.453015,0.273326,-0.03746,3.32819,3.1358,1.97849,2.3,2.3,0,9535,46.919,26.502,12434.5
476154852,0.634765,2.223,92.6504,0.278264,-0.355437,0.889905,-0.511258,0.780731,-0.0539734,3.29732,3.03495,2.14262,2.3,2.3,0,9535,46.919,26.502,12434.5
476255256,0.634765,2.223,92.6285,0.246373,-0.336232,0.897889,-0.552933,1.2827,-0.034115,3.38937,2.88778,2.16287,2.3,2.3,0,9535,46.919,26.502,12434.5
476355552,0.634765,2.223,92.6279,0.194949,-0.291581,0.910468,-0.584382,1.73147,-0.0256997,2.97741,2.52775,1.67315,2.3,2.3,0,9535,46.919,26.502,12434.5
476455995,0.634765,2.223,92.6292,0.143546,-0.243523,0.919884,-0.605764,2.094,-0.0109847,2.36794,1.90424,1.5849,2.3,-3.7,0,9535,46.919,26.502,12434.5
476556351,0.634765,2.223,92.6324,0.0857303,-0.194499,0.930607,-0.614752,2.37141,-0.00400415,1.92999,1.51941,0.475605,2.3,-3.7,0,9535,46.919,26.832,12589.3
476656715,0.634765,2.223,92.6292,-0.126389,-0.123583,0.950988,-0.599321,2.58151,0.029102,1.48155,0.683638,0.575907,2.3,-3.7,0,9535,46.919,26.832,12589.3
476757065,0.634765,2.223,92.6061,-0.317533,-0.0579474,0.947696,-0.414328,2.55016,0.0380402,0.618202,-2.06965,0.113338,2.3,-3.7,0,9535,46.919,26.832,12589.3
476857447,0.634765,2.223,92.5915,-0.424214,-0.028687,0.939137,-0.141123,2.37652,-0.0150964,0.085414,-3.30146,1.01221,2.3,-3.7,0,9535,46.919,26.832,12589.3
476957754,0.634765,2.223,92.5981,-0.471879,-0.0172095,0.933616,0.210206,2.11376,-0.0290459,-0.146725,-3.87065,2.36835,2.3,-3.7,0,9535,46.919,26.832,12589.3
477058157,0.634765,2.223,92.6172,-0.478317,-0.0180429,0.931604,0.594951,1.81514,-0.0112542,-0.135166,-4.24672,2.20225,2.3,-3.7,0,9535,46.919,26.832,12589.3
477158487,0.634765,2.223,92.6278,-0.467563,-0.0263462,0.932617,0.967631,1.52202,-0.00172742,-0.123452,-4.24709,1.74466,2.3,-3.7,0,9535,46.919,26.832,12589.3
477258859,0.634765,2.223,92.6101,-0.454977,-0.0361026,0.936057,1.34083,1.24855,-0.0131998,0.0562226,-4.10021,1.72694,2.3,-3.7,0,9535,46.919,26.832,12589.3
477360688,0.634765,2.223,92.5885,-0.443684,-0.0473387,0.939408,1.70854,0.985668,0.00220882,0.107105,-3.82689,2.0813,2.3,-3.7,0,9535,46.919,26.832,12589.3
477466235,0.634765,2.223,92.5909,-0.425226,-0.0600891,0.943881,2.1311,0.691572,0.00391526,0.215159,-3.58416,1.69113,2,-4.5,0,9535,46.919,26.832,12589.3
477566592,0.634765,2.223,92.5929,-0.409679,-0.0614693,0.94375,2.47491,0.475283,0.0107938,0.453158,-3.41867,1.46658,2,-4.5,0,9535,46.877,27.816,13039.3
477666925,0.634765,2.223,92.5888,-0.403044,-0.0367463,0.93803,2.797,0.249271,0.0262876,0.112272,-3.23099,1.66553,2,-4.5,0,9535,46.877,27.816,13039.3
477767226,0.634765,2.223,92.6065,-0.398074,-0.0323334,0.93821,3.08215,0.020236,0.0230314,0.00842655,-3.24721,1.07809,2,-4.5,0,9535,46.877,27.816,13039.3
477867576,0.634765,2.223,92.6277,-0.390917,-0.035366,0.938824,3.3497,-0.208762,0.0129449,-0.0935049,-3.17585,0.768089,2,-4.5,0,9535,46.877,27.816,13039.3
477967928,0.634765,2.223,92.6452,-0.365963,-0.0440069,0.94018,3.61925,-0.435996,0.0182258,-0.025644,-3.0643,0.851085,2,-4.5,0,9535,46.877,27.816,13039.3
478068256,0.634766,2.223,92.6654,-0.322613,-0.0504843,0.939394,3.84272,-0.61699,0.00844876,0.0475845,-2.45421,0.705732,2,-4.5,0,9535,46.877,27.816,13039.3
478168580,0.634766,2.223,92.703,-0.276233,-0.0567344,0.940264,4.02067,-0.761282,0.0194766,0.121318,-2.00442,0.512533,2,-4.5,0,9535,46.877,27.816,13039.3
478268959,0.634766,2.223,92.7274,-0.24546,-0.0623666,0.940935,4.17125,-0.868974,-0.000216264,0.138228,-1.58032,0.352604,2,-4.5,0,9535,46.877,27.816,13039.3
478369368,0.634766,2.223,92.7418,-0.210736,-0.0679533,0.942686,4.29543,-0.950423,-0.00435741,0.268631,-1.30295,0.232118,2,-4.5,0,9535,46.877,27.816,13039.3
478469780,0.634766,2.223,92.7836,-0.190135,-0.0709585,0.942947,4.39247,-1.00466,-0.0153709,0.283805,-0.98357,0.293703,-0.2,3,0,9535,46.877,27.816,13039.3
478570112,0.634766,2.223,92.8087,-0.138509,-0.0656578,0.94034,4.48615,-1.04271,-0.0261146,0.343564,-0.896998,0.473488,-0.2,3,0,9535,46.759,29.916,13988.4
478670462,0.634766,2.223,92.8265,0.0944049,0.00380996,0.93589,4.5271,-1.04874,0.0250274,0.263568,0.0599841,0.319349,-0.2,3,0,9535,46.759,29.916,13988.4
478770823,0.634766,2.223,92.8801,0.323884,0.0753791,0.951518,4.22766,-0.94954,0.0378274,-0.840138,3.25995,0.260026,-0.2,3,0,9535,46.759,29.916,13988.4
478871161,0.634766,2.223,92.8729,0.42612,0.111995,0.964025,3.7708,-0.793416,-0.014345,-1.24378,4.26874,1.90767,-0.2,3,0,9535,46.759,29.916,13988.4
478971472,0.634766,2.223,92.8254,0.475001,0.129543,0.972285,3.21831,-0.612121,-0.0476877,-1.49183,4.91779,2.30546,-0.2,3,0,9535,46.759,29.916,13988.4
479071822,0.634766,2.223,92.8131,0.495142,0.138315,0.977146,2.64195,-0.424157,-0.100909,-1.4861,4.90546,2.6099,-0.2,3,0,9535,46.759,29.916,13988.4
479172217,0.634766,2.223,92.8266,0.50171,0.146012,0.982433,2.06165,-0.223127,-0.175718,-1.5198,5.32457,2.04216,-0.2,3,0,9535,46.759,29.916,13988.4
479272558,0.634766,2.223,92.8703,0.513657,0.156089,0.988058,1.4555,-0.0374442,-0.235717,-1.63309,5.03636,3.05612,-0.2,3,0,9535,46.759,29.916,13988.4
479372895,0.634766,2.223,92.9341,0.523171,0.151887,0.987758,0.820627,0.152895,-0.270276,-1.84049,5.38973,2.90694,-0.2,3,0,9535,46.759,29.916,13988.4
479473286,0.634766,2.223,92.8865,0.505977,0.143835,0.985183,0.157895,0.36902,-0.299092,-1.62918,5.30932,3.6453,-4.3,-0.9,0,9535,46.759,29.916,13988.4
479573671,0.634766,2.223,92.7864,0.457673,0.135655,0.981477,-0.487628,0.583312,-0.274379,-1.61867,5.32438,3.07696,-4.3,-0.9,0,9535,46.702,30.698,14336.6
479674051,0.634766,2.223,92.7098,0.276692,0.229095,0.978723,-1.10655,0.763938,-0.199507,-1.62332,4.66023,3.6998,-4.3,-0.9,0,9535,46.702,30.698,14336.6
479774446,0.634766,2.223,92.6744,-0.0228788,0.322153,0.933008,-1.56882,0.667333,-0.072319,-3.02187,2.23733,1.94614,-4.3,-0.9,0,9535,46.702,30.698,14336.6
479874791,0.634766,2.223,92.6878,-0.238639,0.353462,0.896333,-1.76435,0.310436,-0.0470909,-3.61225,-0.904117,1.37365,-4.3,-0.9,0,9535,46.702,30.698,14336.6
479975152,0.634766,2.223,92.6874,-0.343815,0.355426,0.883666,-1.82544,-0.149371,-0.0856369,-3.69269,-2.30918,1.86399,-4.3,-0.9,0,9535,46.702,30.698,14336.6
480075482,0.634766,2.223,92.6844,-0.37444,0.34375,0.885956,-1.80684,-0.680545,-0.0741984,-3.39878,-2.88704,3.07245,-4.3,-0.9,0,9535,46.702,30.698,14336.6
480175818,0.634766,2.223,92.7061,-0.363259,0.32824,0.89528,-1.75918,-1.20283,-0.0266807,-3.27936,-2.96086,2.8007,-4.3,-0.9,0,9535,46.702,30.698,14336.6
480276260,0.634766,2.223,92.7296,-0.334996,0.318168,0.902252,-1.71443,-1.67931,-0.000387259,-3.21327,-2.84741,1.81337,-4.3,-0.9,0,9535,46.702,30.698,14336.6
480376584,0.634766,2.223,92.7385,-0.307762,0.312534,0.906094,-1.67822,-2.1177,0.0139158,-2.87371,-2.51798,1.88535,-4.3,-0.9,0,9535,46.702,30.698,14336.6
480476968,0.634766,2.223,92.7631,-0.266385,0.287113,0.914189,-1.65544,-2.52733,0.0160689,-2.87605,-2.25246,1.41266,2.4,2.3,0,9535,46.702,30.698,14336.6
480577324,0.634766,2.223,92.7772,-0.213108,0.231763,0.926698,-1.65066,-2.87371,0.0226482,-2.56796,-1.82997,0.626967,2.4,2.3,0,9535,46.916,26.004,12200
480677663,0.634766,2.223,92.7899,-0.0917821,0.00112342,0.943203,-1.6417,-3.15051,0.0775643,-1.78675,-1.27432,0.606551,2.4,2.3,0,9535,46.916,26.004,12200
480779211,0.634766,2.223,92.8,0.0611707,-0.266966,0.929625,-1.57564,-3.09104,0.0896683,1.33335,0.274243,-0.0511893,2.4,2.3,0,9535,46.916,26.004,12200
480884384,0.634766,2.223,92.7854,0.153115,-0.403693,0.90492,-1.46946,-2.67219,-0.050068,3.59879,1.68877,0.820841,2.4,2.3,0,9535,46.916,26.004,12200
480984741,0.634766,2.223,92.7558,0.202702,-0.462114,0.886851,-1.35144,-2.14736,-0.094324,4.49901,2.24183,2.33885,2.4,2.3,0,9535,46.916,26.004,12200
481085071,0.634766,2.223,92.7422,0.227898,-0.471035,0.881301,-1.23654,-1.57131,-0.105778,4.5629,2.41299,2.76742,2.4,2.3,0,9535,46.916,26.004,12200
481185437,0.634766,2.223,92.7134,0.22879,-0.461558,0.880498,-1.14126,-0.991634,-0.114109,4.40946,2.50978,2.89602,2.4,2.3,0,9535,46.916,26.004,12200
481285789,0.634766,2.223,92.6745,0.22646,-0.447711,0.883392,-1.0532,-0.410788,-0.107616,4.30807,2.54064,2.98246,2.4,2.3,0,9535,46.916,26.004,12200
481386125,0.634766,2.223,92.6273,0.215376,-0.43554,0.887573,-0.969719,0.156154,-0.11248,4.01646,2.35267,3.20917,2.4,2.3,0,9535,46.916,26.004,12200
481486465,0.634766,2.223,92.5965,0.199862,-0.423006,0.891012,-0.88713,0.715817,-0.0842039,3.94983,2.29868,2.99737,-4.4,2.9,0,9535,46.916,26.004,12200
481586852,0.634766,2.223,92.586,0.179426,-0.387421,0.895951,-0.796735,1.2436,-0.0610564,3.96804,2.12799,2.31779,-4.4,2.9,0,9504,46.87,25.382,11896.5
481687190,0.634766,2.223,92.5534,0.134018,-0.135674,0.909371,-0.722923,1.70283,0.0063218,3.10398,1.8942,1.98419,-4.4,2.9,0,9504,46.87,25.382,11896.5
481787526,0.634766,2.223,92.5219,0.0876545,0.165131,0.928067,-0.827647,1.83334,0.0679492,-0.336118,1.54486,0.124444,-4.4,2.9,0,9504,46.87,25.382,11896.5
481887883,0.634766,2.223,92.4968,0.0555342,0.357721,0.940058,-1.07524,1.66596,0.0322025,-2.97563,0.928331,1.07233,-4.4,2.9,0,9504,46.87,25.382,11896.5
481988314,0.634766,2.223,92.4737,0.0446578,0.44645,0.948991,-1.38553,1.36963,0.00204484,-4.17051,0.740283,1.74032,-4.4,2.9,0,9504,46.87,25.382,11896.5
482088676,0.634766,2.223,92.4688,0.0451176,0.472657,0.95511,-1.74675,1.00621,0.017834,-4.50643,0.733701,2.69037,-4.4,2.9,0,9504,46.87,25.382,11896.5
482189026,0.634766,2.223,92.4733,0.0524663,0.467256,0.959037,-2.11612,0.625154,0.0380331,-4.59533,0.797481,2.56138,-4.4,2.9,0,9504,46.87,25.382,11896.5
482289362,0.634766,2.223,92.4955,0.0612845,0.453626,0.96034,-2.46203,0.265215,0.0436684,-4.40924,0.686678,2.20637,-4.4,2.9,0,9504,46.87,25.382,11896.5
482389697,0.634766,2.223,92.5139,0.0675544,0.438518,0.960571,-2.81353,-0.0813859,0.0486667,-4.15171,0.780868,2.37138,-4.4,2.9,0,9504,46.87,25.382,11896.5
482490133,0.634766,2.223,92.5145,0.0715797,0.419595,0.960614,-3.15555,-0.411131,0.0522714,-4.01508,0.873869,1.94538,-1.4,1.6,0,9504,46.87,25.382,11896.5
482590419,0.634765,2.223,92.5156,0.0594832,0.368685,0.951708,-3.48786,-0.71829,0.0493625,-3.93319,0.946919,1.36345,-1.4,1.6,0,9504,46.87,25.382,11896.5
482690765,0.634765,2.223,92.5061,-0.0364026,0.106569,0.934846,-3.7531,-0.976311,0.0998901,-2.70306,0.532934,1.52193,-1.4,1.6,0,9504,46.619,33.805,15759.6
482791154,0.634765,2.223,92.5228,-0.122641,-0.137399,0.947327,-3.70925,-1.02323,0.166736,0.665131,-0.759472,-0.946324,-1.4,1.6,0,9504,46.619,33.805,15759.6
482892635,0.634765,2.223,92.5333,-0.161773,-0.241764,0.958464,-3.50725,-0.954008,0.0664482,2.13055,-1.20824,0.270215,-1.4,1.6,0,9504,46.619,33.805,15759.6
482992989,0.634765,2.223,92.5282,-0.167517,-0.267115,0.960239,-3.21481,-0.834105,0.052111,2.77427,-1.43698,1.12853,-1.4,1.6,0,9504,46.619,33.805,15759.6
483093382,0.634765,2.223,92.5258,-0.143577,-0.233943,0.954415,-2.93535,-0.711407,0.0545242,2.64864,-1.29065,0.918645,-1.4,1.6,0,9504,46.619,33.805,15759.6
483193746,0.634765,2.223,92.5423,-0.110856,-0.184412,0.947539,-2.70122,-0.600467,0.0589313,2.31703,-1.03553,0.493005,-1.4,1.6,0,9504,46.619,33.805,15759.6
483294060,0.634765,2.223,92.5678,-0.0809279,-0.138101,0.943308,-2.53368,-0.506676,0.0516376,1.77458,-0.637405,0.543243,-1.4,1.6,0,9504,46.619,33.805,15759.6
483394416,0.634765,2.223,92.576,-0.0594312,-0.0994913,0.9407,-2.40999,-0.433371,0.0644502,1.36693,-0.359944,0.330289,-1.4,1.6,0,9504,46.619,33.805,15759.6
483494816,0.634765,2.223,92.5751,-0.044723,-0.0658937,0.93917,-2.32251,-0.379258,0.0422176,0.910965,-0.293916,0.0321384,0.8,4.2,0,9504,46.619,33.805,15759.6
483595165,0.634765,2.223,92.5463,-0.0219659,-0.053781,0.939456,-2.2673,-0.338616,0.0341253,0.644049,-0.0700867,0.0720612,0.8,4.2,0,9504,46.619,33.805,15759.6
483697348,0.634765,2.223,92.5012,0.100203,-0.141025,0.929685,-2.22432,-0.271778,0.0601024,0.881653,0.299901,0.493953,0.8,4.2,0,9504,46.666,31.078,14502.9
483802609,0.634765,2.223,92.4807,0.216708,-0.221766,0.910769,-2.23073,-0.0323881,0.025966,1.95571,1.66066,0.30956,0.8,4.2,0,9504,46.666,31.078,14502.9
483902957,0.634765,2.223,92.4495,0.293137,-0.269296,0.89511,-2.29634,0.340045,-0.00937716,2.42396,2.55385,1.73288,0.8,4.2,0,9504,46.666,31.078,14502.9
484003307,0.634765,2.223,92.3895,0.327683,-0.29087,0.886492,-2.38753,0.79559,-0.00126289,2.66278,3.10866,2.2387,0.8,4.2,0,9504,46.666,31.078,14502.9
484103632,0.634765,2.223,92.3822,0.319591,-0.285282,0.888894,-2.47968,1.28294,0.016619,2.86347,3.16642,2.52843,0.8,4.2,0,9504,46.666,31.078,14502.9
484203989,0.634765,2.223,92.3753,0.26946,-0.248958,0.900526,-2.57323,1.74746,0.0551356,2.71141,3.08192,2.15841,0.8,4.2,0,9504,46.666,31.078,14502.9
484304365,0.634765,2.223,92.3883,0.211754,-0.207673,0.911529,-2.64122,2.12604,0.0926336,2.37416,2.50648,1.35446,0.8,4.2,0,9504,46.666,31.078,14502.9
484404712,0.634765,2.223,92.4319,0.160179,-0.163975,0.921112,-2.68235,2.41035,0.122395,1.8706,1.86103,0.777595,0.8,4.2,0,9504,46.666,31.078,14502.9
484505096,0.634765,2.223,92.4649,0.121561,-0.124163,0.927538,-2.7089,2.62555,0.120726,1.41457,1.37112,0.402455,-1.8,-4.8,0,9504,46.666,31.078,14502.9
484605382,0.634764,2.223,92.4932,0.0746552,-0.091115,0.933952,-2.73223,2.78079,0.136787,1.05119,1.01991,0.163682,-1.8,-4.8,0,9504,46.666,31.078,14502.9
484705766,0.634764,2.223,92.5423,-0.13702,-0.00623689,0.939571,-2.73251,2.8835,0.164794,0.692491,0.302607,0.250811,-1.8,-4.8,0,9504,46.592,31.464,14659.7
484806168,0.634764,2.223,92.5606,-0.323274,0.0696862,0.926134,-2.59728,2.74039,0.161786,-0.48663,-2.41497,-0.416209,-1.8,-4.8,0,9504,46.592,31.464,14659.7
484906521,0.634764,2.223,92.5878,-0.426635,0.108301,0.913346,-2.37421,2.46096,0.0804233,-0.930404,-3.50576,0.780822,-1.8,-4.8,0,9504,46.592,31.464,14659.7
485006828,0.634764,2.223,92.6524,-0.469921,0.129443,0.904032,-2.03501,1.99813,0.0329839,-1.37765,-4.30921,1.76366,-1.8,-4.8,0,9504,46.592,31.464,14659.7
485107103,0.634764,2.223,92.6627,-0.471877,0.137155,0.901444,-1.74637,1.57415,0.00214127,-1.4571,-4.227,2.08208,-1.8,-4.8,0,9504,46.592,31.464,14659.7
485207480,0.634764,2.223,92.6417,-0.457551,0.134688,0.903977,-1.45473,1.14189,-0.0130294,-1.45091,-4.2883,2.11056,-1.8,-4.8,0,9504,46.592,31.464,14659.7
485307848,0.634764,2.223,92.6537,-0.446178,0.127188,0.90857,-1.17347,0.725455,-0.0266378,-1.43744,-4.23502,1.7745,-1.8,-4.8,0,9504,46.592,31.464,14659.7
485408225,0.634764,2.223,92.6617,-0.435284,0.116141,0.912247,-0.887906,0.323937,-0.0319226,-1.17582,-3.87518,2.02076,-1.8,-4.8,0,9504,46.592,31.464,14659.7
485508625,0.634764,2.223,92.6359,-0.424391,0.107152,0.914447,-0.620056,-0.058612,-0.0372112,-1.14045,-3.68982,1.94368,-2,-3.7,0,9504,46.592,31.464,14659.7
485610208,0.634764,2.223,92.6324,-0.409244,0.113584,0.9125,-0.345593,-0.432403,-0.045614,-0.937305,-3.71706,1.74862,-2,-3.7,0,9504,46.592,31.464,14659.7
485711063,0.634764,2.223,92.63,-0.392985,0.133753,0.909139,-0.1072,-0.807696,-0.0374698,-1.23881,-3.2993,1.84229,-2,-3.7,0,9491,46.747,28.884,13502.4
485812550,0.634764,2.223,92.6345,-0.382413,0.134845,0.91048,0.111107,-1.17651,-0.0388502,-1.24814,-3.26004,1.62835,-2,-3.7,0,9491,46.747,28.884,13502.4
485913071,0.634764,2.223,92.624,-0.374617,0.129002,0.912306,0.311668,-1.53497,-0.0276115,-1.21276,-2.98132,1.81813,-2,-3.7,0,9491,46.747,28.884,13502.4
486013414,0.634764,2.223,92.6505,-0.369533,0.118457,0.915231,0.513107,-1.87857,-0.00877752,-1.1502,-3.05827,1.46111,-2,-3.7,0,9491,46.747,28.884,13502.4
486113766,0.634764,2.223,92.6503,-0.370633,0.108188,0.917127,0.70172,-2.18825,-0.0198349,-1.02396,-3.00329,0.897853,-2,-3.7,0,9491,46.747,28.884,13502.4
486214066,0.634764,2.223,92.6614,-0.357461,0.0980138,0.918602,0.89039,-2.50332,-0.0222237,-1.03702,-3.05199,1.02831,-2,-3.7,0,9491,46.747,28.884,13502.4
486314427,0.634764,2.223,92.6569,-0.318357,0.084109,0.923116,1.07365,-2.78546,-0.0119685,-0.829334,-2.68465,0.996542,-2,-3.7,0,9491,46.747,28.884,13502.4
486414775,0.634764,2.223,92.6644,-0.278217,0.0707428,0.927281,1.22482,-3.01601,-0.00154418,-0.602025,-2.25726,0.734671,-2,-3.7,0,9491,46.747,28.884,13502.4
486515169,0.634764,2.223,92.6611,-0.239167,0.0570643,0.930558,1.34052,-3.2088,0.00772105,-0.571297,-1.87147,0.253007,-1.9,-3.1,0,9491,46.747,28.884,13502.4
486615500,0.634764,2.223,92.6566,-0.193379,0.0411763,0.933466,1.42912,-3.35557,-0.00414937,-0.443043,-1.53635,-0.170361,-1.9,-3.1,0,9491,46.747,28.884,13502.4
486715802,0.634764,2.223,92.6574,-0.118571,0.0236593,0.935819,1.485,-3.45212,0.0256936,-0.168003,-0.809803,-0.0817188,-1.9,-3.1,0,9491,46.747,28.884,13502.4
486816152,0.634764,2.223,92.6533,-0.0785421,0.0131077,0.936622,1.47599,-3.48002,0.0209825,-0.0877271,-0.0828453,-0.268001,-1.9,-3.1,0,9491,46.766,28.454,13306.8
486916517,0.634764,2.223,92.6489,-0.059295,0.0043707,0.937827,1.44979,-3.48459,-0.000357513,-0.0399226,0.182687,-0.213487,-1.9,-3.1,0,9491,46.766,28.454,13306.8
487016860,0.634764,2.223,92.6629,-0.0535805,-0.00216372,0.938224,1.41521,-3.47011,0.00449342,0.0833355,0.328899,-0.0893379,-1.9,-3.1,0,9491,46.766,28.454,13306.8
487117195,0.634765,2.223,92.6811,-0.0584971,-0.00406623,0.938518,1.37906,-3.43749,-0.00746055,0.185439,0.392338,-0.11708,-1.9,-3.1,0,9491,46.766,28.454,13306.8
487217521,0.634765,2.223,92.6896,-0.0654953,-0.00453162,0.939174,1.35615,-3.41279,-0.011144,0.190024,0.221573,-0.40595,-1.9,-3.1,0,9491,46.766,28.454,13306.8
487317886,0.634765,2.223,92.6832,-0.0744129,-0.00307686,0.938559,1.33816,-3.38559,-0.0256927,0.211896,0.127667,-0.438176,-1.9,-3.1,0,9491,46.766,28.454,13306.8
487418231,0.634765,2.223,92.6767,-0.0815884,0.000183884,0.938345,1.32769,-3.36149,-0.0440236,0.234389,0.0878333,0.0617562,-1.9,-3.1,0,9491,46.766,28.454,13306.8
487518639,0.634765,2.223,92.6734,-0.0893939,0.00442397,0.938605,1.3166,-3.34809,-0.0325267,0.0938072,0.0152083,-0.146388,1.5,-0.9,0,9491,46.766,28.454,13306.8
487619002,0.634765,2.223,92.6537,-0.0864871,-0.00713027,0.940011,1.30706,-3.33337,-0.0419598,0.128039,-0.0600978,-0.403081,1.5,-0.9,0,9491,46.766,28.454,13306.8
487719366,0.634765,2.223,92.663,0.0142915,-0.155472,0.934432,1.30795,-3.31667,0.00965432,0.388196,0.155275,0.674986,1.5,-0.9,0,9491,46.766,28.454,13306.8
487819752,0.634765,2.223,92.691,0.123466,-0.290835,0.917899,1.3124,-3.06744,0.00313717,2.18893,1.39875,0.48944,1.5,-0.9,0,9491,46.737,28.454,13298.5
487920134,0.634765,2.223,92.6869,0.188632,-0.376994,0.903222,1.31458,-2.67196,-0.0520482,3.19746,2.1617,1.22066,1.5,-0.9,0,9491,46.737,28.454,13298.5
488020548,0.634765,2.223,92.6643,0.214466,-0.41962,0.896167,1.32895,-2.15667,-0.0843491,3.75647,2.51273,2.39321,1.5,-0.9,0,9491,46.737,28.454,13298.5
488120925,0.634765,2.223,92.6846,0.214705,-0.426897,0.899614,1.34989,-1.59418,-0.0777075,4.03217,2.72661,2.63344,1.5,-0.9,0,9491,46.737,28.454,13298.5
488221272,0.634765,2.223,92.7074,0.178021,-0.384788,0.914611,1.36848,-1.05922,-0.0929489,3.87794,2.54055,2.41863,1.5,-0.9,0,9491,46.737,28.454,13298.5
488321633,0.634765,2.223,92.7016,0.13092,-0.321709,0.929073,1.39569,-0.597567,-0.0719697,3.40022,2.14856,1.6971,1.5,-0.9,0,9491,46.737,28.454,13298.5
488421950,0.634765,2.223,92.7004,0.0775383,-0.255473,0.938724,1.39866,-0.236004,-0.0688116,2.64567,1.80399,1.10348,1.5,-0.9,0,9491,46.737,28.454,13298.5
488522304,0.634765,2.223,92.6953,0.0273084,-0.196401,0.94209,1.41207,0.0329995,-0.0595543,2.04335,1.2811,0.513308,2.8,-4.2,0,9491,46.737,28.454,13298.5
488623457,0.634765,2.223,92.7067,-0.0302785,-0.15168,0.944524,1.43901,0.215342,-0.0494275,1.41829,0.659908,0.359977,2.8,-4.2,0,9491,46.737,28.454,13298.5
488725193,0.634765,2.223,92.694,-0.163414,-0.13251,0.953101,1.49379,0.333011,-0.0322678,1.08796,-0.0843675,0.282015,2.8,-4.2,0,9491,46.737,28.454,13298.5
488825558,0.634765,2.223,92.672,-0.280791,-0.135614,0.957168,1.70804,0.342055,-0.0882824,1.06268,-1.80967,0.0348207,2.8,-4.2,0,9460,46.716,29.743,13894.7
488925935,0.634765,2.223,92.6684,-0.359897,-0.14314,0.959046,2.00001,0.285252,-0.078221,1.13167,-2.56334,1.43773,2.8,-4.2,0,9460,46.716,29.743,13894.7
489026298,0.634765,2.223,92.679,-0.390915,-0.153893,0.960991,2.341,0.200419,-0.0652651,1.19447,-2.89291,1.66721,2.8,-4.2,0,9460,46.716,29.743,13894.7
489126660,0.634765,2.223,92.6945,-0.401395,-0.1635,0.961509,2.70855,0.0984915,-0.0497357,1.2201,-3.16106,1.68744,2.8,-4.2,0,9460,46.716,29.743,13894.7
489227022,0.634765,2.223,92.6938,-0.395206,-0.173505,0.964144,3.06581,0.00154692,-0.0476238,1.28852,-3.05086,1.41569,2.8,-4.2,0,9460,46.716,29.743,13894.7
489327389,0.634765,2.223,92.7126,-0.386156,-0.185211,0.965838,3.41741,-0.0844118,-0.0419743,1.39315,-2.90837,1.40045,2.8,-4.2,0,9460,46.716,29.743,13894.7
489427743,0.634765,2.223,92.7171,-0.36128,-0.185833,0.964671,3.7689,-0.16171,-0.0386655,1.38144,-2.66499,1.72356,2.8,-4.2,0,9460,46.716,29.743,13894.7
489528132,0.634765,2.223,92.7295,-0.313798,-0.174423,0.95933,4.08403,-0.217029,-0.0180496,1.37641,-2.33304,1.00554,-0.7,-3.5,0,9460,46.716,29.743,13894.7
489628422,0.634765,2.223,92.7479,-0.262146,-0.138651,0.952342,4.33662,-0.254098,-0.00795729,1.33827,-1.76146,1.12397,-0.7,-3.5,0,9460,46.716,29.743,13894.7
489728748,0.634765,2.223,92.7724,-0.151039,0.0976351,0.93694,4.52731,-0.319077,0.0962932,0.39764,-1.20822,1.18438,-0.7,-3.5,0,9460,46.716,29.743,13894.7
489829155,0.634765,2.223,92.7948,-0.0783341,0.296536,0.930657,4.39561,-0.55802,0.0910668,-2.80647,-0.085555,-0.139849,-0.7,-3.5,0,9460,46.764,28.285,13227.2
489929483,0.634766,2.223,92.7772,-0.0502687,0.400325,0.929153,4.14377,-0.869604,-0.000939708,-3.76593,0.42274,0.960256,-0.7,-3.5,0,9460,46.764,28.285,13227.2
490029783,0.634766,2.223,92.7283,-0.0438942,0.40069,0.925435,3.82593,-1.25021,-0.0335121,-4.30914,0.576413,1.80235,-0.7,-3.5,0,9460,46.764,28.285,13227.2
490130155,0.634766,2.223,92.7113,-0.0399987,0.344212,0.924235,3.54203,-1.59449,-0.0575058,-3.9402,0.447946,1.20244,-0.7,-3.5,0,9460,46.764,28.285,13227.2
490230523,0.634766,2.223,92.6804,-0.0436772,0.277956,0.922584,3.28583,-1.87562,-0.0848581,-3.20909,0.514019,1.30337,-0.7,-3.5,0,9460,46.764,28.285,13227.2
490330931,0.634766,2.223,92.6582,-0.0494509,0.214853,0.924813,3.07799,-2.09584,-0.0962269,-2.58519,0.472932,0.789798,-0.7,-3.5,0,9460,46.764,28.285,13227.2
490431272,0.634766,2.223,92.6373,-0.0564884,0.158146,0.927527,2.90744,-2.27238,-0.0936357,-1.96576,0.440194,0.593477,-0.7,-3.5,0,9460,46.764,28.285,13227.2
490531802,0.634766,2.223,92.6418,-0.067795,0.104842,0.93127,2.78465,-2.40684,-0.0960096,-1.37731,0.180019,0.124147,-3.2,3.2,0,9460,46.764,28.285,13227.2
490632149,0.634766,2.223,92.6709,-0.0407697,0.074124,0.932494,2.69136,-2.50073,-0.0672988,-0.813958,0.177306,0.975316,-3.2,3.2,0,9460,46.764,28.285,13227.2
490732462,0.634766,2.223,92.7254,0.142362,0.100456,0.945355,2.56519,-2.55403,0.0221055,-0.824865,0.960987,0.572091,-3.2,3.2,0,9460,46.764,28.285,13227.2
490832817,0.634766,2.223,92.7819,0.30017,0.128153,0.959806,2.23273,-2.49887,0.0162118,-1.20578,3.03861,0.425611,-3.2,3.2,0,9460,46.764,28.285,13227.2
490933165,0.634766,2.223,92.7849,0.394191,0.149092,0.96746,1.7917,-2.38561,-0.0484402,-1.34219,4.05428,1.48588,-3.2,3.2,0,9460,46.764,28.285,13227.2
491033535,0.634766,2.223,92.7537,0.442068,0.159381,0.970702,1.25198,-2.21804,-0.0553034,-1.46636,4.79409,2.19843,-3.2,3.2,0,9460,46.764,28.285,13227.2
491133896,0.634766,2.223,92.7262,0.464283,0.168713,0.970058,0.698563,-2.04686,-0.0901593,-1.53899,4.94154,2.2401,-3.2,3.2,0,9460,46.764,28.285,13227.2
491234236,0.634766,2.223,92.7125,0.461955,0.174622,0.970691,0.115795,-1.85952,-0.116481,-1.55244,4.94396,2.78198,-3.2,3.2,0,9460,46.764,28.285,13227.2
491334612,0.634766,2.223,92.7197,0.447713,0.168732,0.967549,-0.467644,-1.68811,-0.125856,-1.70467,4.85916,2.85671,-3.2,3.2,0,9447,46.757,28.29,13227.6
491434975,0.634766,2.223,92.7248,0.428019,0.160197,0.963742,-1.04191,-1.50039,-0.114049,-1.56088,4.82126,2.7719,-3.2,3.2,0,9447,46.757,28.29,13227.6
491535352,0.634766,2.223,92.7165,0.406009,0.158566,0.962493,-1.58768,-1.31721,-0.0954063,-1.5118,4.65473,2.35703,3.8,0.7,0,9447,46.757,28.29,13227.6
491635677,0.634766,2.223,92.701,0.377005,0.156111,0.959285,-2.09224,-1.1453,-0.0851903,-1.47237,4.39672,1.72042,3.8,0.7,0,9447,46.757,28.29,13227.6
491736062,0.634766,2.223,92.6961,0.260739,-0.00120127,0.935483,-2.58937,-0.985052,-0.00996222,-1.35206,3.88669,3.05993,3.8,0.7,0,9447,46.757,28.29,13227.6
491836439,0.634766,2.223,92.7142,0.062802,-0.243064,0.938143,-2.79316,-0.756325,0.0627436,0.916013,2.30389,0.757838,3.8,0.7,0,9447,46.757,28.29,13227.6
491936793,0.634766,2.223,92.7025,-0.086407,-0.387355,0.95818,-2.66214,-0.483134,-0.0283286,3.11266,0.153392,0.458579,3.8,0.7,0,9447,46.757,28.29,13227.6
492037137,0.634766,2.223,92.6663,-0.167268,-0.456207,0.972381,-2.35321,-0.171157,-0.0691654,4.10016,-0.84209,1.75288,3.8,0.7,0,9447,46.757,28.29,13227.6
492137499,0.634766,2.223,92.6387,-0.195734,-0.478704,0.975667,-1.92639,0.160473,-0.0735836,4.51093,-1.36468,2.66514,3.8,0.7,0,9447,46.757,28.29,13227.6
492237857,0.634766,2.223,92.6432,-0.194245,-0.478669,0.971686,-1.46716,0.492735,-0.0540842,4.45514,-1.43804,3.02476,3.8,0.7,0,9447,46.757,28.29,13227.6
492338202,0.634766,2.223,92.6292,-0.172696,-0.469375,0.963927,-1.01358,0.817982,-0.0170313,4.61376,-1.34765,2.3682,3.8,0.7,0,9403,46.796,26.756,12520.7
492438568,0.634765,2.223,92.5859,-0.151142,-0.455586,0.957711,-0.594065,1.14149,-0.0118796,4.31866,-1.15098,2.35739,3.8,0.7,0,9403,46.796,26.756,12520.7
492538954,0.634766,2.223,92.5465,-0.131976,-0.440476,0.953929,-0.196121,1.46315,0.00460325,4.27721,-1.02131,1.9721,4.5,-2.7,0,9403,46.796,26.756,12520.7
492639300,0.634766,2.223,92.5257,-0.126005,-0.422313,0.953233,0.167517,1.77487,0.0245681,3.87181,-0.739839,2.13771,4.5,-2.7,0,9403,46.796,26.756,12520.7
492739667,0.634766,2.223,92.5026,-0.211955,-0.36036,0.976649,0.516525,2.06723,0.0393318,3.60554,-0.93382,1.95808,4.5,-2.7,0,9403,46.796,26.756,12520.7
492840062,0.634766,2.223,92.4451,-0.300968,-0.285436,0.982212,0.901975,2.21337,0.0487841,2.78709,-1.85584,1.82555,4.5,-2.7,0,9403,46.796,26.756,12520.7
492940431,0.634766,2.223,92.4136,-0.364467,-0.236162,0.975737,1.32041,2.24036,0.0476292,2.20518,-2.76398,1.46444,4.5,-2.7,0,9403,46.796,26.756,12520.7
493040781,0.634766,2.223,92.4016,-0.391524,-0.210569,0.969264,1.75634,2.1907,0.0482478,1.7069,-3.07496,1.97991,4.5,-2.7,0,9403,46.796,26.756,12520.7
493141145,0.634766,2.223,92.3981,-0.393884,-0.203077,0.963968,2.18974,2.1179,0.0678848,1.60761,-3.2257,1.95687,4.5,-2.7,0,9403,46.796,26.756,12520.7
493241560,0.634766,2.223,92.3801,-0.382827,-0.205429,0.961444,2.59463,2.02461,0.0811067,1.31189,-3.0937,2.06503,4.5,-2.7,0,9403,46.796,26.756,12520.7
493341915,0.634766,2.223,92.3833,-0.36462,-0.215637,0.962328,2.99115,1.94344,0.0961794,1.45754,-2.97875,1.63809,4.5,-2.7,0,9403,46.796,26.756,12520.7
493442278,0.634766,2.223,92.4154,-0.335823,-0.220204,0.961728,3.37459,1.88114,0.107149,1.62041,-2.90985,1.45795,4.5,-2.7,0,9403,46.661,28.9,13485
493542699,0.634766,2.223,92.4332,-0.284937,-0.211487,0.956861,3.71138,1.83793,0.120001,1.49467,-2.39394,1.26817,-2.2,-4.2,0,9403,46.661,28.9,13485
493643042,0.634766,2.223,92.4661,-0.236191,-0.185346,0.949932,3.98014,1.81293,0.127837,1.34196,-1.88938,0.771448,-2.2,-4.2,0,9403,46.661,28.9,13485
493743379,0.634766,2.223,92.5011,-0.182212,0.0235618,0.935616,4.20659,1.80063,0.217999,1.0709,-1.35106,1.38284,-2.2,-4.2,0,9403,46.661,28.9,13485
493843728,0.634766,2.223,92.5688,-0.156715,0.260924,0.920555,4.19897,1.58671,0.241868,-2.07597,-0.945819,-0.379061,-2.2,-4.2,0,9403,46.661,28.9,13485
493944078,0.634766,2.223,92.5587,-0.1595,0.381901,0.908481,4.04151,1.23516,0.132898,-3.68393,-0.631606,0.71361,-2.2,-4.2,0,9403,46.661,28.9,13485
494044450,0.634766,2.223,92.5378,-0.167479,0.439033,0.900495,3.83491,0.771428,0.0955857,-4.31652,-0.731437,2.07941,-2.2,-4.2,0,9403,46.661,28.9,13485
494144818,0.634766,2.223,92.5079,-0.168852,0.456458,0.895116,3.55224,0.18736,0.0318111,-4.73104,-0.674388,1.90877,-2.2,-4.2,0,9403,46.661,28.9,13485
494245179,0.634766,2.223,92.4821,-0.170604,0.455526,0.890422,3.30764,-0.321788,-0.0030119,-4.72949,-0.800751,2.38332,-2.2,-4.2,0,9403,46.661,28.9,13485
494345532,0.634766,2.223,92.4985,-0.172503,0.447862,0.888266,3.0542,-0.819834,-0.0158355,-4.45676,-0.635695,2.58078,-2.2,-4.2,0,9403,46.661,28.9,13485
494445885,0.634767,2.223,92.5254,-0.181846,0.426639,0.888734,2.80986,-1.30318,-0.0280622,-4.45732,-0.746693,1.90114,-2.2,-4.2,0,9403,46.661,33.274,15526
494546251,0.634767,2.223,92.5538,-0.198152,0.392767,0.889322,2.59089,-1.75892,-0.03615,-3.95295,-0.730192,2.16635,1.9,-1.5,0,9403,46.661,33.274,15526
494646593,0.634767,2.223,92.5802,-0.205894,0.34235,0.895833,2.40263,-2.19952,-0.0328638,-3.74069,-0.958936,1.97396,1.9,-1.5,0,9403,46.661,33.274,15526
494746945,0.634767,2.223,92.6194,-0.097145,0.12771,0.929516,2.26189,-2.58268,0.0367535,-2.93821,-0.883769,1.18043,1.9,-1.5,0,9403,46.661,33.274,15526
494847309,0.634767,2.223,92.6733,0.062318,-0.162566,0.930562,2.18155,-2.58526,0.0873545,0.370025,0.814358,-0.0674225,1.9,-1.5,0,9403,46.661,33.274,15526
494947693,0.634767,2.223,92.6997,0.160327,-0.339019,0.911483,2.13283,-2.28922,0.00444504,2.73312,2.15466,0.316512,1.9,-1.5,0,9403,46.661,33.274,15526
495048100,0.634767,2.223,92.7015,0.197089,-0.429503,0.896723,2.12539,-1.83928,-0.0252437,3.52054,2.36319,2.41081,1.9,-1.5,0,9403,46.661,33.274,15526
495148467,0.634767,2.223,92.7098,0.197019,-0.44757,0.897693,2.15619,-1.29739,-0.0273104,4.38739,2.57578,2.30973,1.9,-1.5,0,9403,46.661,33.274,15526
495248816,0.634767,2.223,92.7108,0.168619,-0.394818,0.913592,2.18991,-0.790902,-0.0580519,3.90595,2.27593,2.49852,1.9,-1.5,0,9403,46.661,33.274,15526
495349175,0.634767,2.223,92.7262,0.119189,-0.319203,0.926975,2.1954,-0.364586,-0.0371759,3.21886,2.08304,1.51244,1.9,-1.5,0,9403,46.661,33.274,15526
495449506,0.634767,2.223,92.7267,0.0668982,-0.243792,0.935228,2.18941,-0.0420667,-0.0494892,2.50159,1.69504,0.521935,1.9,-1.5,0,9403,46.611,33.129,15441.8
495549976,0.634767,2.223,92.7252,0.0168796,-0.184816,0.938689,2.18305,0.196903,-0.0559954,1.69103,1.14618,0.481982,-0.1,-0.8,0,9403,46.611,33.129,15441.8
495650347,0.634767,2.223,92.7151,-0.0151014,-0.112199,0.94092,2.20244,0.369427,-0.0465463,1.30388,0.628758,0.791586,-0.1,-0.8,0,9403,46.611,33.129,15441.8
495750724,0.634767,2.223,92.7207,0.0189319,0.0944693,0.939276,2.18565,0.458521,-0.0178542,0.0464793,0.541039,0.276855,-0.1,-0.8,0,9403,46.611,33.129,15441.8
495851025,0.634767,2.223,92.7033,0.0460839,0.213381,0.942561,1.96984,0.368029,-0.0201267,-2.20116,1.01368,-0.0418436,-0.1,-0.8,0,9403,46.611,33.129,15441.8
495951396,0.634767,2.223,92.6724,0.0540044,0.256658,0.944692,1.70486,0.234863,-0.071489,-2.67616,1.16435,0.791123,-0.1,-0.8,0,9403,46.611,33.129,15441.8
496051745,0.634767,2.223,92.63,0.0406995,0.2505,0.942711,1.42497,0.0787994,-0.0871244,-2.8736,1.04938,0.874017,-0.1,-0.8,0,9403,46.611,33.129,15441.8
496152124,0.634767,2.223,92.6316,0.0173001,0.212207,0.940336,1.17939,-0.0654056,-0.0831969,-2.58736,0.922882,0.485462,-0.1,-0.8,0,9403,46.611,33.129,15441.8
496252453,0.634767,2.223,92.6208,-0.00450829,0.16495,0.938174,0.980253,-0.188083,-0.0831892,-2.13359,0.697961,0.175395,-0.1,-0.8,0,9403,46.611,33.129,15441.8
496352822,0.634767,2.223,92.6156,-0.022445,0.116829,0.937985,0.841135,-0.300181,-0.0666369,-1.62463,0.380323,0.310581,-0.1,-0.8,0,9403,46.611,33.129,15441.8
496453171,0.634767,2.223,92.6318,-0.0329837,0.0802033,0.938551,0.725502,-0.3773,-0.0455308,-1.15401,0.376202,0.418336,-0.1,-0.8,0,9371,46.65,28.875,13470.2
496553585,0.634767,2.223,92.6568,-0.0382758,0.0487396,0.9387,0.644076,-0.425759,-0.0278876,-0.745071,0.288963,-0.193743,2.4,-2.8,0,9371,46.65,28.875,13470.2
496653972,0.634767,2.223,92.6483,-0.0597744,-0.00215019,0.937015,0.577265,-0.460057,-0.0192209,-0.529538,0.319537,0.3871,2.4,-2.8,0,9371,46.65,28.875,13470.2
496755344,0.634767,2.223,92.6445,-0.148718,-0.142365,0.947234,0.584566,-0.468464,0.0142732,0.457609,-0.320969,-0.043088,2.4,-2.8,0,9371,46.65,28.875,13470.2
496858489,0.634767,2.223,92.6465,-0.239984,-0.248352,0.96675,0.761657,-0.410259,-0.0297247,1.83213,-1.29553,-0.193143,2.4,-2.8,0,9371,46.65,28.875,13470.2
496958873,0.634767,2.223,92.6462,-0.298395,-0.309317,0.98452,1.07406,-0.322863,-0.0467542,2.58632,-1.87683,1.41103,2.4,-2.8,0,9371,46.65,28.875,13470.2
497059229,0.634767,2.223,92.6583,-0.32464,-0.332113,0.993228,1.46624,-0.218284,-0.0384072,2.82009,-2.11549,2.22733,2.4,-2.8,0,9371,46.65,28.875,13470.2
497159582,0.634767,2.223,92.6602,-0.328853,-0.329474,0.993507,1.88829,-0.10981,-0.0189297,3.02836,-2.25941,2.23219,2.4,-2.8,0,9371,46.65,28.875,13470.2
497259935,0.634767,2.223,92.665,-0.298019,-0.293792,0.982264,2.29122,-0.0076184,-0.00360973,2.94426,-2.25945,1.62256,2.4,-2.8,0,9371,46.65,28.875,13470.2
497360333,0.634767,2.223,92.654,-0.259516,-0.250874,0.970638,2.63732,0.0658322,0.0134926,2.43156,-2.05028,1.26912,2.4,-2.8,0,9371,46.65,28.875,13470.2
497460668,0.634767,2.223,92.6377,-0.21559,-0.207721,0.960474,2.92081,0.128066,0.0302252,1.92491,-1.55985,1.11592,2.4,-2.8,0,9371,46.659,28.613,13350.5
497562137,0.634767,2.223,92.6404,-0.179913,-0.170134,0.952809,3.12984,0.169862,0.0395771,1.56613,-1.33789,0.0900095,3.7,2.6,0,9371,46.659,28.613,13350.5
497664405,0.634767,2.223,92.6426,-0.135799,-0.140025,0.943573,3.2837,0.214075,0.0317385,1.14388,-0.866768,0.195747,3.7,2.6,0,9371,46.659,28.613,13350.5
497767674,0.634767,2.223,92.639,0.0994991,-0.129585,0.922521,3.38914,0.280718,0.0877771,0.846016,0.35035,0.50482,3.7,2.6,0,9371,46.659,28.613,13350.5
497869704,0.634767,2.223,92.6766,0.276116,-0.12513,0.916257,3.22682,0.500015,0.0813058,0.826633,2.98707,0.0207905,3.7,2.6,0,9371,46.659,28.613,13350.5
497970067,0.634767,2.223,92.6872,0.383118,-0.122729,0.915818,2.96301,0.784862,-0.00489677,0.732909,3.81378,1.11644,3.7,2.6,0,9371,46.659,28.613,13350.5
498070379,0.634768,2.223,92.6702,0.415718,-0.120344,0.918767,2.61684,1.13659,-0.0341064,0.760796,4.52586,1.8985,3.7,2.6,0,9371,46.659,28.613,13350.5
498170648,0.634768,2.223,92.6447,0.421509,-0.119659,0.922818,2.26031,1.49843,-0.0533426,0.780142,4.61764,1.82993,3.7,2.6,0,9371,46.659,28.613,13350.5
498270899,0.634768,2.223,92.6134,0.414447,-0.123163,0.924903,1.90803,1.84914,-0.0742737,0.740718,4.30816,2.37806,3.7,2.6,0,9371,46.659,28.613,13350.5
498371174,0.634768,2.223,92.5978,0.392013,-0.131514,0.925897,1.55105,2.20751,-0.0770878,0.719475,4.24315,2.22513,3.7,2.6,0,9371,46.659,28.613,13350.5
498471510,0.634768,2.223,92.6202,0.373744,-0.144717,0.92382,1.21782,2.55414,-0.0653272,0.80863,4.10537,1.96853,3.7,2.6,0,9371,46.649,29.7,13854.8
498571923,0.634768,2.223,92.6137,0.341956,-0.163209,0.920767,0.912438,2.90332,-0.0374412,1.01622,3.91968,1.72055,3.8,-3.9,0,9371,46.649,29.7,13854.8
498672289,0.634768,2.223,92.6202,0.262435,-0.165773,0.926239,0.653564,3.23674,-0.0131349,1.11895,3.49418,1.3769,3.8,-3.9,0,9371,46.649,29.7,13854.8
498772599,0.634768,2.223,92.6316,-0.0142124,-0.129549,0.952854,0.482788,3.48899,0.0207659,0.999664,2.24114,0.324385,3.8,-3.9,0,9371,46.649,29.7,13854.8
498872896,0.634768,2.223,92.6446,-0.290776,-0.0776067,0.953825,0.579251,3.49497,0.0600331,0.579508,-1.3773,0.238063,3.8,-3.9,0,9371,46.649,29.7,13854.8
498973738,0.634768,2.223,92.6926,-0.438722,-0.0636078,0.947964,0.825718,3.30983,0.0133216,0.0180464,-3.48521,0.535785,3.8,-3.9,0,9371,46.649,29.7,13854.8
499074149,0.634768,2.223,92.6697,-0.500166,-0.0654684,0.946523,1.17663,3.04779,-0.013727,-0.0447252,-4.13431,2.14566,3.8,-3.9,0,9371,46.649,29.7,13854.8
499174517,0.634768,2.223,92.6801,-0.509561,-0.0701621,0.946516,1.58023,2.76446,-0.00341934,0.100971,-4.51553,2.29382,3.8,-3.9,0,9371,46.649,29.7,13854.8
499274877,0.634768,2.223,92.7067,-0.497133,-0.0783542,0.948967,1.96821,2.48557,-0.00296597,0.0750934,-4.41432,1.90803,3.8,-3.9,0,9371,46.649,29.7,13854.8
499375214,0.634768,2.223,92.6702,-0.477533,-0.0881898,0.95154,2.35657,2.22716,0.00319244,0.260449,-4.13167,2.11983,3.8,-3.9,0,9371,46.649,29.7,13854.8
499475621,0.634768,2.223,92.656,-0.455066,-0.102115,0.95631,2.72464,1.98125,0.00529738,0.239911,-3.97002,1.81869,3.8,-3.9,0,9371,46.649,29.7,13854.8
499575995,0.634768,2.223,92.6455,-0.436747,-0.114995,0.96005,3.08231,1.77119,0.000313696,0.417781,-3.55087,1.99797,1.7,3.6,0,9371,46.613,29.479,13741
499676335,0.634768,2.223,92.6606,-0.406059,-0.124042,0.959616,3.43066,1.57887,-0.00061385,0.523001,-3.47931,1.49551,1.7,3.6,0,9371,46.613,29.479,13741
499776666,0.634768,2.223,92.6803,-0.20233,-0.0770809,0.940048,3.77827,1.41558,0.0331099,0.71452,-3.06778,1.51622,1.7,3.6,0,9371,46.613,29.479,13741
499877034,0.634768,2.223,92.698,0.117627,0.00917221,0.935673,3.85129,1.34758,0.0968171,-0.0706426,-0.355175,0.277269,1.7,3.6,0,9371,46.613,29.479,13741
499977368,0.634768,2.223,92.7144,0.331683,0.0633998,0.949037,3.57931,1.41849,0.0616364,-0.982745,3.11142,0.0796199,1.7,3.6,0,9371,46.613,29.479,13741
500077749,0.634768,2.223,92.6894,0.436756,0.0852875,0.960014,3.14889,1.54487,0.00996382,-1.26025,4.09432,1.95455,1.7,3.6,0,9371,46.613,29.479,13741
500178129,0.634768,2.223,92.6952,0.479513,0.0990185,0.967,2.63873,1.72191,-0.0236537,-1.33262,4.8342,2.23055,1.7,3.6,0,9371,46.613,29.479,13741
500278485,0.634768,2.223,92.6578,0.491558,0.112426,0.975725,2.10808,1.90589,-0.0910579,-1.35798,5.00011,2.29919,1.7,3.6,0,9371,46.613,29.479,13741
500378834,0.634768,2.223,92.6278,0.484487,0.117849,0.980374,1.53252,2.0845,-0.108994,-1.48089,4.8953,3.06311,1.7,3.6,0,9371,46.613,29.479,13741
500479115,0.634768,2.223,92.585,0.461323,0.114474,0.980684,0.949183,2.2621,-0.108193,-1.63542,4.94663,2.78099,1.7,3.6,0,9371,46.613,29.479,13741
500579446,0.634768,2.223,92.5689,0.428643,0.100999,0.975345,0.386124,2.4277,-0.10844,-1.53995,4.62626,2.82148,1.3,4.7,0,9371,46.621,29.732,13861.4
500679798,0.634768,2.223,92.5447,0.403556,0.0850286,0.968263,-0.148681,2.58967,-0.064304,-1.434,4.332,2.52989,1.3,4.7,0,9371,46.621,29.732,13861.4
500780148,0.634768,2.223,92.5394,0.39101,0.0859082,0.965,-0.654626,2.7447,-0.0249908,-1.45363,4.19947,2.25222,1.3,4.7,0,9371,46.621,29.732,13861.4
500880489,0.634768,2.223,92.5623,0.383281,0.0638107,0.955483,-1.12656,2.8818,-0.0031722,-1.36392,3.86934,1.73628,1.3,4.7,0,9371,46.621,29.732,13861.4
500980840,0.634768,2.223,92.5782,0.359243,0.0374838,0.946963,-1.56639,3.04412,0.0135012,-1.0672,3.84104,1.5406,1.3,4.7,0,9371,46.621,29.732,13861.4
501081174,0.634768,2.223,92.5834,0.307445,0.0104111,0.939109,-1.94407,3.21032,0.031947,-0.707353,3.29753,1.52758,1.3,4.7,0,9371,46.621,29.732,13861.4
501181541,0.634768,2.223,92.5985,0.248404,-0.0131732,0.934024,-2.24266,3.35631,0.0562859,-0.426995,2.78734,0.652332,1.3,4.7,0,9371,46.621,29.732,13861.4
501281886,0.634768,2.223,92.6076,0.195421,-0.0305299,0.931553,-2.46246,3.4903,0.0520958,-0.136793,2.19723,0.0865267,1.3,4.7,0,9371,46.621,29.732,13861.4
501382273,0.634768,2.223,92.6186,0.153612,-0.0402871,0.930895,-2.61988,3.60145,0.0482516,0.0386891,1.67163,-0.128139,1.3,4.7,0,9371,46.621,29.732,13861.4
501482610,0.634768,2.223,92.6074,0.119156,-0.0444104,0.93084,-2.73809,3.69504,0.0422325,0.126093,1.29391,0.0025322,1.3,4.7,0,9371,46.621,29.732,13861.4
501583009,0.634768,2.223,92.6055,0.0944833,-0.0441226,0.931703,-2.829,3.77366,0.0341888,0.148997,1.01733,-0.255545,5,4.4,0,9358,46.599,29.204,13608.8
501683394,0.634768,2.223,92.6002,0.0717418,-0.0544618,0.931458,-2.88144,3.83929,0.0214107,0.250187,0.687243,-0.286981,5,4.4,0,9358,46.599,29.204,13608.8
501783791,0.634768,2.223,92.6169,0.028009,-0.185926,0.935017,-2.91857,3.89825,0.0529605,0.471096,0.425471,0.276467,5,4.4,0,9358,46.599,29.204,13608.8
501884122,0.634768,2.223,92.6219,-0.0125469,-0.32244,0.938322,-2.81052,4.05094,0.00296426,2.16914,-0.0432304,-0.389395,5,4.4,0,9358,46.599,29.204,13608.8
501984500,0.634768,2.223,92.6202,-0.0314954,-0.414264,0.938152,-2.59613,4.29926,-0.0445634,3.11865,-0.262863,0.933236,5,4.4,0,9358,46.599,29.204,13608.8
502084831,0.634768,2.223,92.6214,-0.0342123,-0.455744,0.934277,-2.31397,4.61449,-0.0452051,3.70942,-0.359822,1.98447,5,4.4,0,9358,46.599,29.204,13608.8
502185217,0.634768,2.223,92.6266,-0.0209871,-0.468032,0.928248,-1.98875,4.95479,-0.030035,4.00514,-0.438968,2.14872,5,4.4,0,9358,46.599,29.204,13608.8
502285558,0.634768,2.223,92.6163,1.08017e-05,-0.449134,0.922946,-1.62022,5.37722,-0.0190523,4.11125,-0.165973,1.90735,5,4.4,0,9358,46.599,29.204,13608.8
502385883,0.634768,2.223,92.6235,0.015852,-0.393796,0.921837,-1.34531,5.70328,-0.00176516,3.6519,-0.189197,1.61151,5,4.4,0,9358,46.599,29.204,13608.8
502486198,0.634768,2.223,92.6147,0.0285052,-0.330363,0.922481,-1.13581,5.95879,0.0131285,2.87973,-0.0209236,1.19106,5,4.4,0,9358,46.599,29.204,13608.8
502586619,0.634768,2.223,92.6275,0.0394619,-0.273131,0.92394,-0.976852,6.17324,0.0310612,2.24101,0.120225,1.02907,1.5,-2,0,9358,46.594,29.844,13905.5
502686984,0.634768,2.223,92.6408,0.0294671,-0.210646,0.930882,-0.882072,6.34461,0.0308354,1.6934,0.462231,0.449644,1.5,-2,0,9358,46.594,29.844,13905.5
502787313,0.634768,2.223,92.6495,-0.12307,-0.0676214,0.947568,-0.791164,6.44069,0.0782769,0.843037,-0.227815,0.711943,1.5,-2,0,9358,46.594,29.844,13905.5
502887675,0.634768,2.223,92.6868,-0.29682,0.0763856,0.929736,-0.630679,6.23037,0.113172,-1.0459,-2.50124,0.238372,1.5,-2,0,9358,46.594,29.844,13905.5
502988057,0.634768,2.223,92.6945,-0.392495,0.143171,0.910173,-0.455954,5.87489,0.0226967,-1.98798,-3.4218,0.962594,1.5,-2,0,9358,46.594,29.844,13905.5
503088401,0.634768,2.223,92.6737,-0.445524,0.182858,0.893216,-0.245324,5.42164,-0.0160846,-2.26184,-3.80725,2.30544,1.5,-2,0,9358,46.594,29.844,13905.5
503188738,0.634768,2.223,92.6694,-0.46295,0.202741,0.882184,-0.016799,4.91091,-0.0351282,-2.50995,-4.29728,2.33417,1.5,-2,0,9358,46.594,29.844,13905.5
503289080,0.634768,2.223,92.6626,-0.462238,0.213311,0.875348,0.192488,4.38988,-0.0658382,-2.57236,-4.07456,2.64643,1.5,-2,0,9358,46.594,29.844,13905.5
503389436,0.634768,2.223,92.6192,-0.444296,0.214695,0.873936,0.391662,3.83787,-0.0603672,-2.72582,-4.05474,2.70388,1.5,-2,0,9358,46.594,29.844,13905.5
503489802,0.634768,2.223,92.5985,-0.426704,0.203184,0.879143,0.575287,3.30763,-0.0517064,-2.5137,-3.72733,2.99809,1.5,-2,0,9358,46.594,29.844,13905.5
503590195,0.634768,2.223,92.5985,-0.416094,0.183751,0.8868,0.745889,2.79921,-0.0368889,-2.52542,-3.76141,2.08133,-1.6,-4.2,0,9358,46.554,29.937,13936.9
503690539,0.634768,2.223,92.5969,-0.403774,0.181349,0.890565,0.921245,2.32191,-0.0327978,-2.25316,-3.82702,1.73915,-1.6,-4.2,0,9358,46.554,29.937,13936.9
503790884,0.634768,2.223,92.5917,-0.361943,0.226837,0.891194,1.07604,1.84686,-0.00763985,-2.45489,-3.31141,2.11208,-1.6,-4.2,0,9358,46.554,29.937,13936.9
503891247,0.634768,2.223,92.6047,-0.332889,0.248006,0.894117,1.15526,1.3681,0.00781874,-2.77285,-2.94924,1.70889,-1.6,-4.2,0,9358,46.554,29.937,13936.9
503991705,0.634768,2.223,92.6176,-0.317354,0.255398,0.895934,1.20362,0.911404,-0.00308507,-2.89249,-2.68556,1.47201,-1.6,-4.2,0,9358,46.554,29.937,13936.9
504092205,0.634768,2.223,92.6245,-0.310406,0.249254,0.897532,1.24167,0.460707,-0.00493742,-2.84302,-2.51773,1.78526,-1.6,-4.2,0,9358,46.554,29.937,13936.9
504193377,0.634768,2.223,92.6587,-0.31039,0.236657,0.89978,1.27021,0.0317318,-0.00420181,-2.73371,-2.39486,1.57829,-1.6,-4.2,0,9358,46.554,29.937,13936.9
504294273,0.634768,2.223,92.6943,-0.312839,0.219171,0.903991,1.30614,-0.361228,-0.0115259,-2.45263,-2.33863,1.20868,-1.6,-4.2,0,9358,46.554,29.937,13936.9
504394610,0.634768,2.223,92.7169,-0.315946,0.203475,0.907229,1.35285,-0.732545,-0.0303139,-2.26485,-2.40269,0.945673,-1.6,-4.2,0,9358,46.554,29.937,13936.9
504497731,0.634768,2.223,92.7234,-0.315712,0.188583,0.910907,1.41865,-1.09183,-0.0228873,-2.1697,-2.57548,0.832537,-1.6,-4.2,0,9358,46.554,29.937,13936.9
504598120,0.634768,2.223,92.7274,-0.317964,0.17559,0.914202,1.48377,-1.4244,-0.049876,-1.91434,-2.40881,1.02879,-4.6,-0.6,0,9358,46.554,29.937,13936.9
504698486,0.634768,2.223,92.7293,-0.306571,0.168006,0.915518,1.54666,-1.74682,-0.0560572,-1.8428,-2.28382,1.0985,-4.6,-0.6,0,9327,46.561,29.68,13819.3
504798843,0.634768,2.223,92.7146,-0.147535,0.230772,0.929553,1.62977,-2.08128,0.0293642,-1.7022,-2.20257,2.26351,-4.6,-0.6,0,9327,46.561,29.68,13819.3
504899219,0.634768,2.223,92.7147,0.062553,0.289207,0.956846,1.47624,-2.31165,0.0442478,-2.62598,0.0831087,0.215602,-4.6,-0.6,0,9327,46.561,29.68,13819.3
504999595,0.634768,2.223,92.7258,0.18964,0.315422,0.968315,1.14239,-2.44049,-0.041175,-2.9174,1.86055,0.430139,-4.6,-0.6,0,9327,46.561,29.68,13819.3
505099948,0.634768,2.223,92.7367,0.245906,0.326263,0.968539,0.706686,-2.53732,-0.0768265,-2.97019,2.62485,1.49912,-4.6,-0.6,0,9327,46.561,29.68,13819.3
505200363,0.634768,2.223,92.7454,0.25423,0.331771,0.962626,0.220518,-2.6092,-0.0962694,-3.0918,2.99633,1.78767,-4.6,-0.6,0,9327,46.561,29.68,13819.3
505300724,0.634768,2.223,92.7537,0.229375,0.33624,0.954868,-0.267103,-2.68088,-0.0920015,-3.05084,2.93336,1.94606,-4.6,-0.6,0,9327,46.561,29.68,13819.3
505401075,0.634768,2.223,92.7652,0.1883,0.343409,0.94868,-0.725315,-2.76663,-0.102099,-3.1731,2.647,1.2798,-4.6,-0.6,0,9327,46.561,29.68,13819.3
505501426,0.634768,2.223,92.783,0.135854,0.331738,0.941789,-1.14452,-2.88061,-0.109941,-3.01373,2.19362,1.46344,-4.6,-0.6,0,9327,46.561,29.68,13819.3
505601819,0.634768,2.223,92.8018,0.0800816,0.298715,0.935488,-1.51197,-3.0174,-0.0972623,-2.80981,1.65109,1.49976,-2.7,4,0,9327,46.561,29.68,13819.3
505702132,0.634768,2.223,92.801,0.0373057,0.248618,0.932783,-1.79638,-3.15788,-0.09661,-2.48224,1.00293,0.871486,-2.7,4,0,9315,46.581,29.48,13732.1
505802519,0.634768,2.223,92.7907,0.137591,0.0923722,0.945716,-2.02264,-3.27248,0.00263847,-1.73424,0.719556,1.63843,-2.7,4,0,9315,46.581,29.48,13732.1
505902910,0.634768,2.223,92.8065,0.289896,-0.0432376,0.936297,-2.23369,-3.14617,-0.00209837,0.0235499,2.53049,-0.655439,-2.7,4,0,9315,46.581,29.48,13732.1
506003257,0.634768,2.223,92.8161,0.391478,-0.110466,0.914096,-2.48074,-2.83991,-0.116353,1.2011,3.64421,0.59007,-2.7,4,0,9315,46.581,29.48,13732.1
506103576,0.634768,2.223,92.8122,0.449655,-0.136065,0.897883,-2.78028,-2.42161,-0.148658,1.49279,4.21268,2.10395,-2.7,4,0,9315,46.581,29.48,13732.1
506203950,0.634767,2.223,92.811,0.474487,-0.136451,0.890446,-3.11092,-1.93043,-0.160466,1.75945,4.68028,2.59651,-2.7,4,0,9315,46.581,29.48,13732.1
506304346,0.634767,2.223,92.8267,0.471022,-0.118344,0.891782,-3.46294,-1.43731,-0.152513,1.53551,4.80084,2.76505,-2.7,4,0,9315,46.581,29.48,13732.1
506404685,0.634767,2.223,92.8565,0.426672,-0.0881274,0.900825,-3.80663,-0.972134,-0.152173,1.36674,4.73699,2.17776,-2.7,4,0,9315,46.581,29.48,13732.1
506505024,0.634767,2.223,92.835,0.345767,-0.0553317,0.911393,-4.11732,-0.569369,-0.123718,1.09002,4.02186,2.17402,-2.7,4,0,9315,46.581,29.48,13732.1
506605414,0.634767,2.223,92.8352,0.261578,-0.0218953,0.922694,-4.35508,-0.259874,-0.0916121,0.825684,3.23991,0.995472,4.2,2.8,0,9315,46.581,29.48,13732.1
506705757,0.634767,2.223,92.8169,0.180398,-0.00501153,0.92928,-4.53766,-0.042488,-0.0956241,0.409277,2.31492,0.517406,4.2,2.8,0,9270,46.498,29.998,13948.5
506806195,0.634767,2.223,92.8029,0.0709678,-0.154225,0.933293,-4.67238,0.111179,-0.0138846,0.36063,1.48606,1.2068,4.2,2.8,0,9270,46.498,29.998,13948.5
506906558,0.634767,2.223,92.791,-0.0261937,-0.313719,0.946118,-4.56962,0.340458,-0.0201223,2.44628,0.186989,-0.0253024,4.2,2.8,0,9270,46.498,29.998,13948.5
507006938,0.634767,2.223,92.7741,-0.0832779,-0.413485,0.955776,-4.31734,0.625626,-0.0953479,3.61681,-0.56652,0.937972,4.2,2.8,0,9270,46.498,29.998,13948.5
507107295,0.634767,2.223,92.7791,-0.106221,-0.462759,0.958926,-3.96158,0.974239,-0.116378,4.19447,-0.822336,2.38845,4.2,2.8,0,9270,46.498,29.998,13948.5
507207640,0.634767,2.223,92.7785,-0.112691,-0.479856,0.957287,-3.54771,1.34551,-0.121415,4.61453,-1.01579,2.43329,4.2,2.8,0,9270,46.498,29.998,13948.5
507308044,0.634767,2.223,92.7668,-0.103648,-0.477946,0.953311,-3.03205,1.78493,-0.108401,4.71721,-1.09127,2.43198,4.2,2.8,0,9270,46.498,29.998,13948.5
507408401,0.634767,2.223,92.7496,-0.0871578,-0.465971,0.94869,-2.70746,2.07222,-0.0963587,4.33862,-0.880108,2.69966,4.2,2.8,0,9270,46.498,29.998,13948.5
507508756,0.634767,2.223,92.7424,-0.0703736,-0.452547,0.944582,-2.25006,2.49676,-0.0897247,4.42563,-0.629418,2.03114,4.2,2.8,0,9270,46.498,29.998,13948.5
507609160,0.634767,2.223,92.7169,-0.0552133,-0.438374,0.941865,-1.89801,2.84232,-0.0785835,4.13191,-0.485564,2.03454,-0.4,0.3,0,9270,46.498,29.998,13948.5
507709478,0.634767,2.223,92.681,-0.0425772,-0.408026,0.937749,-1.57584,3.17131,-0.0777453,3.91343,-0.241542,1.7923,-0.4,0.3,0,9270,46.5,30.006,13952.8
507809913,0.634767,2.223,92.6621,-0.111419,-0.2137,0.952197,-1.25941,3.46804,0.0282761,3.33037,-0.443683,2.12536,-0.4,0.3,0,9270,46.5,30.006,13952.8
507910235,0.634767,2.223,92.6578,-0.223688,0.096733,0.933142,-1.06576,3.42958,0.0803142,0.160714,-1.66295,0.136392,-0.4,0.3,0,9270,46.5,30.006,13952.8
508010593,0.634767,2.223,92.6373,-0.295148,0.280947,0.896463,-0.982691,3.07742,0.00811544,-2.60148,-2.58759,0.637108,-0.4,0.3,0,9270,46.5,30.006,13952.8
508110971,0.634767,2.223,92.63,-0.329262,0.368853,0.874085,-0.94021,2.58832,-0.049611,-3.57848,-2.74758,2.11912,-0.4,0.3,0,9270,46.5,30.006,13952.8
508211343,0.634767,2.223,92.6611,-0.329573,0.387132,0.867868,-0.919879,2.01218,-0.0670498,-4.05321,-2.94232,2.52319,-0.4,0.3,0,9270,46.5,30.006,13952.8
508311699,0.634767,2.223,92.665,-0.286567,0.342558,0.881716,-0.918548,1.45133,-0.0712571,-3.97689,-2.74921,2.10269,-0.4,0.3,0,9270,46.5,30.006,13952.8
508412084,0.634767,2.223,92.6435,-0.230468,0.273438,0.899677,-0.915258,0.983375,-0.0672831,-3.26825,-2.35142,1.61655,-0.4,0.3,0,9270,46.5,30.006,13952.8
508512422,0.634767,2.223,92.634,-0.174507,0.193967,0.916786,-0.917607,0.619543,-0.0504479,-2.46463,-1.67845,1.16805,-0.4,0.3,0,9270,46.5,30.006,13952.8
508613764,0.634767,2.223,92.6259,-0.135637,0.129843,0.927313,-0.912018,0.358928,-0.0171344,-1.70659,-1.28595,0.592535,-5,2.5,0,9270,46.5,30.006,13952.8
508714594,0.634767,2.223,92.594,-0.0880396,0.104122,0.936111,-0.906805,0.168512,-0.0101203,-1.01377,-0.904014,0.356764,-5,2.5,0,9270,46.431,31.62,14681.5
508816684,0.634767,2.223,92.5884,0.0225337,0.215751,0.9465,-0.94009,0.0148628,0.0364012,-1.31088,-0.168133,0.521799,-5,2.5,0,9270,46.431,31.62,14681.5
508921002,0.634767,2.223,92.5821,0.112747,0.310624,0.960039,-1.16257,-0.173404,0.00649965,-2.58162,0.970162,0.248581,-5,2.5,0,9270,46.431,31.62,14681.5
509021395,0.634766,2.223,92.5968,0.170857,0.372728,0.972153,-1.50139,-0.386976,-0.0192351,-3.16229,1.57269,1.51263,-5,2.5,0,9270,46.431,31.62,14681.5
509121768,0.634766,2.223,92.6064,0.194049,0.401567,0.977175,-1.92878,-0.619521,-0.00473463,-3.61972,1.9815,1.89209,-5,2.5,0,9270,46.431,31.62,14681.5
509222120,0.634766,2.223,92.6027,0.198357,0.410998,0.977018,-2.37688,-0.860325,-0.00370463,-3.80382,2.0159,2.06463,-5,2.5,0,9270,46.431,31.62,14681.5
509323690,0.634766,2.223,92.6076,0.190222,0.410337,0.974429,-2.82888,-1.10161,-0.0068945,-3.83716,1.99154,2.0895,-5,2.5,0,9270,46.431,31.62,14681.5
509429373,0.634766,2.223,92.6057,0.174939,0.403267,0.970517,-3.3597,-1.38663,0.00122208,-3.71525,1.86908,2.07209,-5,2.5,0,9270,46.431,31.62,14681.5
509529780,0.634766,2.223,92.6228,0.153641,0.387935,0.965873,-3.77915,-1.61656,0.00741748,-3.52815,1.69049,1.90231,-5,2.5,0,9270,46.431,31.62,14681.5
509630204,0.634766,2.223,92.6205,0.122923,0.341124,0.957237,-4.15309,-1.8288,0.0146982,-3.28596,1.46328,1.49029,1.1,2,0,9270,46.431,31.62,14681.5
509730561,0.634766,2.223,92.6485,0.0894406,0.267524,0.949569,-4.46674,-2.01512,0.0298756,-2.8508,1.15632,1.00999,1.1,2,0,9270,46.394,32.506,15080.8
509830925,0.634766,2.223,92.6635,0.0449473,-0.0142307,0.941766,-4.67459,-2.12838,0.0823201,-1.39813,0.762548,0.848138,1.1,2,0,9270,46.394,32.506,15080.8
509931279,0.634766,2.223,92.6929,0.00356049,-0.279543,0.940624,-4.64218,-1.97533,0.0969448,2.18646,0.353192,-0.357405,1.1,2,0,9270,46.394,32.506,15080.8
510031687,0.634766,2.223,92.7132,-0.027989,-0.421527,0.944863,-4.45248,-1.67926,0.0127403,3.83445,-0.0054458,0.70757,1.1,2,0,9270,46.394,32.506,15080.8
510132046,0.634766,2.223,92.7509,-0.0476889,-0.485796,0.948574,-4.16003,-1.29372,-0.0234747,4.54266,-0.255294,2.20933,1.1,2,0,9270,46.394,32.506,15080.8
510232389,0.634766,2.223,92.826,-0.0602767,-0.508555,0.950887,-3.8087,-0.880872,-0.0463022,4.99312,-0.395292,2.15688,1.1,2,0,9270,46.394,32.506,15080.8
510332776,0.634766,2.223,92.8665,-0.0655583,-0.504215,0.949589,-3.44611,-0.450952,-0.0657869,4.90764,-0.375535,2.48182,1.1,2,0,9270,46.394,32.506,15080.8
510433157,0.634766,2.223,92.8882,-0.0622674,-0.493458,0.948869,-3.08426,-0.0377369,-0.0808921,5.01449,-0.480868,2.03531,1.1,2,0,9270,46.394,32.506,15080.8
510533495,0.634765,2.223,92.8865,-0.0573786,-0.475644,0.948254,-2.72577,0.372704,-0.106776,4.78691,-0.435964,2.12513,1.1,2,0,9270,46.394,32.506,15080.8
510633908,0.634765,2.223,92.8887,-0.0452888,-0.416293,0.945199,-2.3841,0.77473,-0.110872,4.63858,-0.309229,1.80506,2.6,-4,0,9270,46.394,32.506,15080.8
510734233,0.634765,2.223,92.8435,-0.0610602,-0.333249,0.948386,-2.10664,1.12026,-0.115675,3.73839,-0.0679566,1.48798,2.6,-4,0,9270,46.394,32.506,15080.8
510834583,0.634765,2.223,92.7931,-0.193251,-0.243261,0.969302,-1.84944,1.3717,-0.0836484,2.84001,-0.662363,1.45518,2.6,-4,0,9270,46.394,32.506,15080.8
510934883,0.634765,2.223,92.7401,-0.311358,-0.168591,0.969335,-1.5171,1.43124,-0.104438,1.98046,-2.27776,0.721497,2.6,-4,0,9270,46.394,32.506,15080.8
511035239,0.634765,2.223,92.709,-0.380715,-0.131281,0.963211,-1.14634,1.36534,-0.131716,1.20197,-3.01162,1.72314,2.6,-4,0,9270,46.394,32.506,15080.8
511135581,0.634765,2.223,92.6691,-0.413121,-0.112212,0.955585,-0.728726,1.23783,-0.122197,1.06735,-3.6447,1.94533,2.6,-4,0,9270,46.394,32.506,15080.8
511235948,0.634765,2.223,92.6285,-0.420678,-0.106778,0.952327,-0.290603,1.06566,-0.0996296,0.922146,-3.73724,2.37254,2.6,-4,0,9270,46.394,32.506,15080.8
511336348,0.634765,2.223,92.5917,-0.413391,-0.107396,0.950611,0.131333,0.887066,-0.0907692,0.830641,-3.71842,1.98534,2.6,-4,0,9270,46.394,32.506,15080.8
511436707,0.634765,2.223,92.5621,-0.401488,-0.112347,0.950903,0.542712,0.705213,-0.0593208,0.822249,-3.56713,2.29474,2.6,-4,0,9270,46.394,32.506,15080.8
511537069,0.634765,2.223,92.5451,-0.388553,-0.119709,0.953039,0.936566,0.547545,-0.0294741,0.947404,-3.34532,1.95344,2.6,-4,0,9270,46.394,32.506,15080.8
511637454,0.634766,2.223,92.5368,-0.379827,-0.126973,0.955487,1.32065,0.395435,-0.00105325,1.03539,-3.39888,1.59191,2.8,-3.4,0,9270,46.394,32.506,15080.8
511737807,0.634766,2.223,92.5409,-0.361117,-0.148011,0.960483,1.69106,0.263262,0.0188424,1.05946,-3.10506,1.67992,2.8,-3.4,0,9270,46.394,32.506,15080.8
511838176,0.634766,2.223,92.5466,-0.332605,-0.18556,0.965383,2.04644,0.165757,0.0475968,1.45728,-2.83883,1.17868,2.8,-3.4,0,9239,46.488,31.009,14415.5
511938552,0.634766,2.223,92.5589,-0.313685,-0.206085,0.968143,2.37335,0.121171,0.0411047,1.5886,-2.38723,1.11843,2.8,-3.4,0,9239,46.488,31.009,14415.5
512038922,0.634766,2.223,92.5539,-0.291306,-0.212005,0.969016,2.70112,0.0920466,0.0429388,1.76779,-2.37629,0.957319,2.8,-3.4,0,9239,46.488,31.009,14415.5
512139219,0.634766,2.223,92.5798,-0.256739,-0.198095,0.965438,2.99981,0.0868899,0.0594962,1.81378,-2.05903,0.817044,2.8,-3.4,0,9239,46.488,31.009,14415.5
512239627,0.634766,2.223,92.5986,-0.22248,-0.179788,0.959972,3.24652,0.100723,0.05741,1.67874,-1.60758,0.657483,2.8,-3.4,0,9239,46.488,31.009,14415.5
512339968,0.634766,2.223,92.6112,-0.192094,-0.158544,0.955386,3.4513,0.104871,0.0538459,1.33716,-1.37272,0.609721,2.8,-3.4,0,9239,46.488,31.009,14415.5
512440405,0.634766,2.223,92.6288,-0.169491,-0.138816,0.951511,3.60564,0.113567,0.0533866,1.16518,-1.03058,0.00195602,2.8,-3.4,0,9239,46.488,31.009,14415.5
512540724,0.634766,2.223,92.6296,-0.150823,-0.124264,0.948455,3.72198,0.113537,0.0368325,0.876767,-0.843316,0.146158,2.8,-3.4,0,9239,46.488,31.009,14415.5
512641123,0.634766,2.223,92.6336,-0.137101,-0.113107,0.945854,3.8253,0.117867,0.0305231,0.769542,-0.790781,0.158034,4.9,1.5,0,9239,46.488,31.009,14415.5
512741422,0.634766,2.223,92.6228,-0.114992,-0.103301,0.940949,3.89287,0.127471,0.0126328,0.673694,-0.474002,0.0206013,4.9,1.5,0,9239,46.488,31.009,14415.5
512841796,0.634766,2.223,92.6185,0.0737263,-0.128191,0.924715,3.95351,0.14238,0.0670345,0.530565,-0.149509,0.879293,4.9,1.5,0,9239,46.488,31.517,14651.6
512942238,0.634766,2.223,92.6414,0.265343,-0.156179,0.913449,3.81719,0.332404,0.0773681,0.986959,2.42995,0.0986146,4.9,1.5,0,9239,46.488,31.517,14651.6
513042625,0.634766,2.223,92.6474,0.370886,-0.175327,0.910078,3.56569,0.634433,-0.00526628,1.1237,3.79592,0.86839,4.9,1.5,0,9239,46.488,31.517,14651.6
513143007,0.634766,2.223,92.6273,0.409283,-0.190054,0.910809,3.25059,1.02138,-0.039728,1.19394,4.12998,2.60528,4.9,1.5,0,9239,46.488,31.517,14651.6
513243374,0.634766,2.223,92.6272,0.410657,-0.202044,0.912447,2.9191,1.45701,-0.0427494,1.5476,4.52985,2.20939,4.9,1.5,0,9239,46.488,31.517,14651.6
513343734,0.634766,2.223,92.6403,0.384353,-0.217889,0.915796,2.59845,1.87086,-0.0618106,1.5141,4.43542,1.98789,4.9,1.5,0,9239,46.488,31.517,14651.6
513444106,0.634766,2.223,92.6539,0.349611,-0.236875,0.914413,2.30938,2.28184,-0.0577628,1.63936,4.12467,1.82744,4.9,1.5,0,9239,46.488,31.517,14651.6
513544463,0.634766,2.223,92.661,0.316521,-0.256857,0.912616,2.07358,2.677,-0.0514244,1.69266,3.5869,1.91783,4.9,1.5,0,9239,46.488,31.517,14651.6
513644869,0.634766,2.223,92.6799,0.270848,-0.266566,0.914201,1.87535,3.0658,-0.0519488,1.94679,3.36091,1.3137,4.2,0.2,0,9239,46.488,31.517,14651.6
513745190,0.634766,2.223,92.694,0.195971,-0.251293,0.922106,1.73034,3.41643,-0.0412857,1.81818,2.62502,1.38531,4.2,0.2,0,9239,46.488,31.517,14651.6
513845459,0.634766,2.223,92.6978,0.0420871,-0.19375,0.942319,1.63977,3.70592,-0.00651301,1.64991,1.78277,0.88857,4.2,0.2,0,9239,46.488,31.517,14651.6
