timestamp,lat,log,alt,roll,pitch,yaw,vel_x,vel_y,vel_z,acc_x,acc_y,acc_z,act_vx,act_vy,act_yr,capacity,vol,cur,power
1469126101,0.634769,2.223,90.4217,-0.0334494,-0.0072981,0.929941,-0.0437474,-0.0376122,-0.0208252,0.184977,0.0674023,0.103901,0,1.3,0,12669,49.628,25.108,12460.6
1469226543,0.634769,2.223,90.4123,-0.0342874,-0.00754787,0.930157,-0.0352403,-0.0120516,-0.019482,0.289161,0.152594,0.0429545,0,1.3,0,12669,49.628,25.108,12460.6
1469326927,0.634769,2.223,90.4025,-0.0258726,-0.00599157,0.92885,-0.0367187,0.00916199,-0.0274364,0.152576,0.217402,0.116452,0,1.3,0,12669,49.628,25.108,12460.6
1469427288,0.634769,2.223,90.4016,0.0577529,0.000148801,0.928297,-0.0507902,0.0290701,0.00844677,0.0915999,0.464831,0.200382,0,1.3,0,12669,49.628,25.108,12460.6
1469527655,0.634769,2.223,90.406,0.145263,0.0058758,0.92946,-0.149117,0.112194,-0.00622233,0.0987184,1.37872,0.0981152,0,1.3,0,12669,49.628,25.108,12460.6
1469628041,0.634769,2.223,90.4031,0.183068,0.00876828,0.92984,-0.313687,0.233096,-0.0257659,-0.0297651,2.05514,0.269591,0,1.3,0,12669,49.628,25.108,12460.6
1469728429,0.634769,2.223,90.3992,0.186782,0.00764272,0.929527,-0.502727,0.368321,-0.0221764,-0.0530633,2.28131,0.515718,0,1.3,0,12669,49.628,25.108,12460.6
1469828766,0.634769,2.223,90.4036,0.159776,0.00656436,0.929044,-0.685768,0.50378,-0.0175383,-0.00118956,2.13906,0.355457,0,1.3,0,12669,49.628,25.108,12460.6
1469929065,0.634769,2.223,90.3911,0.121139,0.00493389,0.928354,-0.828694,0.613895,-0.0218322,0.0475244,1.66915,0.225478,0,1.3,0,12669,49.628,25.108,12460.6
1470030047,0.634769,2.223,90.3783,0.086282,0.00552312,0.92865,-0.930877,0.703013,-0.0140375,0.0411244,1.29502,0.106605,0,1.3,0,12669,49.628,25.108,12460.6
1470130449,0.634769,2.223,90.3644,0.0587154,0.00746643,0.928733,-1.00985,0.774962,-0.0135566,0.0750012,0.96642,0.321902,4.5,-2.3,0,12669,49.605,25.517,12657.7
1470231132,0.634769,2.223,90.352,0.0205345,-0.0185412,0.925398,-1.07474,0.830824,-0.00205756,-0.0835037,0.752538,0.403725,4.5,-2.3,0,12669,49.605,25.517,12657.7
1470331558,0.634769,2.223,90.3405,-0.10599,-0.158046,0.935909,-1.08389,0.893444,0.0223574,0.818097,0.150556,0.0192849,4.5,-2.3,0,12669,49.605,25.517,12657.7
1470433323,0.634769,2.223,90.3368,-0.204605,-0.250829,0.954693,-0.883813,1.00638,-0.0248583,2.1821,-1.11356,0.042437,4.5,-2.3,0,12669,49.605,25.517,12657.7
1470533648,0.634769,2.223,90.3337,-0.268553,-0.305475,0.97015,-0.554999,1.13521,-0.04002,2.76426,-1.75576,1.67054,4.5,-2.3,0,12669,49.605,25.517,12657.7
1470634018,0.634768,2.223,90.321,-0.29937,-0.326457,0.977049,-0.133461,1.26519,-0.018503,3.20395,-2.34537,1.8913,4.5,-2.3,0,12669,49.605,25.517,12657.7
1470734380,0.634768,2.223,90.3134,-0.307637,-0.331376,0.978061,0.31206,1.38808,-0.0116462,3.22238,-2.45717,2.11299,4.5,-2.3,0,12669,49.605,25.517,12657.7
1470834710,0.634768,2.223,90.309,-0.306409,-0.326551,0.97617,0.753213,1.50548,0.00201642,3.21581,-2.43534,1.97745,4.5,-2.3,0,12669,49.605,25.517,12657.7
1470935041,0.634769,2.223,90.3013,-0.302301,-0.321518,0.974418,1.18127,1.61295,0.0152447,2.98281,-2.37473,2.10365,4.5,-2.3,0,12669,49.605,25.517,12657.7
1471035407,0.634769,2.223,90.2969,-0.296106,-0.314648,0.972221,1.68921,1.73289,0.0259637,2.96345,-2.38703,1.66953,4.5,-2.3,0,12669,49.605,25.517,12657.7
1471135831,0.634769,2.223,90.3028,-0.291343,-0.30517,0.969607,2.09772,1.82206,0.0326232,2.81995,-2.27747,1.66199,0.1,4.1,0,12669,49.588,25.667,12727.8
1471236221,0.634769,2.223,90.3216,-0.274464,-0.287648,0.964954,2.48438,1.91357,0.0392059,2.73679,-2.204,1.50557,0.1,4.1,0,12669,49.588,25.667,12727.8
1471336592,0.634769,2.223,90.3362,-0.0906714,-0.143014,0.926141,2.82512,1.99525,0.102883,2.08067,-1.56482,1.68286,0.1,4.1,0,12669,49.588,25.667,12727.8
1471436901,0.634769,2.223,90.3665,0.168269,0.0686481,0.928488,2.78606,2.04529,0.184925,-0.284599,1.09808,0.336801,0.1,4.1,0,12669,49.588,25.667,12727.8
1471537275,0.634769,2.223,90.397,0.326429,0.189482,0.958438,2.43799,2.08247,0.121755,-2.05914,3.34697,0.183741,0.1,4.1,0,12669,49.588,25.667,12727.8
1471637635,0.634769,2.223,90.4172,0.405239,0.242603,0.980597,1.96709,2.11825,0.0387331,-2.51373,3.95659,1.72162,0.1,4.1,0,12669,49.588,25.667,12727.8
1471738026,0.634769,2.223,90.4218,0.436249,0.272785,0.995959,1.4124,2.1549,-0.00359374,-2.7225,4.15766,2.6436,0.1,4.1,0,12669,49.588,25.667,12727.8
1471838409,0.634769,2.223,90.4352,0.442606,0.28653,1.00382,0.816256,2.17802,-0.0343935,-3.03544,4.47004,2.47119,0.1,4.1,0,12669,49.588,25.667,12727.8
1471938782,0.634769,2.223,90.4357,0.429141,0.286102,1.00456,0.227812,2.19613,-0.0732064,-2.95368,4.25074,2.5497,0.1,4.1,0,12669,49.588,25.667,12727.8
1472039149,0.634769,2.223,90.3976,0.403014,0.277054,1.0009,-0.364377,2.19194,-0.0722815,-2.91799,3.85224,3.1719,0.1,4.1,0,12669,49.588,25.667,12727.8
1472139547,0.634769,2.223,90.3587,0.385765,0.256146,0.991427,-0.940666,2.18136,-0.0442214,-2.9753,3.92392,2.35912,0.1,4.3,0,12669,49.553,27.39,13572.6
1472239881,0.634769,2.223,90.3427,0.371735,0.221997,0.980548,-1.48112,2.18887,-0.0330346,-2.64698,3.67516,2.21031,0.1,4.3,0,12669,49.553,27.39,13572.6
1472340281,0.634769,2.223,90.3329,0.338847,0.171967,0.965783,-1.98254,2.23346,-0.00057655,-2.05653,3.58296,2.01658,0.1,4.3,0,12669,49.553,27.39,13572.6
1472440602,0.634769,2.223,90.3341,0.278363,0.123092,0.951985,-2.38633,2.28584,0.0307355,-1.54513,2.96466,1.35274,0.1,4.3,0,12669,49.553,27.39,13572.6
1472542073,0.634769,2.223,90.3261,0.223093,0.0790048,0.940852,-2.68576,2.34157,0.0387054,-0.985688,2.36231,0.714713,0.1,4.3,0,12669,49.553,27.39,13572.6
1472647101,0.634769,2.223,90.3279,0.16891,0.0386267,0.931893,-2.91447,2.39885,0.0269747,-0.630801,1.82302,0.3513,0.1,4.3,0,12669,49.553,27.39,13572.6
1472747477,0.634769,2.223,90.3288,0.133108,0.0117223,0.927534,-3.07505,2.45037,0.0255596,-0.244494,1.32654,0.095912,0.1,4.3,0,12669,49.553,27.39,13572.6
1472847837,0.634769,2.223,90.3336,0.108478,-0.00519291,0.924816,-3.18888,2.50548,0.0125731,-0.0117829,1.05368,-0.0108858,0.1,4.3,0,12669,49.553,27.39,13572.6
1472948220,0.634768,2.223,90.334,0.0923821,-0.0145385,0.923832,-3.26757,2.55938,0.0165034,0.137555,0.842346,0.109942,0.1,4.3,0,12669,49.553,27.39,13572.6
1473048560,0.634768,2.223,90.3235,0.0775558,-0.0177265,0.923847,-3.32659,2.61613,0.00186212,0.274686,0.713629,0.0759368,0.1,4.3,0,12669,49.553,27.39,13572.6
1473148972,0.634768,2.223,90.3175,0.0665886,-0.0165146,0.924904,-3.37177,2.66526,0.0103154,0.254137,0.623265,0.301033,1.5,2.5,0,12669,49.506,27.39,13559.7
1473249373,0.634768,2.223,90.3214,0.035894,-0.0338385,0.924432,-3.41424,2.70331,0.0233942,0.112506,0.545696,0.326478,1.5,2.5,0,12669,49.506,27.39,13559.7
1473350051,0.634768,2.223,90.3312,-0.105248,-0.141889,0.935478,-3.39827,2.74525,0.0731885,0.755467,-0.143185,0.0575843,1.5,2.5,0,12669,49.506,27.39,13559.7
1473451274,0.634768,2.223,90.3496,-0.210606,-0.209601,0.950821,-3.16648,2.78147,0.0261175,1.8169,-1.63876,-0.0190313,1.5,2.5,0,12669,49.506,27.39,13559.7
1473552049,0.634768,2.223,90.3707,-0.246098,-0.226597,0.955805,-2.83598,2.81603,-0.0133632,2.18703,-2.25822,0.91573,1.5,2.5,0,12669,49.506,27.39,13559.7
1473654530,0.634768,2.223,90.398,-0.233318,-0.207257,0.950562,-2.46698,2.8427,-0.00209035,2.26344,-2.44595,1.17775,1.5,2.5,0,12669,49.506,27.39,13559.7
1473754913,0.634768,2.223,90.3966,-0.19176,-0.173706,0.942475,-2.14032,2.8626,0.00683957,1.9988,-2.19531,0.801928,1.5,2.5,0,12669,49.506,27.39,13559.7
1473855229,0.634768,2.223,90.3939,-0.144713,-0.13753,0.936093,-1.88325,2.87928,0.00645775,1.53837,-1.64845,0.62865,1.5,2.5,0,12669,49.506,27.39,13559.7
1473955590,0.634768,2.223,90.3997,-0.103525,-0.105892,0.93197,-1.69201,2.8862,0.00863389,1.12408,-1.20041,0.288622,1.5,2.5,0,12669,49.506,27.39,13559.7
1474055911,0.634768,2.223,90.41,-0.068584,-0.0800944,0.92954,-1.54982,2.88727,0.00614742,0.738106,-0.878813,0.0439311,1.5,2.5,0,12669,49.506,27.39,13559.7
1474156274,0.634768,2.223,90.415,-0.0431372,-0.0597071,0.928211,-1.44499,2.89526,0.00653854,0.637788,-0.515283,-0.122894,3.9,3.9,0,12669,49.46,28.473,14082.7
1474256668,0.634768,2.223,90.421,-0.0166326,-0.0581404,0.929432,-1.36921,2.91129,-0.00780173,0.525254,-0.314434,0.181291,3.9,3.9,0,12669,49.46,28.473,14082.7
1474357064,0.634768,2.223,90.4304,0.0669105,-0.166383,0.922134,-1.31457,2.9581,0.0211944,0.951106,0.3322,-0.378462,3.9,3.9,0,12669,49.46,28.473,14082.7
1474457448,0.634768,2.223,90.4294,0.138961,-0.269869,0.9078,-1.26712,3.16369,-0.051062,2.03243,1.09404,0.165696,3.9,3.9,0,12669,49.46,28.473,14082.7
1474557800,0.634768,2.223,90.4185,0.187751,-0.33709,0.895126,-1.20551,3.51201,-0.0738296,2.89644,1.62149,1.35727,3.9,3.9,0,12669,49.46,28.473,14082.7
1474658158,0.634768,2.223,90.4048,0.198095,-0.351878,0.892115,-1.14728,3.9275,-0.079482,3.31163,1.89497,1.81205,3.9,3.9,0,12669,49.46,28.473,14082.7
1474758510,0.634768,2.223,90.3759,0.17631,-0.324493,0.89849,-1.08581,4.33434,-0.0457242,3.12326,1.78386,1.91872,3.9,3.9,0,12669,49.46,28.473,14082.7
1474858833,0.634768,2.223,90.3625,0.145929,-0.28233,0.90636,-1.03677,4.67694,-0.0298108,2.7417,1.54452,1.14947,3.9,3.9,0,12669,49.46,28.473,14082.7
1474959185,0.634768,2.223,90.3664,0.115128,-0.237285,0.912759,-0.99767,4.95645,-0.00682748,2.20397,1.16681,0.994211,3.9,3.9,0,12669,49.46,28.473,14082.7
1475059564,0.634768,2.223,90.3764,0.0855676,-0.192663,0.918118,-0.963334,5.17756,0.0211199,1.7433,0.872284,0.703658,3.9,3.9,0,12669,49.46,28.473,14082.7
1475159974,0.634768,2.223,90.3986,0.064254,-0.156915,0.921636,-0.929894,5.34061,0.02122,1.41546,0.52966,-0.0266739,0.9,4.5,0,12669,49.46,28.473,14082.7
1475260381,0.634768,2.223,90.4285,0.0507088,-0.110247,0.92466,-0.917288,5.47036,0.0372299,1.04257,0.486075,0.692897,0.9,4.5,0,12669,49.446,27.886,13788.5
1475360730,0.634768,2.223,90.4575,0.0681073,0.116563,0.928543,-0.939461,5.53019,0.120758,-0.211652,0.380486,0.29413,0.9,4.5,0,12669,49.446,27.886,13788.5
1475461077,0.634768,2.223,90.499,0.0970112,0.289692,0.938948,-1.16542,5.37395,0.0741615,-2.87903,0.765857,-0.291826,0.9,4.5,0,12669,49.446,27.886,13788.5
1475561441,0.634768,2.223,90.5289,0.117286,0.373096,0.947551,-1.48277,5.14501,0.000814326,-3.84714,1.02806,0.956875,0.9,4.5,0,12669,49.446,27.886,13788.5
1475661781,0.634768,2.223,90.5545,0.106758,0.374303,0.94747,-1.8281,4.8837,-0.0179826,-3.84057,1.0333,1.34855,0.9,4.5,0,12669,49.446,27.886,13788.5
1475762131,0.634768,2.223,90.5729,0.0739012,0.337761,0.945086,-2.13258,4.6383,-0.0466515,-3.56256,0.821038,1.06659,0.9,4.5,0,12669,49.446,27.886,13788.5
1475862451,0.634768,2.223,90.5892,0.04202,0.281596,0.941891,-2.37279,4.39651,-0.0392267,-3.19086,0.378758,0.507663,0.9,4.5,0,12669,49.446,27.886,13788.5
1475962739,0.634768,2.223,90.5889,0.0240192,0.218542,0.937837,-2.55401,4.18854,-0.0553612,-2.48662,0.0725364,0.407119,0.9,4.5,0,12669,49.446,27.886,13788.5
1476063096,0.634768,2.223,90.5688,0.0224795,0.162725,0.935405,-2.68226,4.02426,-0.0749311,-1.87086,-0.0426123,-0.0327815,0.9,4.5,0,12669,49.446,27.886,13788.5
1476163519,0.634767,2.223,90.5519,0.0287881,0.11651,0.933075,-2.79609,3.90163,-0.103033,-1.36127,0.118004,0.157724,-3.48713,-5.81776,0,12669,49.446,27.886,13788.5
1476263890,0.634767,2.223,90.5282,0.0237786,0.0797988,0.931574,-2.89614,3.81502,-0.0936247,-0.966025,0.222412,0.55661,-3.49312,-6.00284,0,12669,49.446,27.886,13788.5
1476364356,0.634767,2.223,90.501,-0.131521,0.0802876,0.92439,-2.94032,3.73485,-0.0522794,-0.652996,-0.456068,0.192991,-3.46409,-6.18686,0,12669,49.446,27.886,13788.5
1476464714,0.634767,2.223,90.4751,-0.286942,0.09016,0.91638,-2.82851,3.49335,-0.0700751,-0.987753,-2.37679,0.689809,-3.41307,-6.35805,0,12669,49.446,27.886,13788.5
1476565109,0.634767,2.223,90.4654,-0.376802,0.0949682,0.911839,-2.61203,3.16829,-0.103593,-1.04101,-3.42626,1.43719,-3.39427,-6.51199,0,12669,49.446,27.886,13788.5
1476665392,0.634767,2.223,90.4565,-0.417216,0.099014,0.908383,-2.33613,2.80911,-0.108501,-0.929712,-3.94095,1.7191,-3.37448,-6.63655,0,12669,49.446,27.886,13788.5
1476765775,0.634767,2.223,90.443,-0.419288,0.1036,0.906302,-2.03402,2.42534,-0.100073,-1.01035,-4.11534,2.0874,-3.36793,-6.7439,0,12669,49.453,27.017,13360.7
1476866136,0.634767,2.223,90.436,-0.394136,0.101651,0.906737,-1.75181,2.03487,-0.0944835,-1.16526,-3.97493,1.98847,-3.37872,-6.81583,0,12669,49.453,27.017,13360.7
1476966478,0.634767,2.223,90.4409,-0.363627,0.0909925,0.910272,-1.48839,1.67969,-0.0600277,-1.08772,-3.64089,1.78802,-3.41406,-6.8762,0,12669,49.453,27.017,13360.7
1477066884,0.634767,2.223,90.4509,-0.326254,0.0747149,0.915503,-1.25349,1.37297,-0.0379569,-0.874372,-3.24102,1.38558,-3.46336,-6.90063,0,12669,49.453,27.017,13360.7
1477167222,0.634767,2.223,90.4576,-0.288066,0.0566512,0.920924,-1.03988,1.11284,-0.0271196,-0.708729,-2.88102,0.882583,-3.51059,-6.92077,0,12669,49.453,27.017,13360.7
1477268777,0.634767,2.223,90.46,-0.257539,0.0457117,0.923266,-0.847728,0.901495,-0.0168702,-0.477452,-2.41397,0.869673,-3.53861,-6.91918,0,12669,49.453,27.017,13360.7
1477369142,0.634767,2.223,90.4596,-0.288299,0.0900338,0.917225,-0.668691,0.719466,0.0141964,-0.542653,-2.30964,0.5538,-3.49309,-6.92498,0,12669,49.453,27.017,13360.7
1477471039,0.634767,2.223,90.4486,-0.320462,0.12617,0.91023,-0.501287,0.473808,-0.0409411,-1.00863,-2.56975,0.742279,-3.44301,-6.90741,0,12669,49.453,27.017,13360.7
1477571445,0.634767,2.223,90.4367,-0.3397,0.15045,0.903662,-0.314519,0.177655,-0.0519727,-1.28294,-2.89411,1.16707,-3.38969,-6.8973,0,12669,49.453,27.017,13360.7
1477673964,0.634767,2.223,90.4283,-0.348272,0.162653,0.899851,-0.136111,-0.146152,-0.0468025,-1.50767,-3.05161,1.16397,-3.36115,-6.87036,0,12669,49.453,27.017,13360.7
1477774323,0.634767,2.223,90.4186,-0.351026,0.167144,0.898746,0.0373515,-0.478159,-0.035882,-1.54365,-2.86287,1.69119,-3.34551,-6.83965,0,12669,49.475,27.047,13381.5
1477874717,0.634767,2.223,90.4158,-0.348228,0.168474,0.898616,0.206819,-0.804028,-0.028895,-1.5581,-2.86624,1.52693,-3.33715,-6.79636,0,12669,49.475,27.047,13381.5
1477975089,0.634767,2.223,90.4235,-0.34322,0.166191,0.899546,0.397536,-1.17365,-0.0177108,-1.48959,-2.78878,1.11233,-3.32832,-6.74936,0,12669,49.475,27.047,13381.5
1478075438,0.634767,2.223,90.4285,-0.339385,0.163632,0.900831,0.551033,-1.47533,-0.0223525,-1.4667,-2.71356,1.14882,-3.31814,-6.69161,0,12669,49.475,27.047,13381.5
1478175829,0.634767,2.223,90.4401,-0.333224,0.16134,0.901705,0.695747,-1.75982,-0.0159314,-1.39764,-2.56935,1.09584,-3.29625,-6.62727,0,12669,49.475,27.047,13381.5
1478276220,0.634767,2.223,90.4449,-0.328409,0.158219,0.902504,0.838556,-2.03684,-0.0157773,-1.37511,-2.68996,0.909136,-3.27048,-6.55549,0,12669,49.475,27.047,13381.5
1478376550,0.634767,2.223,90.445,-0.326702,0.157217,0.902704,0.974464,-2.31128,-0.0189763,-1.34893,-2.51695,1.09006,-3.23363,-6.47412,0,12669,49.475,27.047,13381.5
1478476923,0.634767,2.223,90.4436,-0.327781,0.157459,0.902334,1.10459,-2.57881,-0.0248071,-1.37849,-2.49252,0.795936,-3.18802,-6.3864,0,12669,49.475,27.047,13381.5
1478577263,0.634767,2.223,90.4449,-0.327948,0.157854,0.902289,1.23217,-2.84032,-0.0320358,-1.36339,-2.41561,1.01628,-3.13893,-6.28827,0,12669,49.475,27.047,13381.5
1478677617,0.634767,2.223,90.4501,-0.328203,0.157059,0.902413,1.35247,-3.10653,-0.0350547,-1.39367,-2.32323,1.04438,-3.08659,-6.18384,0,12669,49.475,27.047,13381.5
1478777966,0.634767,2.223,90.4476,-0.32967,0.155018,0.902478,1.46757,-3.36456,-0.0436184,-1.38307,-2.40891,0.66877,-3.02931,-6.07038,0,12669,49.431,27.06,13376
1478878322,0.634767,2.223,90.4413,-0.331514,0.154475,0.902201,1.59181,-3.61571,-0.0451028,-1.25929,-2.33669,0.942318,-2.96568,-5.95063,0,12669,49.431,27.06,13376
1478978665,0.634767,2.223,90.4444,-0.33161,0.1545,0.902215,1.71612,-3.86971,-0.0439354,-1.24993,-2.31137,1.12545,-2.89952,-5.81967,0,12669,49.431,27.06,13376
1479078972,0.634767,2.223,90.4478,-0.33209,0.152235,0.903018,1.84119,-4.11694,-0.0319413,-1.20258,-2.28109,1.09729,-2.8362,-5.68319,0,12669,49.431,27.06,13376
1479179378,0.634767,2.223,90.4489,-0.33249,0.152074,0.903098,1.96845,-4.35995,-0.0225524,-1.19892,-2.30107,0.958538,-2.76316,-5.53665,0,12669,49.431,27.06,13376
1479279737,0.634767,2.223,90.4447,-0.324349,0.14887,0.904373,2.09865,-4.60226,-0.0186995,-1.2035,-2.37933,0.878994,-2.69591,-5.3831,0,12669,49.431,27.06,13376
1479380191,0.634768,2.223,90.4414,-0.284662,0.12849,0.910693,2.21541,-4.82268,0.00286063,-0.986774,-1.99952,1.15791,-2.65576,-5.21769,0,12669,49.431,27.06,13376
1479480594,0.634768,2.223,90.4393,-0.239412,0.104033,0.917043,2.29776,-4.97458,0.021407,-0.784093,-1.43734,0.497298,-2.61329,-5.04899,0,12669,49.431,27.06,13376
1479581064,0.634768,2.223,90.4405,-0.19771,0.080675,0.921792,2.36218,-5.06856,0.0117121,-0.416313,-1.0217,0.327388,-2.55529,-4.8746,0,12669,49.431,27.06,13376
1479681385,0.634768,2.223,90.4526,-0.155044,0.0619867,0.924582,2.4056,-5.1227,0.0121604,-0.25638,-0.661067,-0.0487188,-2.48541,-4.70071,0,12669,49.431,27.06,13376
1479781744,0.634768,2.223,90.4648,-0.11176,0.0420722,0.92733,2.42335,-5.14499,0.00665229,-0.0948492,-0.281247,-0.228728,-2.40989,-4.52011,0,12669,49.35,27.844,13741
1479882107,0.634768,2.223,90.4643,-0.073849,0.0251467,0.928665,2.41796,-5.11188,-0.00285664,0.151084,0.174129,-0.103422,-2.32997,-4.34809,0,12669,49.35,27.844,13741
1479982441,0.634768,2.223,90.4563,-0.0401735,0.0116127,0.928548,2.38881,-5.04244,-0.000487028,0.302182,0.603852,0.140498,-2.24198,-4.17794,0,12669,49.35,27.844,13741
1480082795,0.634768,2.223,90.4501,-0.0137427,-0.00169273,0.928342,2.34631,-4.94758,0.00281758,0.414803,0.808885,0.0504341,-2.15723,-4.01848,0,12669,49.35,27.844,13741
1480183194,0.634768,2.223,90.4405,0.00291579,-0.00932045,0.927834,2.29085,-4.83415,-0.00940412,0.48757,1.0092,0.170293,-2.06931,-3.85678,0,12669,49.35,27.844,13741
1480283551,0.634768,2.223,90.4422,0.0186068,-0.0159901,0.927303,2.23656,-4.70265,-0.00635838,0.627817,1.1296,0.0954321,-1.98775,-3.70936,0,12669,49.35,27.844,13741
1480383925,0.634768,2.223,90.4576,0.0300828,-0.0207644,0.926008,2.16538,-4.56325,-0.00883989,0.582774,1.2389,0.00615531,-1.90396,-3.56178,0,12669,49.35,27.844,13741
1480484353,0.634768,2.223,90.4662,0.0357694,-0.0228317,0.925984,2.09794,-4.41078,-0.0195952,0.678466,1.26137,-0.0912218,-1.83291,-3.42973,0,12669,49.35,27.844,13741
1480584723,0.634768,2.223,90.4687,0.0377762,-0.0223303,0.925572,2.0291,-4.258,-0.0294819,0.688464,1.33356,0.133746,-1.76082,-3.29724,0,12669,49.35,27.844,13741
1480685091,0.634768,2.223,90.4674,0.0362945,-0.0200542,0.925719,1.9527,-4.11253,-0.0316729,0.618052,1.33516,-0.0236898,-1.69603,-3.17915,0,12669,49.35,27.844,13741
1480785478,0.634768,2.223,90.4688,0.0347555,-0.0231014,0.925233,1.88163,-3.96428,-0.0465853,0.642127,1.32256,0.0295804,-1.62652,-3.05575,0,12669,49.335,28.674,14146.3
1480885935,0.634768,2.223,90.461,0.0260807,-0.023922,0.926132,1.81159,-3.82792,-0.0536897,0.602364,1.17869,0.0885755,-1.56628,-2.94428,0,12669,49.335,28.674,14146.3
1480986328,0.634768,2.223,90.4484,0.023523,-0.0274964,0.926664,1.75173,-3.69967,-0.0553598,0.641136,1.09698,-0.0886798,-1.50444,-2.82992,0,12669,49.335,28.674,14146.3
1481086721,0.634768,2.223,90.4411,0.0196043,-0.0278348,0.927176,1.69082,-3.57431,-0.0659581,0.575373,1.07266,0.0198276,-1.44601,-2.72819,0,12669,49.335,28.674,14146.3
1481187138,0.634768,2.223,90.4266,0.0193812,-0.0250634,0.927714,1.63937,-3.45169,-0.0759362,0.626186,1.0352,0.114874,-1.38782,-2.62416,0,12669,49.335,28.674,14146.3
1481287458,0.634768,2.223,90.413,0.0175477,-0.0259076,0.927822,1.5826,-3.3366,-0.0642838,0.648684,0.974496,0.131835,-1.33034,-2.5283,0,12669,49.335,28.674,14146.3
1481387907,0.634768,2.223,90.4103,0.0184067,-0.0296109,0.927552,1.52442,-3.22065,-0.0555943,0.614466,1.00643,0.510697,-1.2724,-2.42909,0,12669,49.335,28.674,14146.3
1481488353,0.634768,2.223,90.415,0.0195906,-0.0274246,0.927262,1.47611,-3.10602,-0.0327111,0.644964,0.941909,0.0893862,-1.21657,-2.33572,0,12669,49.335,28.674,14146.3
1481588758,0.634768,2.223,90.4231,0.0192483,-0.025986,0.92743,1.42568,-2.99424,-0.02535,0.641756,0.966395,-0.0769351,-1.16379,-2.24106,0,12669,49.335,28.674,14146.3
1481689158,0.634768,2.223,90.4313,0.0159032,-0.0242382,0.926725,1.37915,-2.8893,-0.0231567,0.609435,0.896517,-0.202823,-1.10947,-2.15052,0,12669,49.335,28.674,14146.3
1481791062,0.634768,2.223,90.4488,0.0160929,-0.0274653,0.92652,1.33752,-2.79551,-0.0208696,0.554005,0.860211,0.0480889,-1.05808,-2.06,0,12669,49.335,28.674,14146.3
1481891479,0.634768,2.223,90.4574,0.0177644,-0.0299946,0.92631,1.29965,-2.69174,-0.0162089,0.65519,0.843902,0.0260569,-1.00694,-1.97081,0,12669,49.538,26.452,13103.8
1481996798,0.634768,2.223,90.4609,0.0193906,-0.0272701,0.926818,1.25688,-2.56879,-0.0185562,0.63019,0.844851,0.0261554,-0.960637,-1.88368,0,12669,49.538,26.452,13103.8
1482099585,0.634768,2.223,90.4708,0.0206959,-0.0256448,0.926866,1.20719,-2.46221,-0.0161366,0.594101,1.05086,0.00308828,-0.911869,-1.79755,0,12669,49.538,26.452,13103.8
1482204118,0.634768,2.223,90.4754,0.0232949,-0.0227836,0.92651,1.16409,-2.3646,-0.0281966,0.586752,0.948348,-0.12409,-0.865502,-1.71602,0,12669,49.538,26.452,13103.8
1482304529,0.634768,2.223,90.4845,0.0226214,-0.0212934,0.925794,1.11663,-2.26333,-0.0278491,0.540736,0.943526,-0.0675646,-0.81918,-1.63724,0,12669,49.538,26.452,13103.8
1482404909,0.634768,2.223,90.4936,0.0232065,-0.020979,0.926367,1.07048,-2.16392,-0.0310338,0.572773,0.924959,-0.00386327,-0.779326,-1.56225,0,12669,49.538,26.452,13103.8
1482505285,0.634768,2.223,90.4925,0.0199365,-0.0185026,0.927113,1.0296,-2.07545,-0.0454772,0.457903,0.89235,-0.232536,-0.737715,-1.48882,0,12669,49.538,26.452,13103.8
1482605655,0.634768,2.223,90.4848,0.0197361,-0.0194878,0.927509,0.983339,-1.98771,-0.0536229,0.523764,0.877147,-0.168521,-0.69833,-1.41912,0,12669,49.538,26.452,13103.8
1482706015,0.634768,2.223,90.4785,0.0203993,-0.0224575,0.927858,0.940517,-1.89943,-0.0520011,0.489763,0.858741,0.0991253,-0.656973,-1.35142,0,12669,49.538,26.452,13103.8
1482806349,0.634768,2.223,90.4742,0.0203715,-0.0247388,0.927795,0.90208,-1.80962,-0.0548818,0.573217,0.819764,-0.164499,-0.619224,-1.28802,0,12669,49.538,26.452,13103.8
1482906738,0.634768,2.223,90.4594,0.0188506,-0.0240449,0.927848,0.863492,-1.71095,-0.0680314,0.652054,0.921707,-0.0339302,-0.580712,-1.22765,0,12625,49.653,21.216,10534.4
1483007093,0.634768,2.223,90.4425,0.0198474,-0.0217932,0.927961,0.820011,-1.62848,-0.0570115,0.494936,0.854108,0.246407,-0.546839,-1.17123,0,12625,49.653,21.216,10534.4
1483107486,0.634768,2.223,90.4269,0.0200604,-0.0202563,0.927883,0.778333,-1.54554,-0.0570567,0.521217,0.798308,0.322252,-0.512936,-1.1189,0,12625,49.653,21.216,10534.4
1483207909,0.634768,2.223,90.4135,0.0172448,-0.0188589,0.927958,0.7334,-1.46763,-0.0535655,0.534182,0.798462,0.340209,-0.482824,-1.06976,0,12625,49.653,21.216,10534.4
1483308245,0.634768,2.223,90.4035,0.0129937,-0.0185649,0.928051,0.685789,-1.38225,-0.0392362,0.496457,0.862692,0.0966112,-0.450169,-1.02313,0,12625,49.653,21.216,10534.4
1483408581,0.634768,2.223,90.3991,0.00917724,-0.0183493,0.927625,0.646469,-1.3114,-0.0219908,0.445799,0.725287,0.287798,-0.420155,-0.978763,0,12625,49.653,21.216,10534.4
1483508938,0.634768,2.223,90.4052,0.00488135,-0.0146613,0.928043,0.61012,-1.25044,-0.00957301,0.403204,0.663444,-0.320494,-0.388733,-0.935021,0,12625,49.653,21.216,10534.4
1483609296,0.634768,2.223,90.4183,0.00190203,-0.0187576,0.928379,0.574274,-1.19763,-0.0146129,0.348102,0.596343,-0.204824,-0.361219,-0.893513,0,12625,49.653,21.216,10534.4
1483709649,0.634768,2.223,90.4263,0.00265654,-0.023046,0.929064,0.546515,-1.13384,-0.006476,0.462961,0.630935,0.224893,-0.332109,-0.854979,0,12625,49.653,21.216,10534.4
1483810012,0.634768,2.223,90.4362,0.000442234,-0.0263988,0.928962,0.518447,-1.07907,0.00306503,0.407445,0.575005,-0.0422878,-0.306053,-0.819926,0,12625,49.653,21.216,10534.4
1483910361,0.634768,2.223,90.4444,-0.00255205,-0.0283558,0.928629,0.493734,-1.0167,-0.000883181,0.489601,0.603428,-0.169168,-0.277996,-0.786095,0,12625,49.618,23.093,11458.3
1484010735,0.634768,2.223,90.4534,-0.00250976,-0.0284885,0.928073,0.476751,-0.957952,-0.00733694,0.466205,0.540149,-0.276701,-0.253615,-0.753788,0,12625,49.618,23.093,11458.3
1484111105,0.634768,2.223,90.4552,-0.00147531,-0.0283078,0.92828,0.458433,-0.897502,-0.0123788,0.507098,0.550932,0.0348723,-0.228698,-0.722977,0,12625,49.618,23.093,11458.3
1484211510,0.634768,2.223,90.4608,-0.00434282,-0.0266722,0.928473,0.448713,-0.830221,-0.0134966,0.569309,0.475214,-0.0620995,-0.207732,-0.694472,0,12625,49.618,23.093,11458.3
1484311851,0.634768,2.223,90.4614,-0.00660096,-0.0285345,0.92871,0.42215,-0.777175,-0.00766969,0.397336,0.518149,0.00722386,-0.185796,-0.667609,0,12625,49.618,23.093,11458.3
1484412216,0.634768,2.223,90.4596,-0.00824348,-0.0286561,0.929077,0.406915,-0.715105,-0.0197035,0.521616,0.474181,-0.0880474,-0.167297,-0.642687,0,12625,49.618,23.093,11458.3
1484512677,0.634768,2.223,90.4494,-0.0113515,-0.0289879,0.928589,0.387064,-0.653185,-0.028857,0.507118,0.467208,-0.060192,-0.147832,-0.61907,0,12625,49.618,23.093,11458.3
1484613074,0.634768,2.223,90.4415,-0.0197047,-0.0260643,0.928822,0.379092,-0.594426,-0.0320234,0.550196,0.419803,-0.0192175,-0.132604,-0.59704,0,12625,49.618,23.093,11458.3
1484713448,0.634768,2.223,90.4361,-0.0235843,-0.0210053,0.928126,0.367736,-0.544822,-0.0292783,0.433038,0.383212,0.0362064,-0.117616,-0.575892,0,12625,49.618,23.093,11458.3
1484813777,0.634768,2.223,90.4306,-0.0258619,-0.01621,0.927841,0.347341,-0.497351,-0.0341362,0.426015,0.417741,-0.0917677,-0.105926,-0.55622,0,12625,49.618,23.093,11458.3
1484914135,0.634768,2.223,90.4219,-0.0301819,-0.0103468,0.927968,0.33962,-0.449724,-0.0317274,0.444846,0.347657,-0.103923,-0.0947408,-0.537398,0,12581,49.58,23.651,11726.2
1485014495,0.634768,2.223,90.4158,-0.030115,-0.00491863,0.92845,0.318644,-0.422246,-0.0419472,0.182948,0.356214,0.0554013,-0.0861077,-0.520144,0,12581,49.58,23.651,11726.2
1485114852,0.634769,2.223,90.4105,-0.0323535,-0.00460719,0.927828,0.291547,-0.406038,-0.0327148,0.0875889,0.308901,0.181773,-0.0759012,-0.50275,0,12581,49.58,23.651,11726.2
1485215262,0.634769,2.223,90.4038,-0.0353092,-0.00199627,0.928091,0.276188,-0.389699,-0.0377036,0.104096,0.170032,-0.218473,-0.0671002,-0.486596,0,12581,49.58,23.651,11726.2
1485315639,0.634769,2.223,90.3971,-0.0385461,-0.000790058,0.927893,0.267,-0.37598,-0.0275168,0.173257,0.142489,0.073442,-0.0565524,-0.47021,0,12581,49.58,23.651,11726.2
1485416106,0.634769,2.223,90.3846,-0.0418503,-0.00308692,0.927616,0.256714,-0.361473,-0.0263156,0.205519,0.194906,0.0653178,-4.5,1.7,0,12581,49.58,23.651,11726.2
1485516470,0.634769,2.223,90.3777,-0.0377383,-0.00163868,0.927497,0.246679,-0.348467,-0.0207875,0.174094,0.132258,-0.0773195,-4.5,1.7,0,12581,49.58,23.651,11726.2
1485616810,0.634769,2.223,90.3721,-0.00927593,0.000472674,0.927854,0.231449,-0.331861,-0.0172802,0.108772,0.352266,0.131378,-4.5,1.7,0,12581,49.58,23.651,11726.2
1485717154,0.634769,2.223,90.3616,0.0036002,-0.00430854,0.928172,0.187479,-0.293717,-0.0130534,0.165979,0.605168,0.145453,-4.5,1.7,0,12581,49.58,23.651,11726.2
1485817513,0.634769,2.223,90.354,0.0109402,-0.00823748,0.928156,0.13814,-0.245865,-0.0139879,0.190541,0.690957,0.176182,-4.5,1.7,0,12581,49.58,23.651,11726.2
1485919380,0.634769,2.223,90.3486,0.0101653,-0.0111728,0.927861,0.0998275,-0.187874,0.0086615,0.300082,0.630887,0.355507,-4.5,1.7,0,12536,49.533,24.26,12016.7
1486025755,0.634769,2.223,90.3485,0.00565392,-0.0123457,0.92788,0.0658077,-0.137447,0.00150518,0.326119,0.568524,-0.136628,-4.5,1.7,0,12536,49.533,24.26,12016.7
1486130186,0.634769,2.223,90.3433,0.00061488,-0.0107899,0.928204,0.0340963,-0.0904532,0.012751,0.277032,0.513354,0.0801583,-4.5,1.7,0,12536,49.533,24.26,12016.7
1486230562,0.634769,2.223,90.3391,-0.00408919,-0.00860805,0.928162,0.0013026,-0.0512285,0.0201027,0.167535,0.456335,-0.0132917,-4.5,1.7,0,12536,49.533,24.26,12016.7
1486330910,0.634769,2.223,90.3373,-0.00799002,-0.00676182,0.928121,-0.0253501,-0.0162901,0.024214,0.173082,0.392498,-0.143652,-4.5,1.7,0,12536,49.533,24.26,12016.7
1486431288,0.634769,2.223,90.3355,-0.0141402,-0.00811342,0.9281,-0.0586085,0.0219358,0.025237,0.189034,0.455647,-0.0738745,3.8,1.8,0,12536,49.533,24.26,12016.7
1486531629,0.634769,2.223,90.329,-0.0212908,-0.00874837,0.928254,-0.0759445,0.0557587,0.0207801,0.216461,0.304462,-0.0368262,3.8,1.8,0,12536,49.533,24.26,12016.7
1486631967,0.634769,2.223,90.3252,0.0322476,-0.12443,0.926109,-0.0930468,0.0706458,0.0423406,0.162644,0.270762,0.344774,3.8,1.8,0,12536,49.533,24.26,12016.7
1486732364,0.634769,2.223,90.3205,0.0958427,-0.253686,0.91299,-0.0644407,0.268474,0.0369784,2.02199,1.03244,-0.0780819,3.8,1.8,0,12536,49.533,24.26,12016.7
1486832720,0.634769,2.223,90.3134,0.13751,-0.337487,0.901195,-0.0164963,0.591427,-0.0047916,2.88901,1.51709,0.936692,3.8,1.8,0,12536,49.533,24.26,12016.7
1486933108,0.634768,2.223,90.2999,0.160707,-0.380611,0.893474,0.0543502,1.00781,-0.00874566,3.4765,1.8379,1.74068,3.8,1.8,0,12536,49.555,23.973,11879.8
1487033523,0.634768,2.223,90.264,0.164982,-0.396505,0.891345,0.137106,1.47387,-0.0112298,3.7186,1.95579,2.22089,3.8,1.8,0,12536,49.555,23.973,11879.8
1487133902,0.634769,2.223,90.2356,0.158826,-0.396247,0.89278,0.223692,1.95139,-0.00145649,3.72905,1.90554,2.37451,3.8,1.8,0,12536,49.555,23.973,11879.8
1487234278,0.634769,2.223,90.2224,0.144992,-0.381144,0.897518,0.319663,2.42398,0.0359836,3.82663,1.82861,1.89883,3.8,1.8,0,12536,49.555,23.973,11879.8
1487334644,0.634769,2.223,90.2115,0.119739,-0.333365,0.905754,0.427792,2.92346,0.0367032,3.29822,1.52543,1.86114,3.8,1.8,0,12536,49.555,23.973,11879.8
1487435056,0.634769,2.223,90.2004,0.0913569,-0.28068,0.912537,0.497925,3.26799,0.0649034,2.82604,1.32263,1.23302,-0.4,0.5,0,12536,49.555,23.973,11879.8
1487535409,0.634769,2.223,90.1941,0.0546757,-0.210169,0.917397,0.562615,3.54828,0.0838725,2.34106,1.04912,1.1328,-0.4,0.5,0,12536,49.555,23.973,11879.8
1487635705,0.634769,2.223,90.2005,-0.0352427,0.0505199,0.92314,0.605447,3.7188,0.167595,0.998399,0.496575,0.696477,-0.4,0.5,0,12536,49.555,23.973,11879.8
1487736088,0.634769,2.223,90.2128,-0.117504,0.279205,0.909581,0.515044,3.51121,0.128127,-2.59058,-0.742311,-0.166624,-0.4,0.5,0,12536,49.555,23.973,11879.8
1487836440,0.634769,2.223,90.2079,-0.160054,0.398748,0.894634,0.376722,3.14815,0.0704672,-3.74619,-1.13363,1.38909,-0.4,0.5,0,12536,49.555,23.973,11879.8
1487936799,0.634769,2.223,90.2137,-0.180572,0.458088,0.887144,0.196001,2.66845,0.0592341,-4.42047,-1.26394,2.3993,-0.4,0.5,0,12536,49.457,25.769,12744.6
1488037170,0.634769,2.223,90.2503,-0.178032,0.46032,0.88848,-0.00148064,2.14421,0.0538594,-4.74718,-1.39469,2.40993,-0.4,0.5,0,12536,49.457,25.769,12744.6
1488137945,0.634769,2.223,90.2759,-0.154151,0.397583,0.898786,-0.182173,1.6606,0.0633532,-4.20898,-1.27607,2.11841,-0.4,0.5,0,12536,49.457,25.769,12744.6
1488240201,0.634769,2.223,90.2629,-0.126931,0.321114,0.908831,-0.335305,1.26451,0.0707354,-3.58239,-0.993751,1.29039,-0.4,0.5,0,12536,49.457,25.769,12744.6
1488340565,0.634769,2.223,90.2515,-0.105052,0.245261,0.917037,-0.45779,0.955976,0.0666369,-2.74902,-0.755837,0.805411,-0.4,0.5,0,12536,49.457,25.769,12744.6
1488440957,0.634769,2.223,90.2595,-0.0861966,0.181022,0.922208,-0.549695,0.722403,0.0670341,-2.0059,-0.555343,0.450005,2.4,-0.8,0,12536,49.457,25.769,12744.6
1488541333,0.634769,2.223,90.2578,-0.0792697,0.110981,0.923191,-0.610838,0.546139,0.050398,-1.44638,-0.407084,0.234343,2.4,-0.8,0,12536,49.457,25.769,12744.6
1488641684,0.634769,2.223,90.2389,-0.139177,-0.104758,0.932051,-0.614346,0.438514,0.0708988,-0.0955625,-0.596022,0.486286,2.4,-0.8,0,12536,49.457,25.769,12744.6
1488742008,0.634768,2.223,90.2266,-0.193122,-0.258303,0.952043,-0.387094,0.507028,0.0528365,2.22773,-1.33517,0.400076,2.4,-0.8,0,12536,49.457,25.769,12744.6
1488842276,0.634768,2.223,90.2255,-0.229084,-0.347327,0.96756,-0.056732,0.636775,0.0201172,3.23805,-1.67349,1.29766,2.4,-0.8,0,12536,49.457,25.769,12744.6
1488942637,0.634768,2.223,90.2086,-0.239391,-0.37955,0.974038,0.359157,0.825088,0.0100067,3.72017,-1.80576,2.30675,2.4,-0.8,0,12536,49.457,25.769,12744.6
1489042984,0.634768,2.223,90.1686,-0.218413,-0.348638,0.966564,0.790587,1.01875,0.035642,3.67785,-1.77017,2.27861,2.4,-0.8,0,12536,49.353,28.049,13843
1489143350,0.634768,2.223,90.1343,-0.182747,-0.291145,0.954973,1.15937,1.1848,0.0689807,3.12384,-1.57526,1.86816,2.4,-0.8,0,12536,49.353,28.049,13843
1489243704,0.634769,2.223,90.1246,-0.147851,-0.231704,0.945763,1.43945,1.31411,0.0870286,2.43118,-1.18223,1.0642,2.4,-0.8,0,12536,49.353,28.049,13843
1489344063,0.634769,2.223,90.1252,-0.119344,-0.178661,0.939036,1.65008,1.4223,0.0973228,1.89612,-0.792832,0.66627,2.4,-0.8,0,12536,49.353,28.049,13843
1489444457,0.634769,2.223,90.1379,-0.0988019,-0.135943,0.935046,1.81006,1.50163,0.116533,1.4017,-0.628619,0.197809,-2.4,3.7,0,12536,49.353,28.049,13843
1489544840,0.634769,2.223,90.1565,-0.0714261,-0.0853018,0.932247,1.92573,1.57225,0.126201,1.02728,-0.416702,0.471094,-2.4,3.7,0,12536,49.353,28.049,13843
1489645265,0.634769,2.223,90.1867,0.0729509,0.0963639,0.932871,1.96508,1.61284,0.193943,-0.0599081,0.273965,0.302948,-2.4,3.7,0,12536,49.353,28.049,13843
1489745659,0.634769,2.223,90.2329,0.215411,0.236825,0.954293,1.69755,1.57222,0.157934,-2.24226,2.07,0.000341833,-2.4,3.7,0,12536,49.353,28.049,13843
1489845992,0.634769,2.223,90.2709,0.286559,0.305271,0.972713,1.31341,1.52674,0.0941885,-2.89996,2.82673,0.988924,-2.4,3.7,0,12536,49.353,28.049,13843
1489946334,0.634769,2.223,90.3004,0.315624,0.336644,0.982461,0.830216,1.4632,0.0635105,-3.27989,3.24611,1.84587,-2.4,3.7,0,12536,49.353,28.049,13843
1490046719,0.634769,2.223,90.3353,0.324693,0.352822,0.988013,0.30965,1.38944,0.0527835,-3.38989,3.29691,2.09449,-2.4,3.7,0,12536,49.281,29.494,14534.9
1490147081,0.634769,2.223,90.3609,0.317886,0.354074,0.987893,-0.215632,1.30291,0.0404544,-3.48356,3.18957,2.10433,-2.4,3.7,0,12536,49.281,29.494,14534.9
1490247422,0.634769,2.223,90.3561,0.30943,0.349218,0.985642,-0.740741,1.21535,0.0245953,-3.41575,3.23536,2.23335,-2.4,3.7,0,12536,49.281,29.494,14534.9
1490347779,0.634769,2.223,90.3536,0.299364,0.340394,0.982554,-1.26966,1.11911,0.0256525,-3.39184,3.12453,2.25403,-2.4,3.7,0,12536,49.281,29.494,14534.9
1490448141,0.634769,2.223,90.358,0.288826,0.331649,0.979036,-1.76507,1.03324,0.0304977,-3.16649,2.97506,1.81885,0.6,-4.2,0,12536,49.281,29.494,14534.9
1490548445,0.634769,2.223,90.3576,0.251391,0.302471,0.965122,-2.25447,0.94216,0.0143252,-3.19626,2.9361,1.78913,0.6,-4.2,0,12536,49.281,29.494,14534.9
1490648802,0.634769,2.223,90.343,0.0446473,0.165531,0.915319,-2.69408,0.850875,0.065018,-2.68357,2.32318,1.20439,0.6,-4.2,0,12536,49.281,29.494,14534.9
1490749143,0.634769,2.223,90.3349,-0.232072,-0.000693932,0.91842,-2.78033,0.764433,0.0864232,-0.705648,-0.444082,0.196812,0.6,-4.2,0,12536,49.281,29.494,14534.9
1490849509,0.634768,2.223,90.3307,-0.387624,-0.0875001,0.944985,-2.53434,0.645299,0.0188214,0.773988,-3.06939,0.247451,0.6,-4.2,0,12536,49.281,29.494,14534.9
1490949873,0.634768,2.223,90.3249,-0.466575,-0.128524,0.962403,-2.13884,0.495523,-0.0311573,1.32651,-3.85244,2.04766,0.6,-4.2,0,12536,49.281,29.494,14534.9
1491050232,0.634768,2.223,90.3206,-0.491587,-0.140776,0.969481,-1.63112,0.321582,-0.0288877,1.56775,-4.42152,2.77643,0.6,-4.2,0,12536,49.193,29.905,14711.2
1491150585,0.634768,2.223,90.3111,-0.486994,-0.1366,0.967975,-1.11668,0.147306,-0.0116037,1.55361,-4.39212,2.76592,0.6,-4.2,0,12536,49.193,29.905,14711.2
1491250901,0.634768,2.223,90.2876,-0.473633,-0.129333,0.964772,-0.616886,-0.0222963,-0.00609597,1.54112,-4.30045,2.5508,0.6,-4.2,0,12536,49.193,29.905,14711.2
1491351318,0.634768,2.223,90.2707,-0.462748,-0.121214,0.960908,-0.122407,-0.189499,0.0116022,1.46742,-4.14188,2.4562,0.6,-4.2,0,12536,49.193,29.905,14711.2
1491451742,0.634768,2.223,90.273,-0.449382,-0.108792,0.956496,0.342763,-0.358619,0.0180116,1.26589,-3.97722,2.204,-4.6,4.2,0,12536,49.193,29.905,14711.2
1491552088,0.634768,2.223,90.2759,-0.423257,-0.0880175,0.949787,0.788947,-0.528856,0.0302748,1.11582,-3.78752,1.96259,-4.6,4.2,0,12536,49.193,29.905,14711.2
1491652453,0.634768,2.223,90.2811,-0.238509,0.0236221,0.935774,1.2166,-0.695977,0.0935085,0.90295,-3.43743,1.94548,-4.6,4.2,0,12536,49.193,29.905,14711.2
1491752806,0.634768,2.223,90.3016,0.0646631,0.157399,0.943332,1.33256,-0.814685,0.152172,-0.552541,-0.857172,0.190241,-4.6,4.2,0,12536,49.193,29.905,14711.2
1491853167,0.634768,2.223,90.3334,0.268665,0.229663,0.962042,1.09532,-0.851673,0.112253,-2.0039,2.29168,0.00673455,-4.6,4.2,0,12536,49.193,29.905,14711.2
1491953533,0.634769,2.223,90.3967,0.361963,0.261384,0.972924,0.694448,-0.827804,0.0374014,-2.30976,3.49224,1.35594,-4.6,4.2,0,12536,49.193,29.905,14711.2
1492053857,0.634769,2.223,90.4271,0.392636,0.272974,0.975244,0.195248,-0.7814,0.00695483,-2.55043,4.13557,1.92597,-4.6,4.2,0,12536,49.291,29.146,14366.4
1492154240,0.634769,2.223,90.4327,0.393064,0.275269,0.973485,-0.319838,-0.726629,-0.00295667,-2.5616,4.19457,2.02143,-4.6,4.2,0,12536,49.291,29.146,14366.4
1492254598,0.634769,2.223,90.4292,0.385146,0.276717,0.972275,-0.831276,-0.674283,-0.0150032,-2.50995,4.10296,2.1211,-4.6,4.2,0,12536,49.291,29.146,14366.4
1492354964,0.634769,2.223,90.4313,0.36808,0.278504,0.971193,-1.34698,-0.619584,-0.0308539,-2.45182,3.94614,2.32552,-4.6,4.2,0,12536,49.291,29.146,14366.4
1492455306,0.634768,2.223,90.4297,0.348913,0.28107,0.970161,-1.84712,-0.587009,-0.023531,-2.42723,3.59997,2.13749,-3.9,-4.6,0,12536,49.291,29.146,14366.4
1492555649,0.634768,2.223,90.4132,0.314768,0.278898,0.966301,-2.33619,-0.56368,-0.020406,-2.37756,3.46086,1.99543,-3.9,-4.6,0,12536,49.291,29.146,14366.4
1492656602,0.634768,2.223,90.4049,0.120854,0.229603,0.919912,-2.89594,-0.559604,0.0671411,-2.34002,2.94989,1.48534,-3.9,-4.6,0,12536,49.291,29.146,14366.4
1492762597,0.634768,2.223,90.4068,-0.179338,0.14609,0.895703,-3.03288,-0.656095,0.0510812,-1.39898,-0.159302,0.149188,-3.9,-4.6,0,12536,49.291,29.146,14366.4
1492867773,0.634768,2.223,90.4065,-0.376667,0.101281,0.905318,-2.88766,-0.868553,-0.024051,-0.7432,-2.87651,0.325082,-3.9,-4.6,0,12536,49.291,29.146,14366.4
1492968081,0.634768,2.223,90.4066,-0.456531,0.0839693,0.913676,-2.62536,-1.1479,-0.066644,-0.488754,-3.65456,1.80622,-3.9,-4.6,0,12536,49.291,29.146,14366.4
1493068340,0.634768,2.223,90.4042,-0.479942,0.0794479,0.918369,-2.27795,-1.47036,-0.0668423,-0.356884,-4.25759,2.22685,-3.9,-4.6,0,12536,49.186,31.867,15674.1
1493168648,0.634768,2.223,90.3714,-0.473637,0.0813712,0.920103,-1.92232,-1.79855,-0.0525135,-0.33893,-4.18036,2.42309,-3.9,-4.6,0,12536,49.186,31.867,15674.1
1493268908,0.634768,2.223,90.3517,-0.460245,0.0849995,0.91948,-1.58383,-2.11412,-0.0422753,-0.396325,-4.08868,2.09737,-3.9,-4.6,0,12536,49.186,31.867,15674.1
1493370871,0.634768,2.223,90.3496,-0.445106,0.0919686,0.916658,-1.24818,-2.42929,-0.0303645,-0.396889,-3.87684,2.25354,-3.9,-4.6,0,12536,49.186,31.867,15674.1
1493471335,0.634768,2.223,90.35,-0.430592,0.0986534,0.914827,-0.930482,-2.74022,-0.0140208,-0.471915,-3.68408,2.12625,1.2,1.1,0,12536,49.186,31.867,15674.1
1493573787,0.634768,2.223,90.3434,-0.402125,0.0973546,0.915196,-0.630521,-3.04022,0.00120083,-0.567029,-3.57945,1.62914,1.2,1.1,0,12536,49.186,31.867,15674.1
1493674142,0.634768,2.223,90.347,-0.230008,-0.0277977,0.924065,-0.342149,-3.35012,0.0739478,-0.596254,-3.24602,2.01995,1.2,1.1,0,12536,49.186,31.867,15674.1
1493774448,0.634768,2.223,90.3597,0.0383753,-0.218399,0.915,-0.11913,-3.30878,0.154766,1.75074,-0.19363,0.780581,1.2,1.1,0,12536,49.186,31.867,15674.1
1493874814,0.634768,2.223,90.367,0.210037,-0.322854,0.888995,-0.0474374,-2.92406,0.096497,3.47193,2.17981,0.405849,1.2,1.1,0,12536,49.186,31.867,15674.1
1493975178,0.634768,2.223,90.3765,0.291295,-0.363772,0.872693,-0.031449,-2.42829,0.00269616,3.68868,3.03251,1.83953,1.2,1.1,0,12536,49.186,31.867,15674.1
1494075508,0.634768,2.223,90.3754,0.328562,-0.374543,0.866707,-0.0383202,-1.83418,-0.0276815,4.04386,3.54213,2.51268,1.2,1.1,0,12536,49.186,31.867,15674.1
1494176533,0.634768,2.223,90.337,0.339248,-0.372141,0.867907,-0.0732605,-1.23341,-0.0587797,3.81527,3.58462,2.87258,1.2,1.1,0,12536,49.202,29.84,14681.9
1494279540,0.634768,2.223,90.3007,0.336271,-0.369125,0.870086,-0.117949,-0.629246,-0.0658492,3.80956,3.56099,2.97921,1.2,1.1,0,12536,49.202,29.84,14681.9
1494385752,0.634768,2.223,90.2828,0.299175,-0.3354,0.882504,-0.158315,-0.0136163,-0.0624957,3.78736,3.51378,2.97067,1.2,1.1,0,12536,49.202,29.84,14681.9
1494486152,0.634768,2.223,90.2682,0.231009,-0.273011,0.901154,-0.210357,0.526464,-0.0250136,3.27394,3.15552,2.23111,1.7,-2.8,0,12536,49.202,29.84,14681.9
1494586467,0.634768,2.223,90.2591,0.126031,-0.206175,0.919471,-0.240562,0.943971,-0.00635137,2.59731,2.45213,1.3639,1.7,-2.8,0,12536,49.202,29.84,14681.9
1494686846,0.634768,2.223,90.2595,-0.133293,-0.135928,0.94386,-0.218238,1.19439,0.0485277,1.72172,0.787181,0.665948,1.7,-2.8,0,12536,49.202,29.84,14681.9
1494787236,0.634768,2.223,90.2714,-0.311039,-0.0940639,0.944042,-0.0084603,1.21235,0.0277921,1.10263,-1.91479,0.25734,1.7,-2.8,0,12536,49.202,29.84,14681.9
1494887582,0.634768,2.223,90.2831,-0.408028,-0.0777109,0.940454,0.308087,1.11716,0.000836197,0.791952,-3.092,1.45513,1.7,-2.8,0,12536,49.202,29.84,14681.9
1494987914,0.634768,2.223,90.2972,-0.447352,-0.0721055,0.938002,0.69574,0.943511,0.010337,0.660336,-3.84781,1.93608,1.7,-2.8,0,12536,49.202,29.84,14681.9
1495088312,0.634768,2.223,90.303,-0.453623,-0.0758757,0.937812,1.09728,0.752324,0.0189187,0.712927,-3.94403,2.0131,1.7,-2.8,0,12536,49.202,29.84,14681.9
1495188733,0.634768,2.223,90.2912,-0.445555,-0.0800219,0.938159,1.49008,0.567203,0.0280727,0.758327,-3.79786,2.02779,1.7,-2.8,0,12536,49.135,31.927,15687.3
1495289194,0.634768,2.223,90.2868,-0.406066,-0.0779132,0.936096,1.88246,0.3865,0.0354723,0.788274,-3.70357,1.93463,1.7,-2.8,0,12536,49.135,31.927,15687.3
1495389587,0.634768,2.223,90.3028,-0.348154,-0.0723151,0.933648,2.22328,0.229118,0.0594064,0.722768,-3.15232,1.43086,1.7,-2.8,0,12536,49.135,31.927,15687.3
1495490005,0.634768,2.223,90.3282,-0.288904,-0.0660373,0.931987,2.49543,0.117558,0.0739475,0.698229,-2.45873,0.792122,0.4,3.5,0,12536,49.135,31.927,15687.3
1495590367,0.634768,2.223,90.3448,-0.205488,-0.0508837,0.926951,2.70461,0.0232236,0.0806685,0.535313,-1.91632,0.709061,0.4,3.5,0,12536,49.135,31.927,15687.3
1495690714,0.634768,2.223,90.365,0.0620446,0.0124884,0.926164,2.83731,-0.023,0.14058,0.330254,-0.749071,0.375851,0.4,3.5,0,12536,49.135,31.927,15687.3
1495791074,0.634768,2.223,90.3975,0.305187,0.06596,0.938436,2.64272,0.0651059,0.134195,-0.502807,2.63175,0.0627668,0.4,3.5,0,12536,49.135,31.927,15687.3
1495891507,0.634769,2.223,90.4215,0.417263,0.0900788,0.948866,2.26341,0.225829,0.0724919,-0.864942,4.05282,1.34797,0.4,3.5,0,12536,49.135,31.927,15687.3
1495991840,0.634769,2.223,90.4412,0.466253,0.1017,0.955911,1.79657,0.430208,0.0260888,-0.965677,4.62943,2.01878,0.4,3.5,0,12536,49.135,31.927,15687.3
1496092211,0.634769,2.223,90.4356,0.485484,0.110236,0.962112,1.28873,0.647705,-0.0194198,-1.10288,5.04697,2.10949,0.4,3.5,0,12536,49.135,31.927,15687.3
1496192474,0.634769,2.223,90.4059,0.48496,0.112528,0.964636,0.748243,0.873013,-0.0430533,-1.208,5.07107,2.60653,0.4,3.5,0,12536,49.135,31.927,15687.3
1496292769,0.634769,2.223,90.3895,0.478096,0.110094,0.9653,0.207381,1.08407,-0.0731348,-1.20716,4.94872,2.64626,0.4,3.5,0,12536,49.135,31.927,15687.3
1496393117,0.634769,2.223,90.3751,0.463192,0.0971042,0.96148,-0.337412,1.30604,-0.0941418,-1.20179,4.97263,2.61216,0.4,3.5,0,12536,49.135,31.927,15687.3
1496493514,0.634769,2.223,90.3634,0.427988,0.0776358,0.954252,-0.875894,1.53143,-0.0653055,-1.07786,4.74673,2.82294,-3.8,-4.5,0,12536,49.135,31.927,15687.3
1496593930,0.634769,2.223,90.3542,0.339974,0.0671991,0.94804,-1.35455,1.74981,-0.0251428,-0.860957,4.24358,2.22435,-3.8,-4.5,0,12536,49.135,31.927,15687.3
1496694308,0.634768,2.223,90.3497,0.112225,0.141364,0.935482,-1.74848,1.92565,0.089333,-0.841341,3.49407,1.59128,-3.8,-4.5,0,12536,49.135,31.927,15687.3
1496794609,0.634768,2.223,90.3546,-0.194129,0.195182,0.906225,-1.93699,1.7923,0.0507535,-1.86352,-0.577053,-0.249886,-3.8,-4.5,0,12536,49.135,31.927,15687.3
1496894986,0.634768,2.223,90.3641,-0.369319,0.210512,0.89056,-1.86161,1.4657,-0.0233468,-2.00962,-2.79054,1.11244,-3.8,-4.5,0,12536,49.135,31.927,15687.3
1496995293,0.634768,2.223,90.3807,-0.447114,0.215032,0.883727,-1.6837,1.03663,-0.0468171,-2.07386,-3.76758,2.05393,-3.8,-4.5,0,12536,49.135,31.927,15687.3
1497095647,0.634768,2.223,90.3803,-0.463819,0.216134,0.882614,-1.46167,0.563003,-0.0463142,-2.01224,-4.05657,2.59599,-3.8,-4.5,0,12536,49.135,31.927,15687.3
1497195999,0.634768,2.223,90.3545,-0.454757,0.212967,0.884062,-1.23808,0.0856331,-0.0331302,-2.00928,-3.93812,2.80384,-3.8,-4.5,0,12536,49.045,31.746,15569.8
1497296390,0.634768,2.223,90.3462,-0.440309,0.211192,0.885506,-1.01868,-0.385176,-0.0140515,-2.0162,-3.82896,2.70001,-3.8,-4.5,0,12536,49.045,31.746,15569.8
1497396735,0.634768,2.223,90.3637,-0.423241,0.206112,0.887739,-0.807291,-0.829858,0.0116732,-1.87524,-3.68687,2.26596,-3.8,-4.5,0,12536,49.045,31.746,15569.8
1497497137,0.634768,2.223,90.3753,-0.405566,0.200516,0.891034,-0.610503,-1.24861,0.0100853,-1.85843,-3.44682,1.86672,-0.7,2.7,0,12536,49.045,31.746,15569.8
1497597495,0.634768,2.223,90.3835,-0.376637,0.18921,0.895781,-0.419346,-1.64648,0.011421,-1.76334,-3.24752,1.85673,-0.7,2.7,0,12536,49.045,31.746,15569.8
1497697894,0.634768,2.223,90.3925,-0.165362,0.0992176,0.929183,-0.25273,-1.99584,0.0602217,-1.38541,-2.57705,1.25588,-0.7,2.7,0,12536,49.045,31.746,15569.8
1497798250,0.634768,2.223,90.4085,0.148127,-0.0302965,0.932359,-0.250997,-2.02827,0.1131,0.0565054,0.618075,-0.0783584,-0.7,2.7,0,12536,49.045,31.746,15569.8
1497898620,0.634768,2.223,90.4232,0.340729,-0.101784,0.911529,-0.421793,-1.77648,0.0330507,1.09808,3.43584,0.199872,-0.7,2.7,0,12536,49.045,31.746,15569.8
1497998959,0.634768,2.223,90.4435,0.435396,-0.132069,0.895821,-0.668014,-1.40151,-0.0218597,1.38701,4.22036,1.98595,-0.7,2.7,0,12536,49.045,31.746,15569.8
1498099320,0.634768,2.223,90.4624,0.468219,-0.138066,0.888508,-0.962462,-0.953852,-0.048058,1.58902,4.81456,2.21946,-0.7,2.7,0,12536,49.045,31.746,15569.8
1498199669,0.634768,2.223,90.4601,0.470378,-0.125201,0.890729,-1.27453,-0.494439,-0.069356,1.55599,4.97209,2.3912,-0.7,2.7,0,12536,49.064,30.966,15193.2
1498300053,0.634768,2.223,90.4612,0.418255,-0.10226,0.900028,-1.59324,-0.0534392,-0.0700705,1.34704,4.68749,2.48624,-0.7,2.7,0,12536,49.064,30.966,15193.2
1498400415,0.634768,2.223,90.4764,0.338889,-0.0750903,0.910318,-1.87067,0.316015,-0.0407624,1.04051,4.03861,1.66292,-0.7,2.7,0,12536,49.064,30.966,15193.2
1498500815,0.634768,2.223,90.4891,0.250372,-0.0479228,0.917922,-2.0863,0.598161,-0.0254638,0.716948,3.10816,1.00637,-0.4,-1.8,0,12536,49.064,30.966,15193.2
1498601126,0.634768,2.223,90.4886,0.157325,-0.0285084,0.92489,-2.24659,0.797981,-0.0196742,0.450978,2.30586,0.499269,-0.4,-1.8,0,12536,49.064,30.966,15193.2
1498701496,0.634768,2.223,90.4916,-0.096436,-0.0212667,0.929538,-2.32342,0.910654,0.0114056,0.288331,0.668976,0.245093,-0.4,-1.8,0,12536,49.064,30.966,15193.2
1498801828,0.634768,2.223,90.4958,-0.319411,-0.0229244,0.932435,-2.1412,0.830664,-0.0193101,0.365732,-2.32274,0.0982408,-0.4,-1.8,0,12536,49.064,30.966,15193.2
1498902191,0.634768,2.223,90.4934,-0.430609,-0.0225111,0.933775,-1.83488,0.654486,-0.0715122,0.275528,-3.53081,1.36437,-0.4,-1.8,0,12536,49.064,30.966,15193.2
1499002551,0.634768,2.223,90.4863,-0.476548,-0.021746,0.934447,-1.44826,0.414339,-0.0808491,0.200359,-4.07206,2.27822,-0.4,-1.8,0,12536,49.064,30.966,15193.2
1499102860,0.634768,2.223,90.4725,-0.484533,-0.0169009,0.932742,-1.04091,0.147331,-0.071764,0.16712,-4.31129,2.29911,-0.4,-1.8,0,12536,49.064,30.966,15193.2
1499203232,0.634768,2.223,90.444,-0.478232,-0.0132972,0.931347,-0.633024,-0.115274,-0.0756041,0.258797,-4.25987,2.32855,-0.4,-1.8,0,12536,49.064,30.966,15193.2
1499303602,0.634768,2.223,90.4177,-0.449517,-0.00926404,0.929613,-0.232189,-0.383193,-0.067854,0.189357,-4.14988,2.31376,-0.4,-1.8,0,12536,49.064,30.966,15193.2
1499403926,0.634768,2.223,90.4192,-0.386342,-0.00703294,0.928886,0.125442,-0.633469,-0.0363903,0.134486,-3.71975,1.94134,-0.4,-1.8,0,12536,49.064,30.966,15193.2
1499504548,0.634768,2.223,90.4254,-0.315126,-0.00736739,0.929236,0.410054,-0.837494,-0.0145856,0.0747935,-3.05973,0.947134,1.6,-4.6,0,12536,49.064,30.966,15193.2
1499604912,0.634768,2.223,90.4317,-0.257885,-0.0269071,0.930389,0.617423,-0.985956,-0.0101569,-0.0119966,-2.06017,0.892919,1.6,-4.6,0,12536,49.064,30.966,15193.2
1499705248,0.634768,2.223,90.4355,-0.271576,-0.102547,0.938083,0.816738,-1.07541,-0.00746762,0.684027,-1.92884,0.183685,1.6,-4.6,0,12536,49.064,30.966,15193.2
1499805535,0.634768,2.223,90.445,-0.312366,-0.163927,0.951577,1.09724,-1.11543,-0.0442206,1.34976,-2.19833,0.649552,1.6,-4.6,0,12492,49.066,30.624,15026
1499905814,0.634768,2.223,90.4544,-0.341054,-0.202028,0.962224,1.46014,-1.13509,-0.049197,1.88616,-2.53798,1.32296,1.6,-4.6,0,12492,49.066,30.624,15026
1500006154,0.634768,2.223,90.4462,-0.35921,-0.215301,0.966684,1.85314,-1.14233,-0.0346299,2.01887,-2.68399,1.38202,1.6,-4.6,0,12492,49.066,30.624,15026
1500106515,0.634768,2.223,90.4382,-0.360265,-0.212445,0.968279,2.26024,-1.15025,-0.0290674,2.05033,-2.71366,1.81312,1.6,-4.6,0,12492,49.066,30.624,15026
1500207691,0.634768,2.223,90.4368,-0.361608,-0.202496,0.967958,2.65253,-1.15465,-0.00890225,1.998,-2.74386,1.45965,1.6,-4.6,0,12492,49.066,30.624,15026
1500308270,0.634768,2.223,90.4312,-0.358347,-0.187973,0.96386,3.0283,-1.16357,-0.00944204,1.87055,-2.58711,1.68126,1.6,-4.6,0,12492,49.066,30.624,15026
1500408697,0.634768,2.223,90.4248,-0.32681,-0.162613,0.956416,3.38932,-1.17562,-0.00876384,1.69778,-2.4923,1.48048,1.6,-4.6,0,12492,49.066,30.624,15026
1500510561,0.634768,2.223,90.4292,-0.290576,-0.131813,0.947845,3.69246,-1.18508,0.000173442,1.48808,-2.2431,0.76361,4.3,-1.3,0,12492,49.066,30.624,15026
1500611004,0.634768,2.223,90.4379,-0.216495,-0.117744,0.938378,3.94027,-1.20956,0.0185539,1.00808,-1.87694,1.10931,4.3,-1.3,0,12492,49.066,30.624,15026
1500711366,0.634769,2.223,90.4538,0.00934075,-0.190595,0.914197,4.12084,-1.19783,0.137595,0.929053,-0.826577,0.87424,4.3,-1.3,0,12492,49.066,30.624,15026
1500811735,0.634769,2.223,90.4938,0.192051,-0.260278,0.894852,4.11048,-0.939194,0.129198,1.99229,1.84288,0.194051,4.3,-1.3,0,12447,49.041,29.202,14321
1500912087,0.634769,2.223,90.5244,0.270188,-0.300077,0.888864,4.02245,-0.564226,0.0343644,2.55139,3.16888,-0.150843,4.3,-1.3,0,12447,49.041,29.202,14321
1501012462,0.634769,2.223,90.5504,0.284363,-0.322315,0.887435,3.92095,-0.128429,-0.0516946,2.67216,3.25415,1.3902,4.3,-1.3,0,12447,49.041,29.202,14321
1501112828,0.634769,2.223,90.5597,0.271512,-0.331856,0.89188,3.81912,0.334987,-0.0954526,2.83102,3.33825,1.2661,4.3,-1.3,0,12447,49.041,29.202,14321
1501213193,0.634769,2.223,90.5354,0.234372,-0.322559,0.900969,3.73534,0.796497,-0.132808,2.88288,3.05053,1.56879,4.3,-1.3,0,12447,49.041,29.202,14321
1501313534,0.634769,2.223,90.5082,0.190314,-0.29384,0.912703,3.67509,1.23976,-0.123334,2.79086,2.73226,1.66029,4.3,-1.3,0,12447,49.041,29.202,14321
1501413887,0.634769,2.223,90.4882,0.138008,-0.259477,0.920889,3.64179,1.61844,-0.101406,2.44801,2.11005,1.3935,4.3,-1.3,0,12447,49.041,29.202,14321
1501514306,0.634769,2.223,90.4765,0.0871775,-0.220725,0.926646,3.61498,1.92093,-0.0972542,2.00661,1.67712,0.794515,-1.3,-0.4,0,12447,49.041,29.202,14321
1501614678,0.634769,2.223,90.4747,0.0380269,-0.169437,0.930429,3.61057,2.21615,-0.0715346,1.79152,1.03538,1.09679,-1.3,-0.4,0,12447,49.041,29.202,14321
1501715055,0.634769,2.223,90.4815,0.0294551,0.0830123,0.929911,3.59935,2.36431,0.0381904,0.547747,0.614584,1.03509,-1.3,-0.4,0,12447,49.041,29.202,14321
1501815404,0.634769,2.223,90.5224,0.0525012,0.30142,0.934324,3.35922,2.21355,0.0563649,-2.9766,0.760495,-0.359419,-1.3,-0.4,0,12403,49.074,29.835,14641.2
1501915683,0.634769,2.223,90.5531,0.0837596,0.40766,0.941198,3.02883,1.9778,-0.063092,-3.95588,0.963608,0.965314,-1.3,-0.4,0,12403,49.074,29.835,14641.2
1502015991,0.634769,2.223,90.5761,0.103051,0.451685,0.944685,2.59898,1.68147,-0.0800664,-4.56227,1.34471,1.96199,-1.3,-0.4,0,12403,49.074,29.835,14641.2
1502116385,0.634769,2.223,90.5873,0.0999994,0.459893,0.944544,2.15039,1.3851,-0.105533,-4.50835,1.48282,2.06797,-1.3,-0.4,0,12403,49.074,29.835,14641.2
1502216736,0.634769,2.223,90.5688,0.0918481,0.456128,0.941738,1.71758,1.09156,-0.131838,-4.43923,1.41377,2.06854,-1.3,-0.4,0,12403,49.074,29.835,14641.2
1502317108,0.634769,2.223,90.5554,0.0781025,0.45757,0.935682,1.29935,0.784409,-0.138539,-4.3236,1.21008,2.25634,-1.3,-0.4,0,12403,49.074,29.835,14641.2
1502417468,0.634769,2.223,90.5374,0.0526285,0.444242,0.930236,0.882721,0.47143,-0.152537,-4.43015,1.20758,1.89545,-1.3,-0.4,0,12403,49.074,29.835,14641.2
1502517871,0.634769,2.223,90.5187,0.0185382,0.385625,0.922471,0.500512,0.153048,-0.142632,-4.01322,0.929204,1.95171,2.1,-0.1,0,12403,49.074,29.835,14641.2
1502618230,0.634769,2.223,90.5142,-0.0128798,0.291879,0.921014,0.197481,-0.129126,-0.113326,-3.44941,0.555211,1.3185,2.1,-0.1,0,12403,49.074,29.835,14641.2
1502718588,0.634769,2.223,90.517,-0.0129811,0.0154952,0.92557,-0.0104564,-0.334165,-0.0503758,-2.01187,0.478172,0.527667,2.1,-0.1,0,12403,49.074,29.835,14641.2
1502818975,0.634769,2.223,90.5308,-0.0136748,-0.262161,0.928458,0.00445771,-0.221862,-0.0511036,1.81206,0.492883,-0.393759,2.1,-0.1,0,12403,49.329,25.744,12699.3
1502919343,0.634769,2.223,90.5427,-0.0211197,-0.413119,0.931208,0.176479,0.0667648,-0.110167,3.55333,0.344901,1.19033,2.1,-0.1,0,12403,49.329,25.744,12699.3
1503019740,0.634769,2.223,90.5339,-0.0269019,-0.444167,0.932336,0.441573,0.452014,-0.115838,4.26764,0.260131,2.48203,2.1,-0.1,0,12403,49.329,25.744,12699.3
1503120128,0.634769,2.223,90.5253,-0.0282572,-0.396367,0.930342,0.699917,0.81593,-0.0757392,4.12427,0.219541,1.91712,2.1,-0.1,0,12403,49.329,25.744,12699.3
1503220469,0.634769,2.223,90.5099,-0.033281,-0.324399,0.928792,0.908643,1.10947,-0.0780654,3.48574,0.204756,1.19026,2.1,-0.1,0,12403,49.329,25.744,12699.3
1503320831,0.634769,2.223,90.4992,-0.0388007,-0.255471,0.927509,1.08193,1.33141,-0.0656741,2.61943,0.080291,0.997382,2.1,-0.1,0,12403,49.329,25.744,12699.3
1503421176,0.634769,2.223,90.509,-0.0417625,-0.192046,0.927142,1.21644,1.49486,-0.0507078,1.87386,0.0903438,0.56517,2.1,-0.1,0,12403,49.329,25.744,12699.3
1503521576,0.634769,2.223,90.5145,-0.0438199,-0.13832,0.927104,1.31498,1.60768,-0.0472682,1.27333,0.0524379,0.250821,-4.9,-4,0,12403,49.329,25.744,12699.3
1503621947,0.634769,2.223,90.5293,-0.0487228,-0.0891743,0.924871,1.39214,1.68695,-0.0508542,0.92383,0.0168086,0.596185,-4.9,-4,0,12403,49.329,25.744,12699.3
1503722323,0.634769,2.223,90.5497,-0.114285,0.10467,0.92057,1.44463,1.70684,0.0256809,-0.248923,-0.322956,-0.175647,-4.9,-4,0,12403,49.329,25.744,12699.3
1503822685,0.634769,2.223,90.5666,-0.188092,0.256422,0.903012,1.41557,1.47626,-0.0460503,-2.48967,-1.16913,-0.358271,-4.9,-4,0,12403,49.388,23.69,11700
1503923041,0.634769,2.223,90.5794,-0.234365,0.347918,0.886303,1.36643,1.1131,-0.098378,-3.35052,-1.61996,1.32949,-4.9,-4,0,12403,49.388,23.69,11700
1504023387,0.634769,2.223,90.5957,-0.255452,0.391226,0.876619,1.2937,0.670764,-0.106809,-3.76009,-1.70692,1.92796,-4.9,-4,0,12403,49.388,23.69,11700
1504123747,0.63477,2.223,90.6022,-0.257632,0.403225,0.87399,1.21033,0.197742,-0.115507,-3.92622,-1.76997,2.20263,-4.9,-4,0,12403,49.388,23.69,11700
1504224127,0.63477,2.223,90.5967,-0.250527,0.403034,0.874358,1.10743,-0.273371,-0.112585,-3.96505,-1.67871,2.14444,-4.9,-4,0,12403,49.388,23.69,11700
1504325207,0.63477,2.223,90.5926,-0.24418,0.39072,0.87775,1.00533,-0.738566,-0.104975,-3.89399,-1.65085,2.05097,-4.9,-4,0,12403,49.388,23.69,11700
1504428563,0.63477,2.223,90.5976,-0.244189,0.376216,0.881381,0.907883,-1.18573,-0.099145,-3.70811,-1.54493,1.99922,-4.9,-4,0,12403,49.388,23.69,11700
1504530707,0.63477,2.223,90.5977,-0.240483,0.356298,0.886191,0.816624,-1.61915,-0.0953931,-3.51594,-1.48331,1.76847,0.7,4.4,0,12403,49.388,23.69,11700
1504631095,0.63477,2.223,90.5982,-0.226139,0.328399,0.896335,0.74021,-2.02844,-0.0858513,-3.25152,-1.47955,1.69065,0.7,4.4,0,12403,49.388,23.69,11700
1504731468,0.63477,2.223,90.6007,-0.047573,0.168319,0.942628,0.672352,-2.43401,-0.0268376,-2.96591,-1.40672,1.58759,0.7,4.4,0,12403,49.388,23.69,11700
1504831841,0.63477,2.223,90.6084,0.208177,-0.0374572,0.935768,0.564771,-2.49309,0.0180706,-0.596563,1.01536,0.222709,0.7,4.4,0,12403,49.388,23.69,11700
1504932286,0.63477,2.223,90.6098,0.350798,-0.147451,0.904374,0.372112,-2.22229,-0.054606,1.34399,3.44844,0.205304,0.7,4.4,0,12403,49.23,27.858,13714.5
1505032686,0.63477,2.223,90.6013,0.418021,-0.198875,0.880344,0.143603,-1.81865,-0.13884,1.88494,4.11072,1.82046,0.7,4.4,0,12403,49.23,27.858,13714.5
1505133037,0.63477,2.223,90.5812,0.442163,-0.209204,0.871226,-0.115046,-1.31835,-0.161043,2.16415,4.56573,2.64263,0.7,4.4,0,12403,49.23,27.858,13714.5
1505234053,0.63477,2.223,90.5463,0.443291,-0.195849,0.875562,-0.376111,-0.809481,-0.169199,2.1854,4.60852,2.62882,0.7,4.4,0,12403,49.23,27.858,13714.5
1505338140,0.63477,2.223,90.5218,0.446495,-0.178961,0.881542,-0.725418,-0.19868,-0.169427,1.87488,4.65623,3.12053,0.7,4.4,0,12403,49.23,27.858,13714.5
1505438515,0.63477,2.223,90.51,0.438092,-0.162369,0.889059,-1.03139,0.297472,-0.137629,1.72592,4.68003,2.72392,0.7,4.4,0,12403,49.23,27.858,13714.5
1505538923,0.63477,2.223,90.5086,0.42312,-0.150165,0.893488,-1.32885,0.768716,-0.116613,1.58682,4.43426,2.55213,4.7,-3.8,0,12403,49.23,27.858,13714.5
1505639263,0.63477,2.223,90.4978,0.392971,-0.141961,0.899156,-1.63218,1.21952,-0.097087,1.3268,4.39989,2.32193,4.7,-3.8,0,12403,49.23,27.858,13714.5
1505739687,0.63477,2.223,90.4927,0.175515,-0.167741,0.926369,-1.88196,1.63838,0.00156038,1.46047,3.61352,1.65631,4.7,-3.8,0,12403,49.23,27.858,13714.5
1505840057,0.634769,2.223,90.501,-0.135845,-0.207033,0.953794,-1.82303,1.84532,-0.00596787,1.86177,0.0297155,-0.0933695,4.7,-3.8,0,12403,49.23,27.858,13714.5
1505940431,0.634769,2.223,90.5114,-0.323359,-0.230322,0.968687,-1.51679,1.91021,-0.0718085,2.03434,-2.3813,0.773079,4.7,-3.8,0,12403,49.119,28.848,14169.8
1506040794,0.634769,2.223,90.5225,-0.411914,-0.24327,0.976315,-1.08246,1.91577,-0.105054,2.24815,-3.44396,1.79039,4.7,-3.8,0,12403,49.119,28.848,14169.8
1506141154,0.634769,2.223,90.5239,-0.445181,-0.245455,0.976038,-0.562499,1.8816,-0.102159,2.27962,-3.85616,2.67868,4.7,-3.8,0,12403,49.119,28.848,14169.8
1506241507,0.634769,2.223,90.5311,-0.446122,-0.241792,0.972369,-0.0340596,1.83936,-0.0868954,2.30225,-3.89304,2.58586,4.7,-3.8,0,12403,49.119,28.848,14169.8
1506341867,0.634769,2.223,90.5388,-0.432895,-0.239689,0.968883,0.483322,1.78829,-0.0627389,2.22436,-3.81971,2.33656,4.7,-3.8,0,12403,49.119,28.848,14169.8
1506442213,0.634769,2.223,90.5442,-0.417674,-0.237099,0.966583,0.973129,1.74494,-0.0523895,2.17524,-3.62796,2.1136,4.7,-3.8,0,12403,49.119,28.848,14169.8
1506542559,0.634769,2.223,90.555,-0.402685,-0.233873,0.964069,1.43826,1.6974,-0.0448297,2.0546,-3.48198,1.79767,-4.9,1.8,0,12403,49.119,28.848,14169.8
1506642862,0.634769,2.223,90.5754,-0.382163,-0.218246,0.960845,1.88205,1.65292,-0.0428961,2.05497,-3.17425,1.88497,-4.9,1.8,0,12403,49.119,28.848,14169.8
1506743109,0.63477,2.223,90.587,-0.257986,-0.0246841,0.933409,2.3018,1.58895,0.0435404,1.38756,-2.92891,1.66817,-4.9,1.8,0,12403,49.119,28.848,14169.8
1506843452,0.63477,2.223,90.6107,-0.0504404,0.223272,0.926272,2.35474,1.40482,0.0663112,-1.76771,-0.910589,-0.35109,-4.9,1.8,0,12403,49.119,28.848,14169.8
1506943825,0.63477,2.223,90.632,0.090331,0.352785,0.945993,2.11518,1.18631,-0.0244347,-3.4651,1.00394,0.322643,-4.9,1.8,0,12403,49.117,29.732,14603.5
1507044219,0.63477,2.223,90.6516,0.169912,0.41193,0.963307,1.75612,0.950325,-0.0815339,-4.00414,1.67986,1.4392,-4.9,1.8,0,12403,49.117,29.732,14603.5
1507144584,0.63477,2.223,90.6748,0.213167,0.430265,0.972276,1.32387,0.722312,-0.122401,-4.20467,2.25544,1.69372,-4.9,1.8,0,12403,49.117,29.732,14603.5
1507244909,0.63477,2.223,90.6852,0.232476,0.440656,0.976122,0.853688,0.498708,-0.162936,-4.35252,2.41177,1.89624,-4.9,1.8,0,12403,49.117,29.732,14603.5
