timestamp,lat,log,alt,roll,pitch,yaw,vel_x,vel_y,vel_z,acc_x,acc_y,acc_z,act_vx,act_vy,act_yr,capacity,vol,cur,power
1484790256,0.634769,2.223,89.9821,-0.0388123,0.000144236,0.84485,-0.0132236,-0.0703999,-0.0106706,-0.0325988,-0.0455233,0.198834,-4.3,-3.6,0,12596,49.548,23.614,11700.3
1484891592,0.634769,2.223,89.9751,-0.0391374,-0.00373714,0.844803,-0.00627582,-0.0771654,0.00159386,0.0446351,-0.0718444,0.0556025,-4.3,-3.6,0,12596,49.548,23.614,11700.3
1484995323,0.634769,2.223,89.9739,-0.0409274,0.000424711,0.843426,-0.00592122,-0.0813373,0.0100659,0.0144879,0.0587001,-0.0400662,-4.3,-3.6,0,12596,49.548,23.614,11700.3
1485095662,0.634769,2.223,89.9813,-0.112497,0.121448,0.836734,0.00451876,-0.0875695,0.0663332,-0.113924,-0.0679762,0.521334,-4.3,-3.6,0,12596,49.548,23.614,11700.3
1485196553,0.634769,2.223,89.989,-0.20004,0.229221,0.820902,-0.030001,-0.267639,0.0133297,-1.69241,-1.04171,-0.2546,-4.3,-3.6,0,12596,49.548,23.614,11700.3
1485297813,0.634769,2.223,89.9918,-0.262686,0.295779,0.804721,-0.056109,-0.572537,-0.0251255,-2.32295,-1.76448,1.1063,-4.3,-3.6,0,12596,49.548,23.614,11700.3
1485398195,0.634769,2.223,89.9925,-0.296045,0.325929,0.794789,-0.0993878,-0.978279,-0.0271963,-2.96032,-2.07581,1.7052,-4.3,-3.6,0,12596,49.548,23.614,11700.3
1485498551,0.634769,2.223,89.9994,-0.305371,0.334985,0.791275,-0.138572,-1.41432,-0.0105885,-3.08249,-2.25155,1.90149,-4.3,-3.6,0,12596,49.548,23.614,11700.3
1485598902,0.634769,2.223,90.0102,-0.306934,0.329923,0.792885,-0.169755,-1.84755,0.00243972,-3.02019,-2.30648,1.82645,-4.3,-3.6,0,12596,49.548,23.614,11700.3
1485699227,0.634769,2.223,90.0166,-0.302749,0.319692,0.796805,-0.196883,-2.26743,0.00784509,-2.88194,-2.21249,1.75638,-4.3,-3.6,0,12596,49.548,23.614,11700.3
1485799727,0.634769,2.223,90.0113,-0.301724,0.310333,0.79924,-0.214639,-2.67115,0.0183923,-2.67978,-2.18058,1.81115,-4.1,1.3,0,12596,49.548,23.614,11700.3
1485900060,0.634769,2.223,90.0126,-0.286235,0.300123,0.800733,-0.221886,-3.06249,0.0188196,-2.59184,-2.15221,1.53902,-4.1,1.3,0,12596,49.526,23.447,11612.4
1486000407,0.634769,2.223,90.0191,-0.0874752,0.263749,0.841213,-0.232981,-3.46404,0.132199,-2.31039,-1.88063,2.76791,-4.1,1.3,0,12596,49.526,23.447,11612.4
1486100774,0.634769,2.223,90.0391,0.197459,0.213389,0.879781,-0.404137,-3.61096,0.194333,-1.91044,0.851272,0.547737,-4.1,1.3,0,12596,49.526,23.447,11612.4
1486201117,0.634769,2.223,90.0589,0.365314,0.180589,0.883179,-0.733898,-3.52718,0.131434,-1.50988,3.56794,-0.261747,-4.1,1.3,0,12596,49.526,23.447,11612.4
1486301439,0.634769,2.223,90.0811,0.426318,0.175775,0.881601,-1.11033,-3.35409,-0.0429006,-1.0854,4.0435,1.04553,-4.1,1.3,0,12596,49.526,23.447,11612.4
1486401721,0.634769,2.223,90.09,0.430513,0.172203,0.876004,-1.56305,-3.14179,-0.0913919,-1.20569,4.55497,1.66561,-4.1,1.3,0,12596,49.526,23.447,11612.4
1486502021,0.634768,2.223,90.0722,0.37569,0.161714,0.86634,-2.01953,-2.92902,-0.129202,-1.18621,4.32352,2.01841,-4.1,1.3,0,12596,49.526,23.447,11612.4
1486602366,0.634768,2.223,90.0437,0.30426,0.145008,0.858209,-2.41129,-2.7289,-0.0969136,-0.922849,3.83733,1.72049,-4.1,1.3,0,12596,49.526,23.447,11612.4
1486702727,0.634768,2.223,90.0238,0.236059,0.132222,0.853713,-2.71805,-2.56863,-0.0743162,-0.700419,3.04156,1.17238,-4.1,1.3,0,12596,49.526,23.447,11612.4
1486803131,0.634768,2.223,90.0032,0.173681,0.123106,0.851585,-2.96397,-2.44517,-0.0485372,-0.619985,2.31624,0.872942,0.8,-3,0,12596,49.526,23.447,11612.4
1486903488,0.634768,2.223,90.0009,0.111748,0.101241,0.846343,-3.1492,-2.35326,-0.0351075,-0.451496,1.73296,0.422963,0.8,-3,0,12596,49.449,24.431,12080.9
1487003854,0.634768,2.223,90.0023,-0.0526063,-0.0820477,0.842939,-3.29541,-2.28915,0.0259054,-0.250618,1.15193,0.8005,0.8,-3,0,12596,49.449,24.431,12080.9
1487104301,0.634768,2.223,90.0123,-0.213306,-0.236422,0.872761,-3.08849,-2.17525,0.0721494,2.43259,-1.18772,0.189086,0.8,-3,0,12596,49.449,24.431,12080.9
1487204590,0.634768,2.223,90.0207,-0.309241,-0.315155,0.900804,-2.72058,-2.05917,-0.0231743,3.26539,-2.14674,1.13552,0.8,-3,0,12596,49.449,24.431,12080.9
1487304935,0.634768,2.223,90.0066,-0.354696,-0.348671,0.917395,-2.21214,-1.9334,-0.0666843,3.92546,-2.8368,2.11555,0.8,-3,0,12596,49.449,24.431,12080.9
1487405346,0.634768,2.223,89.9875,-0.36654,-0.357182,0.923064,-1.6519,-1.80815,-0.0772171,3.92236,-2.81896,2.96428,0.8,-3,0,12596,49.449,24.431,12080.9
1487505693,0.634768,2.223,89.9757,-0.357653,-0.342749,0.919384,-1.07856,-1.67706,-0.0626923,3.87165,-2.77654,3.18509,0.8,-3,0,12596,49.449,24.431,12080.9
1487606047,0.634768,2.223,89.9681,-0.346788,-0.320668,0.912445,-0.522957,-1.56297,-0.027332,3.82652,-2.83404,2.66686,0.8,-3,0,12596,49.449,24.431,12080.9
1487706364,0.634768,2.223,89.9678,-0.344059,-0.299558,0.906021,-0.0059979,-1.46635,-0.012723,3.56035,-2.71546,2.37431,0.8,-3,0,12596,49.449,24.431,12080.9
1487810543,0.634768,2.223,89.9658,-0.346206,-0.274635,0.898806,0.576911,-1.37544,-0.00482326,3.15063,-2.60176,2.20379,-4.5,-0.2,0,12596,49.449,24.431,12080.9
1487911513,0.634768,2.223,89.963,-0.321374,-0.203693,0.882977,1.04389,-1.33798,0.00156869,2.91808,-2.80585,1.77549,-4.5,-0.2,0,12552,49.336,27.054,13347.4
1488011889,0.634768,2.223,89.9642,-0.160027,0.0393939,0.853299,1.41851,-1.34923,0.0745285,1.70999,-2.25492,1.43551,-4.5,-0.2,0,12552,49.336,27.054,13347.4
1488112298,0.634768,2.223,89.9724,0.0223794,0.278665,0.854611,1.39052,-1.45333,0.0822539,-1.53314,-0.0521704,-0.0927194,-4.5,-0.2,0,12552,49.336,27.054,13347.4
1488212651,0.634768,2.223,89.9792,0.121038,0.400333,0.871861,1.09803,-1.60977,0.00143421,-3.25612,1.35386,0.912091,-4.5,-0.2,0,12552,49.336,27.054,13347.4
1488312994,0.634768,2.223,90.0052,0.169177,0.452336,0.883212,0.674657,-1.80999,-0.0137899,-3.95566,1.84009,2.15407,-4.5,-0.2,0,12552,49.336,27.054,13347.4
1488413311,0.634768,2.223,90.0514,0.180164,0.460212,0.884851,0.191186,-2.00771,-0.0117947,-4.23883,2.20705,2.10439,-4.5,-0.2,0,12552,49.336,27.054,13347.4
1488513594,0.634768,2.223,90.0686,0.171801,0.452497,0.882968,-0.279098,-2.19917,-0.00955881,-4.00618,2.11012,2.23475,-4.5,-0.2,0,12552,49.336,27.054,13347.4
1488613954,0.634768,2.223,90.0748,0.155278,0.442566,0.88003,-0.732385,-2.389,-0.00327617,-3.85629,2.05469,2.17659,-4.5,-0.2,0,12552,49.336,27.054,13347.4
1488714311,0.634768,2.223,90.0888,0.131547,0.432371,0.875115,-1.16672,-2.58557,-0.00557416,-3.77596,1.75714,2.09206,-4.5,-0.2,0,12552,49.336,27.054,13347.4
1488814719,0.634768,2.223,90.115,0.0975494,0.386021,0.864998,-1.56805,-2.78528,-0.000943512,-3.5263,1.50027,1.67968,-3.4,-3.7,0,12552,49.336,27.054,13347.4
1488915078,0.634768,2.223,90.1106,0.0412257,0.309096,0.849059,-1.90983,-2.96138,0.0102991,-3.03743,1.28366,1.41432,-3.4,-3.7,0,12508,49.282,27.879,13739.3
1489015474,0.634768,2.223,90.096,-0.151381,0.143719,0.819884,-2.14804,-3.12347,0.10931,-2.05875,0.440506,0.633617,-3.4,-3.7,0,12508,49.282,27.879,13739.3
1489115789,0.634768,2.223,90.098,-0.319224,0.0342667,0.834228,-2.0764,-3.25881,0.0417786,-0.21962,-1.88298,-0.863337,-3.4,-3.7,0,12508,49.282,27.879,13739.3
1489216076,0.634768,2.223,90.1017,-0.41269,-0.00940764,0.850681,-1.84331,-3.42535,-0.0686904,0.632895,-2.95343,0.85712,-3.4,-3.7,0,12508,49.282,27.879,13739.3
1489316357,0.634768,2.223,90.084,-0.45202,-0.0193127,0.857851,-1.51042,-3.64832,-0.0955297,0.733574,-3.51005,1.7326,-3.4,-3.7,0,12508,49.282,27.879,13739.3
1489416714,0.634768,2.223,90.0639,-0.454232,-0.0108151,0.85744,-1.13855,-3.89629,-0.086806,0.774465,-3.87343,1.93258,-3.4,-3.7,0,12508,49.282,27.879,13739.3
1489517064,0.634768,2.223,90.051,-0.40818,0.00210799,0.854227,-0.784216,-4.14326,-0.0721274,0.610646,-3.74051,1.87695,-3.4,-3.7,0,12508,49.282,27.879,13739.3
1489617410,0.634768,2.223,90.0404,-0.34831,0.0172065,0.849319,-0.484109,-4.35085,-0.0499762,0.524912,-3.17426,1.27968,-3.4,-3.7,0,12508,49.282,27.879,13739.3
1489717702,0.634768,2.223,90.0346,-0.292106,0.0309316,0.845424,-0.242402,-4.52013,-0.0304604,0.399044,-2.60979,0.683661,-3.4,-3.7,0,12508,49.282,27.879,13739.3
1489818121,0.634768,2.223,90.0352,-0.241282,0.0427539,0.843033,-0.0542268,-4.65393,-0.0143994,0.305881,-1.91677,0.785188,-2.8,-4.5,0,12508,49.282,27.879,13739.3
1489918486,0.634768,2.223,90.0386,-0.207536,0.0391299,0.842132,0.0854592,-4.76333,-0.000911959,0.111948,-1.41859,0.712437,-2.8,-4.5,0,12508,49.171,30.001,14751.8
1490018924,0.634768,2.223,90.0386,-0.218946,-0.00217517,0.842331,0.203251,-4.84603,0.0349625,0.289734,-1.21234,0.380669,-2.8,-4.5,0,12508,49.171,30.001,14751.8
1490119270,0.634768,2.223,90.0485,-0.247834,-0.0293287,0.84704,0.373406,-4.89157,0.00192612,0.72446,-1.49281,-0.0405419,-2.8,-4.5,0,12508,49.171,30.001,14751.8
1490219634,0.634768,2.223,90.0545,-0.25832,-0.0358924,0.850176,0.582545,-4.9499,-0.0162724,0.846094,-1.59688,0.727807,-2.8,-4.5,0,12508,49.171,30.001,14751.8
1490319990,0.634768,2.223,90.0536,-0.246103,-0.0270725,0.85021,0.798056,-5.00117,-0.0223985,0.88324,-1.69007,0.485673,-2.8,-4.5,0,12508,49.171,30.001,14751.8
1490420326,0.634768,2.223,90.0503,-0.22334,-0.0133808,0.84962,0.99604,-5.05135,-0.0158716,0.782051,-1.57752,0.463897,-2.8,-4.5,0,12508,49.171,30.001,14751.8
1490520688,0.634768,2.223,90.0472,-0.198361,-0.000111543,0.848396,1.14509,-5.09472,-0.00722916,0.586365,-1.22186,0.395421,-2.8,-4.5,0,12508,49.171,30.001,14751.8
1490621037,0.634768,2.223,90.0444,-0.175225,0.0112687,0.846837,1.26775,-5.12641,-0.00843389,0.433637,-1.03281,0.113729,-2.8,-4.5,0,12508,49.171,30.001,14751.8
1490721399,0.634768,2.223,90.0421,-0.15837,0.0219597,0.846006,1.37397,-5.14009,-0.00156028,0.448939,-0.849519,0.0826253,-2.8,-4.5,0,12508,49.171,30.001,14751.8
1490823197,0.634768,2.223,90.0468,-0.142714,0.0314021,0.845404,1.46636,-5.15937,0.00886035,0.340242,-0.783815,-0.0670901,5.18616,3.06884,0,12508,49.171,30.001,14751.8
1490924701,0.634768,2.223,90.0507,-0.120716,0.030917,0.845658,1.52357,-5.17237,-0.00699295,0.198228,-0.517487,0.0910911,5.26977,3.22852,0,12508,49.171,30.001,14751.8
1491025093,0.634768,2.223,90.0537,0.0475463,-0.0723282,0.847044,1.56653,-5.18191,0.0519085,0.357639,-0.0955491,0.584116,5.35161,3.37846,0,12508,49.139,28.874,14188.4
1491125460,0.634768,2.223,90.064,0.200538,-0.153113,0.832273,1.53827,-4.93974,0.060059,1.67472,1.93992,0.024003,5.33104,3.57386,0,12508,49.139,28.874,14188.4
1491225822,0.634768,2.223,90.0797,0.2997,-0.200607,0.817276,1.45815,-4.57554,0.00347247,2.13368,2.98922,0.895125,5.38293,3.91284,0,12508,49.139,28.874,14188.4
1491326152,0.634768,2.223,90.0677,0.352789,-0.224682,0.806766,1.33184,-4.11244,-0.0226869,2.39715,3.65717,1.66637,5.38068,4.08266,0,12508,49.139,28.874,14188.4
1491426507,0.634768,2.223,90.0533,0.377393,-0.238834,0.800181,1.19266,-3.61031,-0.0529417,2.63771,4.09949,1.51685,5.38633,4.19722,0,12508,49.139,28.874,14188.4
1491526851,0.634768,2.223,90.0435,0.384155,-0.243598,0.796553,1.05363,-3.10078,-0.112828,2.64913,3.95445,2.14207,5.41317,4.30877,0,12508,49.139,28.874,14188.4
1491627234,0.634768,2.223,90.0226,0.381292,-0.236537,0.799641,0.915149,-2.56784,-0.141352,2.80506,4.1391,1.95475,5.4698,4.35498,0,12508,49.139,28.874,14188.4
1491727605,0.634768,2.223,90.0006,0.352724,-0.209225,0.809705,0.776874,-2.03759,-0.155358,2.73756,3.86291,2.31227,5.57446,4.37895,0,12508,49.139,28.874,14188.4
1491828067,0.634768,2.223,89.9811,0.304982,-0.165803,0.82443,0.630972,-1.53603,-0.111026,2.44215,3.6174,2.39181,5.6952,4.34325,0,12508,49.139,28.874,14188.4
1491928437,0.634768,2.223,89.973,0.2361,-0.129145,0.835022,0.487813,-1.12375,-0.0521961,1.92045,3.16651,1.70395,5.77789,4.31807,0,12508,49.139,28.874,14188.4
1492028815,0.634768,2.223,89.9819,0.208607,-0.180805,0.832939,0.365581,-0.724696,0.0191068,1.77154,2.49,1.15465,5.71699,4.27653,0,12508,49.172,28.874,14197.9
1492129182,0.634768,2.223,89.9962,0.206688,-0.242733,0.824543,0.334184,-0.354499,0.0305105,2.49217,2.32234,0.931322,5.59803,4.25671,0,12508,49.172,28.874,14197.9
1492229543,0.634768,2.223,90.0115,0.211808,-0.287722,0.815941,0.346231,0.0459174,0.0217086,2.93605,2.25588,1.1096,5.47412,4.22232,0,12508,49.172,28.874,14197.9
1492329882,0.634768,2.223,90.0371,0.214036,-0.308876,0.810596,0.383535,0.474391,0.0170503,3.24202,2.24724,1.24852,5.38992,4.19872,0,12508,49.172,28.874,14197.9
1492430234,0.634768,2.223,90.052,0.212983,-0.312622,0.808856,0.431232,0.899021,0.0262322,3.1947,2.15382,1.34869,5.33576,4.16735,0,12508,49.172,28.874,14197.9
1492530597,0.634768,2.223,90.0568,0.211966,-0.309479,0.809063,0.472816,1.31209,0.0230747,3.09394,2.14398,1.49263,5.29328,4.13444,0,12508,49.172,28.874,14197.9
1492631006,0.634768,2.223,90.0704,0.21304,-0.306227,0.809475,0.514832,1.71247,0.0204323,3.09832,2.16848,1.1175,5.23732,4.09583,0,12508,49.172,28.874,14197.9
1492731382,0.634768,2.223,90.0777,0.216332,-0.301439,0.810651,0.549966,2.10552,0.00997309,3.01364,2.18502,1.21507,5.17922,4.05045,0,12508,49.172,28.874,14197.9
1492831717,0.634768,2.223,90.0776,0.221186,-0.294401,0.811705,0.580581,2.4957,-0.000876576,2.90658,2.23871,1.24298,5.11242,4.00547,0,12508,49.172,28.874,14197.9
1492932048,0.634768,2.223,90.0771,0.225346,-0.287116,0.812922,0.594989,2.86914,-0.00754086,2.71701,2.21904,1.28822,5.03822,3.9508,0,12508,49.172,28.874,14197.9
1493032414,0.634768,2.223,90.0631,0.226178,-0.281313,0.81412,0.600062,3.24306,-0.0146862,2.66706,2.30731,1.28797,4.95023,3.89319,0,12508,49.548,22.497,11146.8
1493132746,0.634768,2.223,90.0483,0.227378,-0.278291,0.814428,0.61123,3.60746,-0.018972,2.62,2.19056,1.34205,4.84663,3.82544,0,12508,49.548,22.497,11146.8
1493233106,0.634768,2.223,90.0447,0.231076,-0.273651,0.814432,0.615481,3.96409,-0.0151086,2.48685,2.22772,1.28839,4.73598,3.75726,0,12508,49.548,22.497,11146.8
1493333475,0.634768,2.223,90.0481,0.234069,-0.269132,0.814611,0.606688,4.31578,-0.0158809,2.4111,2.21626,1.3749,4.61761,3.67569,0,12508,49.548,22.497,11146.8
1493433825,0.634768,2.223,90.0442,0.226773,-0.253981,0.817569,0.594584,4.65927,-0.0104676,2.34027,2.24925,1.23787,4.52282,3.59291,0,12508,49.548,22.497,11146.8
1493534193,0.634768,2.223,90.0465,0.189858,-0.210927,0.826902,0.571137,4.9707,0.00751632,2.01228,2.07627,0.953177,4.45368,3.48181,0,12508,49.548,22.497,11146.8
1493634508,0.634768,2.223,90.0449,0.144992,-0.164264,0.835086,0.549539,5.19263,0.0132661,1.41859,1.61332,0.660572,4.38093,3.37756,0,12508,49.548,22.497,11146.8
1493734876,0.634768,2.223,90.0509,0.100743,-0.11439,0.841249,0.535235,5.3583,0.02038,1.10573,1.18947,0.321981,4.26801,3.25624,0,12508,49.548,22.497,11146.8
1493835268,0.634768,2.223,90.0683,0.0616859,-0.069757,0.84491,0.511353,5.45329,0.0276564,0.589395,0.828799,0.122771,4.14581,3.144,0,12508,49.548,22.497,11146.8
1493935613,0.634768,2.223,90.0917,0.0249093,-0.0273124,0.84668,0.484461,5.48146,0.0300529,0.111811,0.457781,-0.135464,4.00327,3.02794,0,12508,49.548,22.497,11146.8
1494036399,0.634768,2.223,90.11,-0.00507473,0.00554464,0.846446,0.466694,5.45535,0.0240705,-0.180565,0.0177363,0.0519305,3.8609,2.92235,0,12508,49.548,24.208,11994.6
1494138087,0.634768,2.223,90.1168,-0.0292848,0.0316652,0.845096,0.440279,5.39589,0.0185184,-0.48196,-0.152625,-0.230121,3.70695,2.81407,0,12508,49.548,24.208,11994.6
1494238471,0.634768,2.223,90.1188,-0.0438742,0.0398685,0.843351,0.418092,5.30335,0.00612035,-0.734478,-0.316924,-0.146771,3.5795,2.72517,0,12508,49.548,24.208,11994.6
1494338826,0.634768,2.223,90.1171,-0.0582712,0.0535776,0.842932,0.404945,5.19449,-0.0158625,-0.818973,-0.54273,-0.328209,3.44179,2.62083,0,12508,49.548,24.208,11994.6
1494439176,0.634768,2.223,90.1011,-0.0650787,0.0607923,0.842762,0.384561,5.0638,-0.0536402,-0.982049,-0.649258,-0.297081,3.31658,2.52255,0,12508,49.548,24.208,11994.6
1494539544,0.634768,2.223,90.0776,-0.0640263,0.0655103,0.842547,0.361974,4.92464,-0.067152,-1.08287,-0.641428,0.0874024,3.18974,2.42411,0,12508,49.548,24.208,11994.6
1494639909,0.634768,2.223,90.06,-0.0573041,0.0715398,0.842605,0.336144,4.77977,-0.0532381,-1.10165,-0.644837,0.461688,3.07956,2.33828,0,12508,49.548,24.208,11994.6
1494740305,0.634768,2.223,90.049,-0.0547527,0.0800449,0.842278,0.291002,4.63636,-0.0414269,-1.19359,-0.447086,0.330308,2.96096,2.24741,0,12508,49.548,24.208,11994.6
1494840640,0.634768,2.223,90.0259,-0.0568905,0.0795637,0.842228,0.243999,4.48976,-0.0394871,-1.22078,-0.546562,0.205691,2.8699,2.17479,0,12508,49.548,24.208,11994.6
1494941006,0.634768,2.223,89.9966,-0.059209,0.0713996,0.842301,0.187073,4.33651,-0.0352665,-1.32954,-0.487515,0.393745,2.76543,2.08894,0,12508,49.548,24.208,11994.6
1495041420,0.634768,2.223,89.9771,-0.0603261,0.0570277,0.842365,0.150486,4.19089,-0.0330524,-1.11202,-0.572254,0.298154,2.68923,2.02376,0,12508,49.548,24.208,11994.6
1495141829,0.634768,2.223,89.964,-0.0628112,0.0505485,0.843019,0.128943,4.06708,-0.0235342,-0.92433,-0.5403,0.292512,2.59715,1.94237,0,12508,49.548,24.208,11994.6
1495242141,0.634768,2.223,89.9591,-0.0611571,0.042248,0.843177,0.101432,3.94754,-0.00845301,-0.866178,-0.495791,0.18311,2.52327,1.87726,0,12508,49.548,24.208,11994.6
1495342507,0.634768,2.223,89.9555,-0.0623742,0.0382041,0.843703,0.0836547,3.83717,-0.000720572,-0.806487,-0.479153,0.0417465,2.43451,1.79787,0,12508,49.548,24.208,11994.6
1495442944,0.634768,2.223,89.9622,-0.0632839,0.0348405,0.843825,0.0731615,3.72688,0.00383449,-0.763598,-0.535784,0.184278,2.35743,1.72996,0,12508,49.548,24.208,11994.6
1495543293,0.634768,2.223,89.9672,-0.0667934,0.0292654,0.844151,0.0592856,3.62348,0.0190916,-0.750736,-0.540666,0.0331239,2.27757,1.65884,0,12508,49.548,24.208,11994.6
1495643654,0.634768,2.223,89.9735,-0.0724519,0.0235511,0.845075,0.058994,3.52369,0.0196448,-0.625932,-0.584033,-0.0795524,2.20085,1.58708,0,12508,49.246,27.347,13467.3
1495743968,0.634768,2.223,89.9766,-0.0809528,0.0205576,0.845286,0.0603745,3.42974,0.01973,-0.612073,-0.629064,-0.0813224,2.12438,1.51867,0,12508,49.246,27.347,13467.3
1495844441,0.634768,2.223,89.98,-0.0849857,0.0214815,0.84487,0.0795474,3.33743,0.0204437,-0.538946,-0.676051,0.00415631,2.03739,1.44571,0,12508,49.246,27.347,13467.3
1495944806,0.634768,2.223,89.9844,-0.0878978,0.0250696,0.844833,0.0963527,3.24694,0.0190935,-0.551211,-0.654097,0.0737368,1.95613,1.37727,0,12508,49.246,27.347,13467.3
1496045147,0.634768,2.223,89.9848,-0.0893255,0.0298175,0.844675,0.112642,3.14381,0.0147955,-0.659529,-0.776127,-0.0962443,1.8805,1.31544,0,12508,49.246,27.347,13467.3
1496145581,0.634768,2.223,89.9823,-0.0899385,0.0330125,0.844892,0.129585,3.04008,0.0127068,-0.625771,-0.755714,0.139068,1.8005,1.249,0,12508,49.246,27.347,13467.3
1496245970,0.634768,2.223,89.9833,-0.0870155,0.0354862,0.845612,0.135693,2.93509,0.0225298,-0.741419,-0.70368,0.118309,1.72695,1.18933,0,12508,49.246,27.347,13467.3
1496346328,0.634768,2.223,89.9803,-0.0842959,0.0387646,0.846332,0.141661,2.8295,0.00795399,-0.752118,-0.727134,0.0239469,1.65595,1.13148,0,12508,49.246,27.347,13467.3
1496446683,0.634768,2.223,89.9763,-0.0805063,0.0377609,0.846777,0.143338,2.72285,0.00665013,-0.766546,-0.72642,-0.038601,1.58665,1.07905,0,12508,49.246,27.347,13467.3
1496547057,0.634768,2.223,89.9703,-0.076635,0.0358477,0.847141,0.154145,2.62861,0.00995089,-0.654019,-0.660707,0.182352,1.51347,1.02297,0,12508,49.246,27.347,13467.3
1496647434,0.634769,2.223,89.9655,-0.0759209,0.0348091,0.846854,0.15839,2.5144,0.0091868,-0.654609,-0.53337,0.383631,1.44435,0.97251,0,12508,49.428,24.346,12033.7
1496747797,0.634769,2.223,89.9638,-0.0770488,0.0363867,0.846223,0.158987,2.42953,0.00919761,-0.622537,-0.519586,0.0709279,1.37874,0.924336,0,12508,49.428,24.346,12033.7
1496848196,0.634769,2.223,89.9644,-0.080866,0.0376262,0.84609,0.166774,2.34817,0.00968988,-0.526335,-0.544731,0.102432,1.31842,0.880656,0,12508,49.428,24.346,12033.7
1496948558,0.634769,2.223,89.9656,-0.0816358,0.0403372,0.845942,0.176171,2.25822,0.0189339,-0.575786,-0.61852,0.116437,1.25472,0.834291,0,12508,49.428,24.346,12033.7
1497048915,0.634769,2.223,89.9605,-0.0777882,0.0405404,0.845868,0.183883,2.1632,0.0108373,-0.625291,-0.591492,0.236537,1.19485,0.791698,0,12508,49.428,24.346,12033.7
1497149284,0.634769,2.223,89.9608,-0.0758088,0.0432107,0.845855,0.189033,2.07564,0.0149076,-0.607489,-0.587278,0.124611,1.14061,0.752904,0,12508,49.428,24.346,12033.7
1497249640,0.634769,2.223,89.9583,-0.0749679,0.045442,0.845408,0.186833,1.99344,0.0176312,-0.611373,-0.483311,0.215329,1.08112,0.711403,0,12508,49.428,24.346,12033.7
1497350018,0.634769,2.223,89.9592,-0.0772264,0.0491936,0.844586,0.182516,1.91105,0.0180358,-0.617316,-0.513494,0.0400668,1.0273,0.674342,0,12508,49.428,24.346,12033.7
1497450376,0.634769,2.223,89.9631,-0.0799935,0.0517194,0.843721,0.179399,1.82497,0.0250128,-0.629595,-0.527187,0.23697,0.977912,0.641656,0,12508,49.428,24.346,12033.7
1497551177,0.634769,2.223,89.9682,-0.0815354,0.0500422,0.842972,0.180102,1.72998,0.034563,-0.677268,-0.627499,-0.0296514,0.926976,0.60769,0,12508,49.428,24.346,12033.7
1497651658,0.634769,2.223,89.9771,-0.0791952,0.0483258,0.843011,0.186472,1.64039,0.0304756,-0.61921,-0.643521,0.0397156,0.88055,0.575283,0,12508,49.434,23.305,11520.6
1497752082,0.634769,2.223,89.9845,-0.0746048,0.0466672,0.842948,0.198531,1.56273,0.0362919,-0.485179,-0.593326,-0.0293634,0.836713,0.545314,0,12508,49.434,23.305,11520.6
1497852527,0.634769,2.223,89.9905,-0.0726509,0.0495761,0.842855,0.202049,1.50187,0.0199008,-0.501967,-0.465095,-0.279857,0.796746,0.517745,0,12508,49.434,23.305,11520.6
1497952911,0.634769,2.223,89.9927,-0.070108,0.0524413,0.843135,0.204831,1.42649,0.013863,-0.565176,-0.501302,-0.0514257,0.754873,0.489316,0,12508,49.434,23.305,11520.6
1498053282,0.634769,2.223,89.9925,-0.068342,0.0548136,0.843141,0.201392,1.34984,0.013049,-0.5978,-0.452638,0.0503633,0.716216,0.464095,0,12508,49.434,23.305,11520.6
1498153593,0.634769,2.223,89.9922,-0.067799,0.0551413,0.843065,0.202065,1.27045,0.00825819,-0.594812,-0.559611,0.0594279,0.676373,0.438955,0,12508,49.434,23.305,11520.6
1498253916,0.634769,2.223,89.988,-0.0655157,0.0536634,0.843354,0.202514,1.19569,0.00405961,-0.584401,-0.499727,0.0934152,0.643431,0.41746,0,12508,49.434,23.305,11520.6
1498354198,0.634769,2.223,89.9786,-0.0635804,0.0509621,0.843348,0.198082,1.12282,-0.00275829,-0.581456,-0.448117,0.241375,0.609787,0.396436,0,12508,49.434,23.305,11520.6
1498454523,0.634769,2.223,89.9784,-0.0625705,0.0490334,0.84357,0.19899,1.05319,0.0137852,-0.499879,-0.499342,0.328122,0.579717,0.376541,0,12508,49.434,23.305,11520.6
1498554903,0.634769,2.223,89.9824,-0.059265,0.0460447,0.844093,0.209769,0.981291,0.0103382,-0.483937,-0.554516,0.0642058,0.552878,0.359659,0,12508,49.434,23.305,11520.6
1498655256,0.634769,2.223,89.9871,-0.0543888,0.0434373,0.844454,0.21297,0.919026,0.0118546,-0.435282,-0.443989,0.119699,0.524089,0.341264,0,12508,49.409,24.125,11919.9
1498755619,0.634769,2.223,89.9893,-0.0515428,0.0392228,0.844561,0.211603,0.8592,0.0137873,-0.415407,-0.399575,0.0124882,0.498347,0.326206,0,12508,49.409,24.125,11919.9
1498856054,0.634769,2.223,89.9974,-0.0499666,0.0369099,0.844476,0.215114,0.79764,0.0197991,-0.410911,-0.427899,0.259645,0.473927,0.311586,0,12508,49.409,24.125,11919.9
1498956407,0.634769,2.223,90.0051,-0.0503348,0.0364208,0.844867,0.222445,0.749568,0.0219237,-0.303744,-0.394339,-0.0729955,0.451251,0.299133,0,12508,49.409,24.125,11919.9
1499056795,0.634769,2.223,90.0104,-0.0499628,0.0358088,0.845187,0.220895,0.702039,0.0158426,-0.39753,-0.341699,-0.200762,0.430766,0.2878,0,12508,49.409,24.125,11919.9
1499157158,0.634769,2.223,90.0082,-0.0472753,0.0357331,0.845323,0.227465,0.649342,0.00454051,-0.344384,-0.381478,0.0574117,0.410427,0.277899,0,12508,49.409,24.125,11919.9
1499257516,0.634769,2.223,90.0054,-0.0434185,0.0365212,0.845585,0.226688,0.607378,0.0053242,-0.318839,-0.30601,-0.00898545,0.390996,0.268069,0,12508,49.409,24.125,11919.9
1499357875,0.634769,2.223,90.002,-0.040464,0.0372028,0.845493,0.21795,0.565139,0.00263889,-0.348193,-0.226073,0.0651617,0.371756,0.259681,0,12508,49.409,24.125,11919.9
1499458248,0.634769,2.223,89.9989,-0.0381752,0.0369354,0.845433,0.215395,0.520795,0.00233243,-0.323801,-0.276019,0.174845,0.356205,0.250681,0,12508,49.409,24.125,11919.9
1499558615,0.634769,2.223,89.9941,-0.0353468,0.0346224,0.845528,0.20555,0.484407,0.000682997,-0.338976,-0.168695,0.189337,0.340271,0.242729,0,12508,49.409,24.125,11919.9
1499658977,0.634769,2.223,89.9931,-0.03336,0.0313082,0.845635,0.202254,0.447788,0.00384806,-0.287241,-0.200371,0.045277,0.325309,0.234092,0,12508,49.376,24.181,11939.6
1499759341,0.634769,2.223,89.9957,-0.0317056,0.028256,0.845501,0.18533,0.41941,-2.99236e-05,-0.322066,-0.113103,0.20174,0.311211,0.227679,0,12508,49.376,24.181,11939.6
1499859705,0.634769,2.223,89.9952,-0.032969,0.026266,0.845493,0.182636,0.393413,0.00213166,-0.210115,-0.256954,0.00858883,0.299424,0.220294,0,12508,49.376,24.181,11939.6
1499960101,0.634769,2.223,89.9996,-0.0325772,0.0250189,0.845845,0.176897,0.361416,0.00972488,-0.316354,-0.226899,0.101904,0.28729,0.214247,0,12508,49.376,24.181,11939.6
1500060507,0.634769,2.223,90.0081,-0.0306215,0.0232284,0.845974,0.165703,0.34112,0.00540941,-0.214921,-0.0940034,0.0396287,0.278881,0.207154,0,12508,49.376,24.181,11939.6
1500160872,0.634769,2.223,90.0113,-0.0294348,0.023172,0.846271,0.15506,0.321265,0.0128763,-0.188405,-0.0865119,-0.0635318,4.7,4,0,12508,49.376,24.181,11939.6
1500261205,0.634769,2.223,90.0122,-0.0339606,0.0217669,0.84664,0.140326,0.294212,0.000415776,-0.236861,-0.115558,0.0401658,4.7,4,0,12508,49.376,24.181,11939.6
1500361577,0.634769,2.223,90.013,-0.0495811,0.0304941,0.846286,0.136967,0.273292,0.00312597,-0.183382,-0.245977,-0.0743771,4.7,4,0,12508,49.376,24.181,11939.6
1500461931,0.634769,2.223,90.015,-0.0575652,0.0378883,0.846199,0.143036,0.223394,0.0109456,-0.275626,-0.363431,0.112186,4.7,4,0,12508,49.376,24.181,11939.6
1500562274,0.634769,2.223,90.0138,-0.0587085,0.0416423,0.845988,0.138406,0.170439,0.00562997,-0.397498,-0.398901,-0.132804,4.7,4,0,12508,49.376,24.181,11939.6
1500662633,0.634769,2.223,90.0077,-0.0563645,0.0430552,0.846025,0.136203,0.116262,-0.00464375,-0.395488,-0.391325,0.0102969,4.7,4,0,12508,49.392,24.315,12009.7
1500763622,0.634769,2.223,90.0029,-0.0519585,0.041299,0.846151,0.133685,0.0600246,0.00617793,-0.390057,-0.405297,0.113173,4.7,4,0,12508,49.392,24.315,12009.7
1500869389,0.634769,2.223,90.0001,-0.0479133,0.0356546,0.846094,0.12708,0.00453818,0.00193011,-0.289511,-0.245634,0.14866,4.7,4,0,12508,49.392,24.315,12009.7
1500969709,0.634769,2.223,90.0029,-0.0419939,0.0316996,0.846141,0.130651,-0.0380441,0.00331343,-0.257634,-0.307986,0.0992895,4.7,4,0,12508,49.392,24.315,12009.7
1501070072,0.634769,2.223,90.005,-0.0326267,0.0287,0.846252,0.132596,-0.0808673,0.0089692,-0.262543,-0.28027,-0.139571,4.7,4,0,12508,49.392,24.315,12009.7
1501170462,0.634769,2.223,90.0105,-0.0261386,0.0247974,0.846143,0.120955,-0.102938,0.00479745,-0.162403,-0.108357,-0.167192,-4.3,-1,0,12508,49.392,24.315,12009.7
1501270902,0.634769,2.223,90.0149,-0.0231825,0.0281107,0.844865,0.109263,-0.122518,0.00773295,-0.172442,-0.0603734,0.169466,-4.3,-1,0,12508,49.392,24.315,12009.7
1501371340,0.634769,2.223,90.0233,-0.0534644,0.166145,0.840562,0.107244,-0.150717,0.0610616,-0.490332,-0.300904,0.106861,-4.3,-1,0,12508,49.392,24.315,12009.7
1501471761,0.634769,2.223,90.0329,-0.0801069,0.290097,0.834529,0.00499484,-0.332624,0.0102143,-2.26184,-0.491471,-0.224347,-4.3,-1,0,12508,49.392,24.315,12009.7
1501572161,0.634769,2.223,90.0362,-0.0968754,0.368667,0.827487,-0.153849,-0.617606,-0.0246602,-3.03462,-0.68787,1.06269,-4.3,-1,0,12508,49.392,24.315,12009.7
1501672634,0.634769,2.223,90.0436,-0.103749,0.407105,0.823425,-0.358671,-0.97333,-0.0184795,-3.69682,-0.753864,1.57872,-4.3,-1,0,12508,49.372,24.603,12147
1501773008,0.634769,2.223,90.0597,-0.106083,0.419199,0.821605,-0.583333,-1.35488,-0.0112006,-3.84248,-0.762767,1.7743,-4.3,-1,0,12508,49.372,24.603,12147
1501874232,0.634769,2.223,90.0616,-0.106998,0.413039,0.821183,-0.81479,-1.73264,-0.0069292,-3.81949,-0.695085,1.71915,-4.3,-1,0,12508,49.372,24.603,12147
1501975121,0.634769,2.223,90.0544,-0.109958,0.406144,0.820571,-1.02429,-2.1022,-0.00468541,-3.58222,-0.808562,1.71633,-4.3,-1,0,12508,49.372,24.603,12147
1502075570,0.634769,2.223,90.0557,-0.108872,0.399637,0.820507,-1.22759,-2.45612,0.00285091,-3.47629,-0.739523,1.75358,-4.3,-1,0,12508,49.372,24.603,12147
1502176098,0.634769,2.223,90.0633,-0.0972812,0.363638,0.823769,-1.43715,-2.79984,-3.72529e-07,-3.47922,-0.64951,1.42485,-2.5,3.2,0,12508,49.372,24.603,12147
1502276544,0.634768,2.223,90.0603,-0.051857,0.287335,0.835316,-1.62448,-3.10269,0.0236025,-2.9343,-0.53624,1.66872,-2.5,3.2,0,12508,49.372,24.603,12147
1502376908,0.634768,2.223,90.0559,0.150635,0.103206,0.860266,-1.81821,-3.30954,0.153466,-2.08969,0.368512,1.1745,-2.5,3.2,0,12508,49.372,24.603,12147
1502477270,0.634768,2.223,90.0635,0.34243,-0.0380893,0.843491,-2.00978,-3.16355,0.0979384,0.181918,2.99819,-0.852438,-2.5,3.2,0,12508,49.372,24.603,12147
1502577649,0.634768,2.223,90.0587,0.438185,-0.0929057,0.824126,-2.23742,-2.8365,-0.0606777,1.03674,3.80777,1.37727,-2.5,3.2,0,12508,49.372,24.603,12147
1502678061,0.634768,2.223,90.045,0.48258,-0.104928,0.81654,-2.5284,-2.38707,-0.0889949,1.40915,4.64989,2.28378,-2.5,3.2,0,12508,49.372,24.603,12147
1502778429,0.634768,2.223,90.0297,0.484967,-0.0974476,0.816698,-2.8437,-1.901,-0.116996,1.41853,4.81007,2.77944,-2.5,3.2,0,12508,49.353,25.156,12415.2
1502878810,0.634768,2.223,89.9951,0.42694,-0.0764024,0.822225,-3.16106,-1.41469,-0.115753,1.39724,4.74955,2.71238,-2.5,3.2,0,12508,49.353,25.156,12415.2
1502979166,0.634768,2.223,89.9587,0.341292,-0.0554866,0.829164,-3.43208,-0.990964,-0.0741585,1.22831,4.08159,2.39014,-2.5,3.2,0,12508,49.353,25.156,12415.2
1503079523,0.634768,2.223,89.9456,0.253763,-0.0367092,0.835823,-3.63579,-0.662008,-0.0348883,0.994478,3.23578,1.30478,-2.5,3.2,0,12508,49.353,25.156,12415.2
1503179925,0.634768,2.223,89.952,0.173784,-0.0173685,0.841601,-3.77266,-0.412111,-0.00475704,0.808814,2.26746,0.860944,-0.2,2.7,0,12508,49.353,25.156,12415.2
1503280363,0.634768,2.223,89.9668,0.111193,-0.0119037,0.844042,-3.85889,-0.242514,0.0291074,0.553673,1.47737,0.389112,-0.2,2.7,0,12508,49.353,25.156,12415.2
1503380734,0.634768,2.223,89.9855,0.0470034,-0.168328,0.846314,-3.90466,-0.122236,0.0969544,0.719779,0.843341,0.700126,-0.2,2.7,0,12508,49.353,25.156,12415.2
1503481110,0.634768,2.223,90.0142,-0.00200718,-0.280989,0.85068,-3.75325,0.110232,0.076879,2.82499,0.194025,-0.274153,-0.2,2.7,0,12508,49.353,25.156,12415.2
1503581485,0.634768,2.223,90.0407,-0.0283623,-0.319951,0.852009,-3.52232,0.364072,0.00882456,3.42299,-0.226159,0.491245,-0.2,2.7,0,12508,49.353,25.156,12415.2
1503681828,0.634768,2.223,90.0383,-0.0385887,-0.304159,0.851127,-3.25366,0.633647,-0.02011,3.46738,-0.356546,1.00397,-0.2,2.7,0,12508,49.353,25.156,12415.2
1503782148,0.634768,2.223,90.0273,-0.0366626,-0.256748,0.847956,-2.98948,0.866224,-0.0254836,3.13824,-0.430627,0.917832,-0.2,2.7,0,12508,49.327,26.788,13213.7
1503882445,0.634768,2.223,90.0182,-0.0219056,-0.200348,0.846095,-2.76908,1.058,-0.0138428,2.60457,-0.313723,0.710981,-0.2,2.7,0,12508,49.327,26.788,13213.7
1503982793,0.634768,2.223,90.0093,-0.00587235,-0.147597,0.845903,-2.60244,1.21367,-0.0135325,2.01093,-0.166363,0.267596,-0.2,2.7,0,12508,49.327,26.788,13213.7
1504083130,0.634768,2.223,90.0027,0.00814036,-0.106774,0.846244,-2.47887,1.33419,-0.00799441,1.54419,-0.0530639,0.264911,-0.2,2.7,0,12508,49.327,26.788,13213.7
1504183539,0.634768,2.223,90.0035,0.0204814,-0.0717241,0.847122,-2.38955,1.4242,-0.00766249,1.08988,0.0337418,0.0221651,-4.5,1.5,0,12508,49.327,26.788,13213.7
1504283908,0.634768,2.223,89.9992,0.0230646,-0.0301264,0.846666,-2.33178,1.49287,-0.0044336,0.754993,0.132244,0.293363,-4.5,1.5,0,12508,49.327,26.788,13213.7
1504385927,0.634767,2.223,90.0011,-0.0346708,0.151675,0.843977,-2.30195,1.54788,0.0552206,0.18131,0.159765,0.349197,-4.5,1.5,0,12508,49.327,26.788,13213.7
1504491147,0.634767,2.223,90.0054,-0.0867936,0.305545,0.83529,-2.39155,1.31819,-0.00299047,-2.22469,-0.703526,0.144962,-4.5,1.5,0,12508,49.327,26.788,13213.7
1504591506,0.634767,2.223,90.0033,-0.117003,0.391995,0.827384,-2.52952,0.996559,-0.035464,-3.12695,-0.900813,1.45192,-4.5,1.5,0,12508,49.327,26.788,13213.7
1504691853,0.634767,2.223,90.0145,-0.123907,0.424404,0.824953,-2.69997,0.589835,-0.0224362,-3.71889,-1.18689,1.89631,-4.5,1.5,0,12508,49.327,26.788,13213.7
1504792236,0.634767,2.223,90.038,-0.122505,0.433825,0.825127,-2.88168,0.169666,-0.00942327,-3.90427,-1.17921,1.66172,-4.5,1.5,0,12464,49.336,28.559,14089.9
1504892603,0.634767,2.223,90.039,-0.115456,0.430012,0.826415,-3.06729,-0.242361,-0.00102642,-3.65329,-1.06102,2.02872,-4.5,1.5,0,12464,49.336,28.559,14089.9
1504992963,0.634767,2.223,90.0283,-0.106145,0.422154,0.828354,-3.25363,-0.633409,0.00210904,-3.58579,-0.969735,1.81255,-4.5,1.5,0,12464,49.336,28.559,14089.9
1505093302,0.634767,2.223,90.0341,-0.0906561,0.387796,0.83318,-3.45553,-1.01346,0.00544714,-3.54466,-0.789522,1.61422,-4.5,1.5,0,12464,49.336,28.559,14089.9
1505193678,0.634767,2.223,90.0432,-0.0725109,0.331781,0.838067,-3.63324,-1.34069,0.0216404,-3.06543,-0.652799,1.16911,4.7,-2.3,0,12464,49.336,28.559,14089.9
1505296862,0.634767,2.223,90.0414,-0.07299,0.227158,0.837066,-3.77923,-1.59634,0.0155256,-2.53411,-0.417382,0.672438,4.7,-2.3,0,12464,49.336,28.559,14089.9
1505397247,0.634767,2.223,90.0361,-0.125412,-0.0668467,0.846271,-3.85312,-1.79679,0.0711862,-1.1592,-0.639318,0.910343,4.7,-2.3,0,12464,49.336,28.559,14089.9
1505497639,0.634767,2.223,90.0402,-0.161251,-0.279958,0.870613,-3.6198,-1.7361,0.0817007,2.54981,-1.25177,0.211813,4.7,-2.3,0,12464,49.336,28.559,14089.9
1505597972,0.634767,2.223,90.0479,-0.18496,-0.383203,0.88777,-3.28116,-1.57296,-0.0140745,3.80087,-1.3849,0.739942,4.7,-2.3,0,12464,49.336,28.559,14089.9
1505698355,0.634767,2.223,90.0273,-0.193336,-0.429327,0.896992,-2.8421,-1.34651,-0.0594135,4.39521,-1.51662,2.17313,4.7,-2.3,0,12464,49.336,28.559,14089.9
1505798715,0.634767,2.223,89.994,-0.196716,-0.441593,0.900697,-2.36629,-1.08704,-0.0935833,4.61581,-1.56126,2.3742,4.7,-2.3,0,12419,49.297,27.064,13341.7
1505899071,0.634767,2.223,89.9623,-0.196545,-0.434168,0.899874,-1.86801,-0.808644,-0.099513,4.68375,-1.50869,2.83818,4.7,-2.3,0,12419,49.297,27.064,13341.7
1505999428,0.634767,2.223,89.934,-0.197967,-0.421864,0.898679,-1.37138,-0.534428,-0.0733149,4.50531,-1.49879,3.09596,4.7,-2.3,0,12419,49.297,27.064,13341.7
1506099768,0.634767,2.223,89.9225,-0.201436,-0.410738,0.897194,-0.873739,-0.270075,-0.0331528,4.5031,-1.60492,2.66809,4.7,-2.3,0,12419,49.297,27.064,13341.7
1506200185,0.634767,2.223,89.9175,-0.203861,-0.393925,0.894409,-0.400265,-0.0119945,-0.00869346,4.2354,-1.51118,2.54518,-2.5,-4.7,0,12419,49.297,27.064,13341.7
1506300532,0.634767,2.223,89.9188,-0.20423,-0.364887,0.889696,0.0440052,0.214534,0.0129806,3.9151,-1.52455,2.18962,-2.5,-4.7,0,12419,49.297,27.064,13341.7
1506400893,0.634767,2.223,89.9277,-0.226725,-0.170624,0.880813,0.503889,0.431388,0.130068,3.66755,-1.60733,3.06692,-2.5,-4.7,0,12419,49.297,27.064,13341.7
1506501280,0.634767,2.223,89.9495,-0.275994,0.0810064,0.850146,0.754356,0.398871,0.146302,0.652543,-2.24657,-0.288691,-2.5,-4.7,0,12419,49.297,27.064,13341.7
1506601649,0.634767,2.223,89.9733,-0.31391,0.219297,0.816418,0.847554,0.153118,0.0294209,-1.61851,-2.43546,0.32903,-2.5,-4.7,0,12419,49.297,27.064,13341.7
1506701994,0.634767,2.223,90.0036,-0.336059,0.283218,0.795615,0.90775,-0.215468,-0.0017361,-2.38031,-2.70579,1.40355,-2.5,-4.7,0,12419,49.297,27.064,13341.7
1506802357,0.634767,2.223,90.0434,-0.345552,0.301064,0.786119,0.935194,-0.639462,0.00873929,-2.73807,-2.65366,2.06339,-2.5,-4.7,0,12419,49.27,27.697,13646.3
1506902727,0.634767,2.223,90.0569,-0.347817,0.296995,0.783521,0.968069,-1.06605,0.00315616,-2.81572,-2.86803,1.64958,-2.5,-4.7,0,12419,49.27,27.697,13646.3
1507003086,0.634767,2.223,90.0578,-0.346911,0.286224,0.785471,0.994729,-1.48144,0.0035631,-2.64176,-2.68998,1.72015,-2.5,-4.7,0,12419,49.27,27.697,13646.3
1507103461,0.634767,2.223,90.0664,-0.346169,0.270271,0.789649,1.02149,-1.89129,0.00462229,-2.5939,-2.67268,1.62322,-2.5,-4.7,0,12419,49.27,27.697,13646.3
1507203896,0.634767,2.223,90.0828,-0.344865,0.251532,0.79478,1.05389,-2.28169,0.0070108,-2.35204,-2.58899,1.48909,4.5,1.8,0,12419,49.27,27.697,13646.3
1507304294,0.634767,2.223,90.0915,-0.327129,0.220226,0.803795,1.09905,-2.65209,-0.00106025,-2.13355,-2.63813,1.14869,4.5,1.8,0,12419,49.27,27.697,13646.3
1507404647,0.634767,2.223,90.0871,-0.144955,0.052416,0.833606,1.14738,-3.00414,0.038018,-1.8196,-2.29185,1.31286,4.5,1.8,0,12419,49.27,27.697,13646.3
1507505010,0.634767,2.223,90.0869,0.10252,-0.174401,0.830447,1.17497,-3.00817,0.109846,0.655989,0.0913797,0.811746,4.5,1.8,0,12419,49.27,27.697,13646.3
1507605366,0.634767,2.223,90.0931,0.253146,-0.304645,0.805418,1.17348,-2.66955,0.0888273,2.9248,2.42043,0.313498,4.5,1.8,0,12419,49.27,27.697,13646.3
1507705743,0.634767,2.223,90.0869,0.320869,-0.355979,0.792328,1.15793,-2.2092,-0.0397242,3.47214,3.05095,1.50939,4.5,1.8,0,12419,49.27,27.697,13646.3
1507806111,0.634767,2.223,90.0649,0.347551,-0.361973,0.793721,1.12614,-1.64934,-0.0900928,3.83488,3.53086,2.29133,4.5,1.8,0,12419,49.27,27.697,13646.3
1507906510,0.634767,2.223,90.0364,0.34391,-0.354066,0.79914,1.06326,-0.970205,-0.128285,3.50257,3.46555,2.97687,4.5,1.8,0,12375,49.17,28.439,13983.5
1508006876,0.634767,2.223,90.0089,0.323348,-0.354781,0.801561,1.00791,-0.384288,-0.0917084,3.53855,3.62774,3.05383,4.5,1.8,0,12375,49.17,28.439,13983.5
1508107218,0.634767,2.223,89.9825,0.296423,-0.356593,0.803367,0.979749,0.190625,-0.0823898,3.64535,3.38039,2.65605,4.5,1.8,0,12375,49.17,28.439,13983.5
1508207605,0.634767,2.223,89.9564,0.269459,-0.352611,0.80775,0.973713,0.739484,-0.056128,3.478,2.97704,2.64759,-4.2,0.3,0,12375,49.17,28.439,13983.5
1508307971,0.634767,2.223,89.9474,0.23415,-0.32449,0.813838,0.984283,1.26507,-0.0342934,3.63857,2.77685,2.26364,-4.2,0.3,0,12375,49.17,28.439,13983.5
1508408380,0.634767,2.223,89.952,0.144784,-0.0787254,0.833433,0.995101,1.71494,0.0639672,2.69078,2.28652,1.73186,-4.2,0.3,0,12375,49.17,28.439,13983.5
1508508737,0.634767,2.223,89.9642,0.0471037,0.236661,0.844871,0.831253,1.78072,0.116708,-1.28113,1.21355,-0.258554,-4.2,0.3,0,12375,49.17,28.439,13983.5
1508609083,0.634767,2.223,89.9819,-0.0122304,0.398767,0.84012,0.618846,1.62707,0.0355476,-3.32054,0.428045,0.164889,-4.2,0.3,0,12375,49.17,28.439,13983.5
1508709463,0.634767,2.223,90.024,-0.0488283,0.487425,0.833491,0.238244,1.24049,-0.0100506,-4.42568,-0.0313513,1.82268,-4.2,0.3,0,12375,49.17,28.439,13983.5
1508809845,0.634767,2.223,90.0815,-0.0591814,0.510225,0.831785,-0.104465,0.827806,-0.00604266,-4.88102,-0.321258,2.20988,-4.2,0.3,0,12375,49.17,28.439,13983.5
1508910215,0.634767,2.223,90.1084,-0.0579282,0.504458,0.832895,-0.453237,0.425595,-0.000396192,-4.68517,-0.181906,2.57943,-4.2,0.3,0,12375,49.054,30.419,14921.7
1509010581,0.634767,2.223,90.1171,-0.0574701,0.492393,0.833618,-0.79128,0.0218992,0.00716997,-4.6765,-0.239121,2.30501,-4.2,0.3,0,12375,49.054,30.419,14921.7
1509110928,0.634767,2.223,90.1278,-0.058459,0.477045,0.83412,-1.11397,-0.365526,-0.00622404,-4.39698,-0.2092,2.24269,-4.2,0.3,0,12375,49.054,30.419,14921.7
1509211337,0.634767,2.223,90.134,-0.0582278,0.458548,0.834897,-1.42757,-0.751331,-0.00815989,-4.37156,-0.202548,1.8097,4.4,3.2,0,12375,49.054,30.419,14921.7
1509311702,0.634767,2.223,90.1222,-0.043355,0.411329,0.84202,-1.72025,-1.11676,-0.0262497,-4.13437,-0.172602,1.79401,4.4,3.2,0,12375,49.054,30.419,14921.7
1509412055,0.634767,2.223,90.094,0.0339301,0.146191,0.855655,-2.0014,-1.4395,-0.00344993,-3.34235,0.144994,1.41914,4.4,3.2,0,12375,49.054,30.419,14921.7
1509512424,0.634767,2.223,90.0741,0.103157,-0.174941,0.841646,-2.09145,-1.41055,0.0302639,0.430375,0.99614,0.145292,4.4,3.2,0,12375,49.054,30.419,14921.7
1509612911,0.634767,2.223,90.0561,0.139087,-0.349957,0.823826,-2.01029,-1.10912,-0.038534,3.16952,1.43538,0.507968,4.4,3.2,0,12375,49.054,30.419,14921.7
1509714626,0.634767,2.223,90.0283,0.157665,-0.432259,0.811703,-1.86428,-0.682721,-0.0934221,4.06606,1.66775,2.01312,4.4,3.2,0,12375,49.054,30.419,14921.7
1509814922,0.634767,2.223,89.992,0.160101,-0.453388,0.808168,-1.66212,-0.174111,-0.105003,4.56403,1.67278,2.79581,4.4,3.2,0,12375,49.054,30.419,14921.7
1509915178,0.634767,2.223,89.9516,0.153545,-0.450682,0.808173,-1.44468,0.339906,-0.0889605,4.537,1.61026,3.10278,4.4,3.2,0,12375,49.119,29.129,14307.9
1510015464,0.634767,2.223,89.9182,0.151124,-0.443052,0.809579,-1.22029,0.85076,-0.0588671,4.55683,1.52346,3.0001,4.4,3.2,0,12375,49.119,29.129,14307.9
1510115822,0.634767,2.223,89.9059,0.149911,-0.432125,0.810983,-1.00655,1.35269,-0.0243295,4.31841,1.55011,2.86069,4.4,3.2,0,12375,49.119,29.129,14307.9
1510216235,0.634767,2.223,89.9036,0.151086,-0.414716,0.811842,-0.807228,1.83827,0.000655442,4.16139,1.56112,2.49439,1.7,-4.8,0,12375,49.119,29.129,14307.9
1510317516,0.634767,2.223,89.9039,0.121039,-0.384187,0.818279,-0.624005,2.30298,0.0240676,3.89472,1.62685,2.25388,1.7,-4.8,0,12375,49.119,29.129,14307.9
1510424774,0.634767,2.223,89.9102,-0.0771462,-0.250736,0.859625,-0.410755,2.75065,0.16082,3.7062,1.12523,2.61278,1.7,-4.8,0,12375,49.119,29.129,14307.9
1510529211,0.634767,2.223,89.9578,-0.293891,-0.0747707,0.859977,-0.123913,2.81271,0.151324,1.20788,-2.08213,-0.362989,1.7,-4.8,0,12375,49.119,29.129,14307.9
1510629626,0.634767,2.223,89.9909,-0.413841,0.020604,0.836648,0.128863,2.60074,0.0449863,-0.228097,-3.33038,0.979204,1.7,-4.8,0,12375,49.119,29.129,14307.9
1510730007,0.634767,2.223,90.0323,-0.466642,0.063612,0.820693,0.425445,2.25491,0.040873,-0.774524,-4.18378,1.84591,1.7,-4.8,0,12375,49.119,29.129,14307.9
1510830382,0.634767,2.223,90.0638,-0.475007,0.0755558,0.813881,0.71338,1.87832,0.0320905,-0.984404,-4.28302,1.77822,1.7,-4.8,0,12375,49.119,29.129,14307.9
1510930755,0.634767,2.223,90.0872,-0.467522,0.0713014,0.813403,0.992121,1.49966,0.0251547,-0.981074,-4.22244,1.8326,1.7,-4.8,0,12375,49.051,29.281,14362.6
1511031168,0.634767,2.223,90.1017,-0.459776,0.062226,0.815597,1.26979,1.14159,0.016467,-0.800729,-4.08202,1.7849,1.7,-4.8,0,12375,49.051,29.281,14362.6
1511131532,0.634767,2.223,90.1062,-0.4537,0.051193,0.818758,1.54148,0.780995,-0.00507981,-0.728453,-3.92521,1.87264,1.7,-4.8,0,12375,49.051,29.281,14362.6
1511231936,0.634767,2.223,90.0944,-0.443615,0.0407396,0.821604,1.81495,0.432016,-0.0120356,-0.656317,-3.85963,1.69952,-0.6,4.1,0,12375,49.051,29.281,14362.6
1511332332,0.634767,2.223,90.0748,-0.425115,0.0320606,0.824287,2.08538,0.0920193,-0.0169654,-0.535362,-3.68773,1.9503,-0.6,4.1,0,12375,49.051,29.281,14362.6
1511432701,0.634767,2.223,90.0683,-0.229219,0.0951047,0.829604,2.3521,-0.25388,0.107405,-0.660327,-3.40697,1.93396,-0.6,4.1,0,12375,49.051,29.281,14362.6
1511533070,0.634767,2.223,90.065,0.10762,0.142243,0.856336,2.3279,-0.436493,0.0715163,-1.51562,-0.346991,-0.464559,-0.6,4.1,0,12375,49.051,29.281,14362.6
1511633439,0.634767,2.223,90.0602,0.33786,0.148427,0.873472,2.02137,-0.401782,-0.0155987,-1.6676,3.00585,0.324223,-0.6,4.1,0,12375,49.051,29.281,14362.6
1511733819,0.634767,2.223,90.0536,0.436519,0.145219,0.881512,1.59293,-0.26338,-0.0792387,-1.54316,4.1356,1.57152,-0.6,4.1,0,12375,49.051,29.281,14362.6
1511834213,0.634767,2.223,90.0298,0.479839,0.143978,0.887844,1.09495,-0.0641166,-0.128593,-1.44488,4.63837,2.62024,-0.6,4.1,0,12375,49.051,29.281,14362.6
1511934566,0.634767,2.223,89.9955,0.479998,0.146133,0.891503,0.546763,0.150664,-0.14304,-1.57327,4.8662,2.97185,-0.6,4.1,0,12375,48.951,30.275,14819.9
1512034929,0.634767,2.223,89.9638,0.460487,0.145984,0.890727,0.00141799,0.371397,-0.112073,-1.45713,4.63671,3.31304,-0.6,4.1,0,12375,48.951,30.275,14819.9
1512135303,0.634767,2.223,89.9391,0.443611,0.138609,0.88587,-0.534055,0.580163,-0.0710788,-1.56212,4.55914,2.85777,-0.6,4.1,0,12375,48.951,30.275,14819.9
1512235696,0.634767,2.223,89.9251,0.432413,0.121327,0.878338,-1.03897,0.793534,-0.0405593,-1.3849,4.3723,2.69143,3.9,-3.4,0,12375,48.951,30.275,14819.9
1512336092,0.634767,2.223,89.9251,0.390453,0.0930585,0.870857,-1.50943,1.02304,-0.0175638,-1.15669,4.26165,2.34164,3.9,-3.4,0,12375,48.951,30.275,14819.9
1512436465,0.634767,2.223,89.9264,0.156508,-0.0101863,0.856641,-1.91311,1.2306,0.0507682,-0.827036,3.51856,1.61096,3.9,-3.4,0,12375,48.951,30.275,14819.9
1512536829,0.634767,2.223,89.9436,-0.148729,-0.14678,0.863811,-1.97313,1.3356,0.0956769,0.631329,0.439655,0.27159,3.9,-3.4,0,12375,48.951,30.275,14819.9
1512637139,0.634767,2.223,89.962,-0.326878,-0.224728,0.886057,-1.69994,1.33616,0.0630766,1.8958,-2.45023,0.443512,3.9,-3.4,0,12375,48.951,30.275,14819.9
1512737508,0.634767,2.223,89.9801,-0.411127,-0.262973,0.901382,-1.27331,1.30292,0.0209287,2.43785,-3.46635,1.70488,3.9,-3.4,0,12375,48.951,30.275,14819.9
1512837853,0.634767,2.223,89.9821,-0.435253,-0.27382,0.905067,-0.758305,1.24275,0.0133467,2.5437,-3.78742,2.81681,3.9,-3.4,0,12375,48.951,30.275,14819.9
1512940322,0.634767,2.223,89.9739,-0.429013,-0.273291,0.903547,-0.22316,1.17641,0.0223137,2.65738,-4.00907,2.64533,3.9,-3.4,0,12375,49.086,29.723,14589.8
1513042034,0.634767,2.223,89.9669,-0.414894,-0.269175,0.901273,0.300554,1.11121,0.0239188,2.6807,-3.89488,2.42316,3.9,-3.4,0,12375,49.086,29.723,14589.8
1513142403,0.634767,2.223,89.9584,-0.399564,-0.260875,0.897267,0.802272,1.05695,0.0111704,2.54922,-3.66623,2.24803,3.9,-3.4,0,12375,49.086,29.723,14589.8
1513242816,0.634767,2.223,89.9514,-0.384653,-0.25221,0.893174,1.29184,1.00678,0.0169373,2.39316,-3.42354,2.26259,-4.6,-4.6,0,12375,49.086,29.723,14589.8
1513343221,0.634767,2.223,89.949,-0.368576,-0.231091,0.886565,1.76083,0.939504,0.0217134,2.20079,-3.39209,2.02506,-4.6,-4.6,0,12375,49.086,29.723,14589.8
1513443593,0.634767,2.223,89.9466,-0.308268,-0.0222758,0.85417,2.24005,0.875324,0.117451,2.07139,-3.06459,2.80079,-4.6,-4.6,0,12375,49.086,29.723,14589.8
1513543930,0.634767,2.223,89.9571,-0.246286,0.218605,0.826854,2.41911,0.621604,0.170731,-1.2727,-2.6498,0.291596,-4.6,-4.6,0,12375,49.086,29.723,14589.8
1513644312,0.634767,2.223,89.9776,-0.213525,0.342625,0.811865,2.381,0.288102,0.038357,-3.06659,-1.78928,0.325413,-4.6,-4.6,0,12375,49.086,29.723,14589.8
1513744658,0.634767,2.223,90.0031,-0.202593,0.401311,0.804528,2.25831,-0.125259,0.00558503,-3.75511,-1.43326,1.69757,-4.6,-4.6,0,12375,49.086,29.723,14589.8
1513844955,0.634767,2.223,90.0305,-0.195336,0.417874,0.801179,2.10142,-0.566035,-0.00461277,-4.10806,-1.33709,1.75503,-4.6,-4.6,0,12375,49.086,29.723,14589.8
1513945329,0.634767,2.223,90.0577,-0.186758,0.413734,0.801126,1.9266,-0.992558,-0.00932609,-4.02538,-1.16089,1.85266,-4.6,-4.6,0,12375,49.086,29.723,14589.8
1514045691,0.634767,2.223,90.074,-0.179015,0.401363,0.802485,1.74991,-1.4029,-0.0117862,-4.09332,-1.1909,1.34403,-4.6,-4.6,0,12375,49.14,29.119,14309.1
1514146055,0.634767,2.223,90.0831,-0.175962,0.381325,0.805381,1.56777,-1.79742,-0.00530221,-3.7749,-1.02241,1.64714,-4.6,-4.6,0,12375,49.14,29.119,14309.1
1514246449,0.634767,2.223,90.0873,-0.176414,0.359089,0.808443,1.36829,-2.23681,-0.00993619,-3.44359,-1.0372,1.4294,-2.1,-2.4,0,12375,49.14,29.119,14309.1
1514346795,0.634767,2.223,90.083,-0.171224,0.332465,0.814516,1.21168,-2.58894,-0.00292727,-3.32729,-1.02585,1.33216,-2.1,-2.4,0,12375,49.14,29.119,14309.1
1514447155,0.634767,2.223,90.0766,-0.109245,0.258787,0.83635,1.06685,-2.88457,0.024248,-2.71926,-0.63469,0.746571,-2.1,-2.4,0,12375,49.14,29.119,14309.1
1514547527,0.634767,2.223,90.0681,-0.0472679,0.183513,0.84636,0.941308,-3.06063,0.010015,-1.90862,-0.107997,0.0586048,-2.1,-2.4,0,12375,49.14,29.119,14309.1
1514647885,0.634767,2.223,90.0528,-0.0030849,0.118893,0.84839,0.828069,-3.13773,-0.00826913,-1.07334,0.374587,0.396458,-2.1,-2.4,0,12375,49.14,29.119,14309.1
1514748241,0.634767,2.223,90.0305,0.0134231,0.0780836,0.847517,0.717152,-3.15506,-0.0199047,-0.688243,0.66373,-0.0261085,-2.1,-2.4,0,12375,49.14,29.119,14309.1
1514848631,0.634767,2.223,90.0079,0.0099309,0.055796,0.846805,0.627388,-3.14361,-0.0332472,-0.35897,0.661277,0.347155,-2.1,-2.4,0,12375,49.14,29.119,14309.1
1514949073,0.634767,2.223,89.9841,-0.000344747,0.0442773,0.846173,0.556969,-3.11903,-0.0328102,-0.158047,0.602745,-0.126978,-2.1,-2.4,0,12375,49.14,29.119,14309.1
1515049435,0.634767,2.223,89.9722,-0.0163257,0.0446423,0.846314,0.49795,-3.0914,-0.0331539,-0.146896,0.561509,0.326395,-2.1,-2.4,0,12375,48.984,29.119,14263.7
1515149810,0.634767,2.223,89.9681,-0.029366,0.0468762,0.846881,0.450161,-3.08051,-0.0166749,-0.182691,0.376544,0.18675,-2.1,-2.4,0,12375,48.984,29.119,14263.7
1515250194,0.634767,2.223,89.9682,-0.0413545,0.0479683,0.847283,0.410251,-3.07331,-0.0118023,-0.220097,0.248363,0.122845,2.6,-2.4,0,12375,48.984,29.119,14263.7
1515350572,0.634767,2.223,89.9705,-0.0459246,0.0229802,0.848609,0.382145,-3.07219,0.00439344,-0.277572,0.155602,0.437951,2.6,-2.4,0,12375,48.984,29.119,14263.7
1515450936,0.634767,2.223,89.9829,-0.0351673,-0.186324,0.850544,0.383843,-3.03248,0.0579896,0.672891,0.193975,0.444146,2.6,-2.4,0,12375,48.984,29.119,14263.7
1515551379,0.634767,2.223,89.9987,-0.0332101,-0.34379,0.855531,0.550608,-2.78838,0.0109257,2.96282,0.285941,0.296613,2.6,-2.4,0,12375,48.984,29.119,14263.7
1515651784,0.634767,2.223,89.9994,-0.0364714,-0.43396,0.860777,0.806676,-2.45764,-0.0277946,3.89446,0.180578,1.46095,2.6,-2.4,0,12375,48.984,29.119,14263.7
1515752226,0.634767,2.223,89.9949,-0.043222,-0.470577,0.86536,1.12928,-2.04225,-0.0380348,4.4964,0.216421,2.28508,2.6,-2.4,0,12375,48.984,29.119,14263.7
1515852625,0.634767,2.223,89.979,-0.0553457,-0.468631,0.869421,1.47322,-1.61535,-0.0311226,4.619,0.202591,2.42183,2.6,-2.4,0,12375,48.984,29.119,14263.7
1515953067,0.634767,2.223,89.9603,-0.0721161,-0.449588,0.87281,1.81902,-1.21313,-0.0209868,4.41554,0.0363444,2.35997,2.6,-2.4,0,12375,48.984,29.119,14263.7
1516054393,0.634767,2.223,89.9499,-0.0879284,-0.403202,0.873346,2.15877,-0.841217,-0.00336342,4.22216,-0.145878,2.23631,2.6,-2.4,0,12375,48.999,29.592,14499.8
1516154757,0.634768,2.223,89.945,-0.0970049,-0.329928,0.868903,2.44965,-0.536965,0.0138107,3.54662,-0.158543,1.4473,2.6,-2.4,0,12375,48.999,29.592,14499.8
1516255146,0.634768,2.223,89.9428,-0.101237,-0.255167,0.863266,2.68935,-0.30321,0.0280354,2.75242,-0.282971,1.10002,-3.5,3.4,0,12375,48.999,29.592,14499.8
1516355509,0.634768,2.223,89.9482,-0.0792224,-0.165641,0.856308,2.89727,-0.13664,0.0400198,2.19229,-0.421259,1.0304,-3.5,3.4,0,12375,48.999,29.592,14499.8
1516455875,0.634768,2.223,89.9713,0.0802205,0.0622306,0.84892,3.02447,-0.0271143,0.125047,0.962934,-0.0618055,0.602621,-3.5,3.4,0,12375,48.999,29.592,14499.8
1516556291,0.634768,2.223,90.0088,0.219376,0.228529,0.873111,2.79064,-0.00283211,0.12071,-1.85437,2.07898,-0.298478,-3.5,3.4,0,12375,48.999,29.592,14499.8
1516656639,0.634768,2.223,90.0523,0.297612,0.31391,0.897322,2.404,-0.0025543,0.0300761,-2.87876,2.90753,0.875712,-3.5,3.4,0,12375,48.999,29.592,14499.8
1516757006,0.634768,2.223,90.0993,0.343308,0.352292,0.912225,1.90898,-0.0218791,-0.01566,-3.38919,3.33171,1.79782,-3.5,3.4,0,12375,48.999,29.592,14499.8
1516857344,0.634768,2.223,90.1203,0.360291,0.359416,0.917132,1.36282,-0.0374295,-0.0404208,-3.63581,3.74591,1.86164,-3.5,3.4,0,12375,48.999,29.592,14499.8
1516957607,0.634768,2.223,90.1209,0.358535,0.353357,0.915926,0.795313,-0.0556975,-0.0649636,-3.54806,3.73615,2.29113,-3.5,3.4,0,12375,48.999,29.592,14499.8
1517057911,0.634768,2.223,90.1181,0.340008,0.341276,0.911688,0.228589,-0.0773175,-0.0551357,-3.38782,3.52133,2.6272,-3.5,3.4,0,12375,49.138,27.442,13484.4
1517158224,0.634768,2.223,90.109,0.316279,0.326905,0.905722,-0.309823,-0.103132,-0.0446129,-3.13917,3.32902,2.45022,-3.5,3.4,0,12375,49.138,27.442,13484.4
1517258626,0.634768,2.223,90.096,0.294013,0.316243,0.901569,-0.824652,-0.134172,-0.026673,-3.07423,3.15508,2.16474,-1.8,-1,0,12375,49.138,27.442,13484.4
1517358995,0.634768,2.223,90.0767,0.268636,0.305419,0.897005,-1.31223,-0.183148,-0.0201936,-3.00214,2.85969,1.85587,-1.8,-1,0,12375,49.138,27.442,13484.4
1517459363,0.634768,2.223,90.0646,0.079853,0.249727,0.853181,-1.79629,-0.244314,0.0709211,-2.78085,2.55002,2.83824,-1.8,-1,0,12375,49.138,27.442,13484.4
1517559717,0.634768,2.223,90.0673,-0.220536,0.148494,0.822368,-2.00514,-0.387288,0.0805984,-2.0565,-0.0613155,-0.234683,-1.8,-1,0,12375,49.138,27.442,13484.4
1517660073,0.634768,2.223,90.0648,-0.399365,0.0813505,0.832833,-1.89012,-0.643987,-0.000902195,-0.870641,-3.01135,0.150199,-1.8,-1,0,12375,49.138,27.442,13484.4
1517760416,0.634768,2.223,90.0511,-0.434375,0.0474581,0.845711,-1.62695,-0.964344,-0.0874124,-0.388393,-3.83634,1.6807,-1.8,-1,0,12375,49.138,27.442,13484.4
1517860768,0.634768,2.223,90.0281,-0.395335,0.0303953,0.85286,-1.32457,-1.29144,-0.092202,-0.205467,-3.93911,1.9551,-1.8,-1,0,12375,49.138,27.442,13484.4
1517961139,0.634768,2.223,90.0079,-0.318673,0.0234603,0.854264,-1.04776,-1.57189,-0.0624631,-0.0714378,-3.39801,1.65912,-1.8,-1,0,12375,49.138,27.442,13484.4
1518061657,0.634768,2.223,89.9914,-0.240133,0.0219966,0.852783,-0.830684,-1.78506,-0.0346082,0.0155204,-2.64252,1.05425,-1.8,-1,0,12375,49.138,27.442,13484.4
1518162005,0.634768,2.223,89.9725,-0.175242,0.0229685,0.850933,-0.684631,-1.9294,-0.0263554,0.0212931,-1.72632,0.711665,-1.8,-1,0,12375,49.138,27.442,13484.4
1518262291,0.634768,2.223,89.9727,-0.12874,0.0231415,0.849342,-0.579023,-2.03773,-0.0105437,-0.00243896,-1.19737,0.475873,-1.9,3,0,12375,49.138,27.442,13484.4
1518362674,0.634767,2.223,89.9838,-0.0818908,0.0227405,0.846687,-0.50282,-2.11272,0.00370172,-0.0181276,-0.763803,-0.069283,-1.9,3,0,12375,49.138,27.442,13484.4
1518463456,0.634768,2.223,89.9982,0.117353,0.0191681,0.849313,-0.452607,-2.15974,0.0601608,0.0138592,-0.120504,0.651292,-1.9,3,0,12375,49.138,27.442,13484.4
1518565237,0.634768,2.223,90.0154,0.291838,0.0142695,0.848995,-0.592275,-2.02773,0.0415772,0.0662851,2.52624,-0.296887,-1.9,3,0,12375,49.138,27.442,13484.4
1518665545,0.634768,2.223,90.0249,0.38869,0.0146874,0.847198,-0.837958,-1.7959,-0.0131985,0.0345247,3.66004,0.96872,-1.9,3,0,12287,49.116,26.581,13055.5
1518765833,0.634768,2.223,90.035,0.429444,0.0183801,0.8466,-1.15087,-1.48974,-0.0330151,0.126951,4.22508,1.68236,-1.9,3,0,12287,49.116,26.581,13055.5
1518866130,0.634768,2.223,90.0364,0.437118,0.0245604,0.846824,-1.49778,-1.16235,-0.0306332,0.0403246,4.46034,2.14865,-1.9,3,0,12287,49.116,26.581,13055.5
1518966434,0.634767,2.223,90.038,0.428846,0.0324583,0.84863,-1.85138,-0.842479,-0.0188118,-0.0675341,4.41914,1.98488,-1.9,3,0,12287,49.116,26.581,13055.5
1519066729,0.634767,2.223,90.0403,0.380303,0.0366982,0.848477,-2.26539,-0.482607,0.000795644,-0.146757,3.95324,2.03582,-1.9,3,0,12287,49.116,26.581,13055.5
1519166949,0.634767,2.223,90.0461,0.314323,0.0381337,0.847712,-2.55002,-0.228971,0.0224974,-0.0900837,3.42601,1.16063,-1.9,3,0,12287,49.116,26.581,13055.5
1519267265,0.634767,2.223,90.0461,0.246402,0.038914,0.847344,-2.7695,-0.0417649,0.0126226,-0.182854,2.63439,0.304591,3.4,-1.3,0,12287,49.116,26.581,13055.5
1519367504,0.634767,2.223,90.0455,0.181963,0.0301245,0.845413,-2.93755,0.0997162,0.0151468,-0.207952,1.90512,0.649153,3.4,-1.3,0,12287,49.116,26.581,13055.5
1519467852,0.634767,2.223,90.0493,0.00699694,-0.106707,0.84671,-3.058,0.212099,0.0950794,0.216095,1.10203,0.237779,3.4,-1.3,0,12287,49.116,26.581,13055.5
1519568270,0.634767,2.223,90.0602,-0.180586,-0.249386,0.870619,-2.85537,0.31498,0.0418,2.31093,-1.30214,-0.384852,3.4,-1.3,0,12287,48.966,29.052,14225.6
1519668621,0.634767,2.223,90.0526,-0.281371,-0.324733,0.891796,-2.48465,0.40952,-0.0340631,3.06931,-2.25227,1.13828,3.4,-1.3,0,12287,48.966,29.052,14225.6
1519768913,0.634767,2.223,90.0336,-0.326042,-0.357921,0.901668,-2.00275,0.498402,-0.0761114,3.41076,-2.81021,2.23454,3.4,-1.3,0,12287,48.966,29.052,14225.6
1519870037,0.634767,2.223,90.0118,-0.330751,-0.366117,0.901898,-1.46741,0.59199,-0.068646,3.59154,-2.94147,2.71518,3.4,-1.3,0,12287,48.966,29.052,14225.6
1519971178,0.634767,2.223,89.9832,-0.317634,-0.364037,0.898213,-0.937744,0.681264,-0.0617347,3.52146,-2.87583,2.75632,3.4,-1.3,0,12287,48.966,29.052,14225.6
1520071547,0.634767,2.223,89.9619,-0.303064,-0.359502,0.8946,-0.421317,0.776711,-0.0505437,3.53483,-2.74943,2.54838,3.4,-1.3,0,12287,48.966,29.052,14225.6
1520171907,0.634767,2.223,89.9395,-0.286427,-0.350136,0.889867,0.0828232,0.876005,-0.0209178,3.38656,-2.57585,2.51529,3.4,-1.3,0,12287,48.966,29.052,14225.6
1520272329,0.634767,2.223,89.9287,-0.268356,-0.340134,0.885285,0.564814,0.975426,0.00132837,3.38291,-2.47612,2.04355,-3.9,3,0,12287,48.966,29.052,14225.6
1520372696,0.634767,2.223,89.9297,-0.234124,-0.294491,0.876427,1.01265,1.07961,0.027152,3.30927,-2.23445,1.84155,-3.9,3,0,12287,48.966,29.052,14225.6
1520473016,0.634767,2.223,89.9382,-0.0838635,-0.0434953,0.846914,1.38317,1.15537,0.107926,2.20455,-1.67517,1.15011,-3.9,3,0,12287,48.966,29.052,14225.6
1520573400,0.634767,2.223,89.954,0.0949527,0.222864,0.857364,1.34877,1.08956,0.123777,-1.40485,0.347332,-0.596368,-3.9,3,0,12287,48.966,29.052,14225.6
1520673780,0.634767,2.223,89.9775,0.198382,0.354324,0.884038,1.02619,0.968961,0.036394,-3.22883,1.85067,0.738177,-3.9,3,0,12287,48.99,28.752,14085.6
1520774142,0.634767,2.223,90.0085,0.248351,0.415093,0.90208,0.584967,0.809814,0.0144783,-4.05256,2.3332,1.74909,-3.9,3,0,12287,48.99,28.752,14085.6
1520874503,0.634767,2.223,90.047,0.262864,0.43659,0.910199,0.0962504,0.641646,-0.0120157,-4.27953,2.53943,1.97678,-3.9,3,0,12287,48.99,28.752,14085.6
1520974839,0.634767,2.223,90.0906,0.260783,0.440317,0.912043,-0.425691,0.462592,-0.0191117,-4.27018,2.52866,2.57437,-3.9,3,0,12287,48.99,28.752,14085.6
1521075201,0.634767,2.223,90.1062,0.251008,0.431472,0.910088,-0.959088,0.268925,-0.00719886,-4.34711,2.49829,2.46543,-3.9,3,0,12287,48.99,28.752,14085.6
1521175668,0.634767,2.223,90.1088,0.243562,0.414355,0.905647,-1.47063,0.085204,0.000129722,-4.13258,2.36748,2.21778,-3.9,3,0,12287,48.99,28.752,14085.6
1521276197,0.634767,2.223,90.1129,0.239002,0.393373,0.900218,-1.95895,-0.0814503,-0.00872823,-3.79486,2.23857,2.07656,-2,-1.4,0,12287,48.99,28.752,14085.6
1521376614,0.634767,2.223,90.1077,0.208041,0.357316,0.885983,-2.42803,-0.230343,-0.0130882,-3.62764,2.23306,1.86835,-2,-1.4,0,12287,48.99,28.752,14085.6
1521477002,0.634767,2.223,90.0946,0.002574,0.22982,0.829,-2.87635,-0.397787,0.0863134,-3.38768,1.75553,1.73664,-2,-1.4,0,12287,48.99,28.752,14085.6
1521577302,0.634767,2.223,90.0819,-0.266468,0.0679446,0.822983,-2.98087,-0.570118,0.10505,-1.41696,-0.802146,0.627652,-2,-1.4,0,12287,48.99,28.752,14085.6
1521677616,0.634767,2.223,90.0735,-0.412045,-0.0101479,0.84633,-2.76723,-0.787531,0.0205835,0.106412,-3.55649,-0.269055,-2,-1.4,0,12287,48.977,28.788,14099.5
1521777978,0.634767,2.223,90.0528,-0.470249,-0.040617,0.860235,-2.45209,-1.04205,-0.10127,0.40702,-3.9385,1.59236,-2,-1.4,0,12287,48.977,28.788,14099.5
1521878312,0.634767,2.223,90.027,-0.473766,-0.0430843,0.862956,-2.0477,-1.33821,-0.11978,0.599617,-4.34424,2.49869,-2,-1.4,0,12287,48.977,28.788,14099.5
1521978632,0.634767,2.223,90.0039,-0.415162,-0.0336632,0.85959,-1.63458,-1.6339,-0.10184,0.625335,-4.26272,2.47854,-2,-1.4,0,12287,48.977,28.788,14099.5
1522078920,0.634767,2.223,89.9742,-0.342075,-0.0239987,0.855778,-1.29177,-1.87445,-0.0714032,0.534434,-3.59499,1.81926,-2,-1.4,0,12287,48.977,28.788,14099.5
1522179241,0.634767,2.223,89.9424,-0.271781,-0.0141878,0.852735,-1.02232,-2.06356,-0.0475928,0.429206,-2.76094,1.44811,-2,-1.4,0,12287,48.977,28.788,14099.5
1522279640,0.634767,2.223,89.9368,-0.211842,-0.00547368,0.850819,-0.810676,-2.21422,-0.0220211,0.254138,-2.24192,0.693294,-0.1,-2.6,0,12287,48.977,28.788,14099.5
1522380045,0.634767,2.223,89.9461,-0.168636,-0.0133433,0.849178,-0.652846,-2.3157,0.00362365,0.310953,-1.57982,0.579263,-0.1,-2.6,0,12287,48.977,28.788,14099.5
1522480408,0.634767,2.223,89.9479,-0.192003,-0.121381,0.854904,-0.518711,-2.38229,0.034526,0.527335,-1.26073,0.578179,-0.1,-2.6,0,12287,48.977,28.788,14099.5
1522580731,0.634767,2.223,89.9529,-0.23733,-0.227615,0.873762,-0.248732,-2.36795,0.0304134,1.84618,-1.67285,0.770206,-0.1,-2.6,0,12287,48.977,28.788,14099.5
1522681076,0.634767,2.223,89.9685,-0.25929,-0.277375,0.886123,0.128081,-2.29459,0.0195693,2.8356,-2.00411,1.32506,-0.1,-2.6,0,12287,48.986,29.048,14229.5
1522781410,0.634767,2.223,89.9857,-0.246608,-0.27256,0.886521,0.535537,-2.20144,0.0192559,3.04509,-2.12821,1.34193,-0.1,-2.6,0,12287,48.986,29.048,14229.5
