timestamp,lat,log,alt,roll,pitch,yaw,vel_x,vel_y,vel_z,acc_x,acc_y,acc_z,act_vx,act_vy,act_yr,capacity,vol,cur,power
146931672,0.634769,2.223,92.6586,-0.0317896,-0.0251382,0.937166,-0.014191,-0.0569314,0.00329213,0.0984843,0.172286,-0.00923259,4.8,-2.6,0,12275,48.89,23.382,11431.5
147032336,0.634769,2.223,92.6497,-0.0320583,-0.0284866,0.937164,-0.00440917,-0.0581224,0.00759112,0.136908,-0.0401223,-0.108181,4.8,-2.6,0,12275,48.89,23.382,11431.5
147132715,0.634769,2.223,92.6554,-0.0354223,-0.0369837,0.936119,-0.0086158,-0.043353,-0.00795703,0.18779,0.113921,-0.251796,4.8,-2.6,0,12275,48.89,23.382,11431.5
147233070,0.634769,2.223,92.6496,-0.0881797,-0.138002,0.940416,0.0123628,-0.0165736,0.0147449,0.542896,-0.113615,0.34787,4.8,-2.6,0,12275,48.89,23.382,11431.5
147333430,0.634769,2.223,92.6431,-0.161775,-0.258527,0.956706,0.174064,0.0733813,-0.02609,1.85568,-0.771438,0.076074,4.8,-2.6,0,12275,48.89,23.382,11431.5
147433785,0.634769,2.223,92.6354,-0.20316,-0.324634,0.969044,0.448215,0.213159,-0.0530795,2.82723,-1.30612,0.870424,4.8,-2.6,0,12275,48.89,23.382,11431.5
147534130,0.634769,2.223,92.643,-0.230188,-0.363581,0.97852,0.805307,0.382898,-0.0482584,3.36006,-1.70222,1.32338,4.8,-2.6,0,12275,48.89,23.382,11431.5
147634512,0.634769,2.223,92.6613,-0.237479,-0.373037,0.981034,1.18486,0.565648,-0.0427166,3.24801,-1.65644,1.88385,4.8,-2.6,0,12275,48.89,23.382,11431.5
147734816,0.634769,2.223,92.6656,-0.232405,-0.368415,0.980985,1.56166,0.749351,-0.0234903,3.28495,-1.63821,1.77354,4.8,-2.6,0,12275,48.89,23.382,11431.5
147835046,0.634769,2.223,92.6444,-0.22594,-0.360204,0.980689,1.91839,0.925173,-0.0196167,3.2871,-1.6425,1.23048,4.8,-2.6,0,12275,48.89,23.382,11431.5
147935402,0.634769,2.223,92.6418,-0.221441,-0.351767,0.980407,2.27144,1.09762,-0.0124003,3.12089,-1.59179,1.66283,3.1,-1.2,0,12275,48.87,23.591,11528.9
148035778,0.634769,2.223,92.661,-0.200522,-0.32098,0.973635,2.61168,1.26596,0.00533538,3.1789,-1.64878,1.07246,3.1,-1.2,0,12275,48.87,23.591,11528.9
148136181,0.634769,2.223,92.6547,-0.120816,-0.233529,0.950895,2.88853,1.40881,0.0438367,2.28092,-1.01407,1.17617,3.1,-1.2,0,12275,48.87,23.591,11528.9
148236541,0.634769,2.223,92.6536,-0.0475849,-0.147064,0.940436,3.01769,1.50803,0.0432644,1.38809,-0.267377,-0.0170357,3.1,-1.2,0,12275,48.87,23.591,11528.9
148336879,0.634769,2.223,92.6603,-0.00214591,-0.0846512,0.938548,3.04197,1.58219,0.0235694,0.620746,0.425042,0.0776616,3.1,-1.2,0,12275,48.87,23.591,11528.9
148437273,0.634769,2.223,92.6466,0.0123395,-0.0496109,0.939814,3.01755,1.62744,0.0127258,0.11721,0.565555,0.113403,3.1,-1.2,0,12275,48.87,23.591,11528.9
148537632,0.634769,2.223,92.6362,0.00969326,-0.0360678,0.940342,2.95959,1.6488,-0.0116391,-0.140395,0.73688,-0.256423,3.1,-1.2,0,12275,48.87,23.591,11528.9
148638003,0.63477,2.223,92.6196,-0.00111217,-0.0324479,0.939854,2.91143,1.66062,-0.0162291,-0.198993,0.517655,0.225004,3.1,-1.2,0,12275,48.87,23.591,11528.9
148738348,0.63477,2.223,92.6129,-0.00884246,-0.0316968,0.939944,2.86525,1.66747,-0.0188978,-0.16615,0.537891,-0.21401,3.1,-1.2,0,12275,48.87,23.591,11528.9
148838612,0.63477,2.223,92.6225,-0.0139273,-0.0371084,0.939983,2.8211,1.66105,-0.0257161,-0.1983,0.3891,0.0240285,3.1,-1.2,0,12275,48.87,23.591,11528.9
148939034,0.63477,2.223,92.629,-0.0182433,-0.0468894,0.940414,2.78696,1.65437,-0.0182354,-0.156103,0.278011,0.239652,-4.2,4.2,0,12272,48.822,24.777,12096.6
149039383,0.63477,2.223,92.6211,-0.0167594,-0.0385759,0.942336,2.76141,1.66137,-0.0160608,0.00922978,0.286708,0.00485639,-4.2,4.2,0,12272,48.822,24.777,12096.6
149139736,0.63477,2.223,92.6156,0.0892797,0.126012,0.946434,2.72779,1.65219,0.0425488,-0.41219,0.377324,0.362132,-4.2,4.2,0,12272,48.822,24.777,12096.6
149240091,0.63477,2.223,92.6469,0.208888,0.259343,0.96594,2.43604,1.54121,0.038078,-2.6092,1.90422,0.0766258,-4.2,4.2,0,12272,48.822,24.777,12096.6
149340448,0.63477,2.223,92.6935,0.292724,0.344013,0.988909,2.0023,1.41908,-0.0526919,-3.43298,2.81278,1.10473,-4.2,4.2,0,12272,48.822,24.777,12096.6
149440741,0.63477,2.223,92.6958,0.337493,0.387684,1.00541,1.45221,1.26981,-0.0976213,-3.98547,3.31118,2.37753,-4.2,4.2,0,12272,48.822,24.777,12096.6
149541122,0.63477,2.223,92.6796,0.34271,0.403463,1.01226,0.845846,1.11192,-0.122248,-4.1533,3.52474,2.82672,-4.2,4.2,0,12272,48.822,24.777,12096.6
149641417,0.63477,2.223,92.6572,0.318276,0.405567,1.01116,0.233879,0.949677,-0.138309,-4.05995,3.42281,3.26864,-4.2,4.2,0,12272,48.822,24.777,12096.6
149741759,0.63477,2.223,92.6199,0.28664,0.398726,1.00706,-0.37914,0.742245,-0.128108,-4.22095,3.04728,3.54025,-4.2,4.2,0,12272,48.822,24.777,12096.6
149842121,0.63477,2.223,92.5722,0.264536,0.37556,0.997579,-0.954494,0.523302,-0.0831427,-4.13573,2.82078,3.10934,-4.2,4.2,0,12272,48.822,24.777,12096.6
149942532,0.63477,2.223,92.5407,0.256564,0.347859,0.988013,-1.4846,0.324359,-0.0480244,-3.84193,2.62256,2.74536,-2.3,4.9,0,12272,48.747,26.495,12915.5
150042892,0.63477,2.223,92.5054,0.261125,0.312094,0.981077,-1.99166,0.15414,-0.00883326,-3.53927,2.53859,2.58815,-2.3,4.9,0,12272,48.747,26.495,12915.5
150143253,0.63477,2.223,92.5182,0.308849,0.216313,0.977853,-2.45609,0.0451497,0.0312835,-2.86455,2.75059,1.80399,-2.3,4.9,0,12272,48.747,26.495,12915.5
150243622,0.63477,2.223,92.5442,0.347473,0.141542,0.966306,-2.88705,0.0691002,0.0446946,-2.0024,3.44588,0.789567,-2.3,4.9,0,12272,48.747,26.495,12915.5
150343986,0.63477,2.223,92.57,0.374767,0.0910267,0.952778,-3.29529,0.172341,0.0386456,-1.2763,3.51611,1.3501,-2.3,4.9,0,12272,48.747,26.495,12915.5
150444377,0.63477,2.223,92.6039,0.3673,0.0603866,0.940841,-3.68823,0.339674,0.0515701,-0.765582,3.7248,1.3129,-2.3,4.9,0,12272,48.747,26.495,12915.5
150544732,0.634769,2.223,92.6507,0.317055,0.0414793,0.933911,-4.03621,0.520251,0.0631395,-0.464384,3.46683,1.06775,-2.3,4.9,0,12272,48.747,26.495,12915.5
150645087,0.634769,2.223,92.6898,0.262313,0.0328295,0.932054,-4.30755,0.673609,0.0629847,-0.343666,2.84929,0.353558,-2.3,4.9,0,12272,48.747,26.495,12915.5
150745434,0.634769,2.223,92.7328,0.207274,0.0293687,0.931689,-4.5182,0.807015,0.0632566,-0.204804,2.24728,0.153799,-2.3,4.9,0,12272,48.747,26.495,12915.5
150845787,0.634769,2.223,92.7841,0.165736,0.0307202,0.934074,-4.67182,0.910673,0.0394491,-0.184258,1.70056,-0.312244,-2.3,4.9,0,12272,48.747,26.495,12915.5
150946188,0.634769,2.223,92.8102,0.13605,0.0302368,0.93567,-4.79611,0.988584,-0.00152098,-0.223066,1.3458,-0.246461,-1.4,-3.7,0,12272,48.892,23.923,11696.4
151046559,0.634769,2.223,92.842,0.0929226,0.0239081,0.937964,-4.89599,1.0472,-0.0176597,-0.240597,1.02351,-0.248149,-1.4,-3.7,0,12272,48.892,23.923,11696.4
151146904,0.634769,2.223,92.878,-0.132685,-0.0122925,0.938735,-4.95604,1.09716,0.00814938,-0.0906358,0.330608,0.367029,-1.4,-3.7,0,12272,48.892,23.923,11696.4
151247214,0.634769,2.223,92.9082,-0.34207,-0.0496009,0.949096,-4.73773,1.01211,0.00292458,0.455244,-2.78792,-0.363036,-1.4,-3.7,0,12272,48.892,23.923,11696.4
151347493,0.634769,2.223,92.9224,-0.459468,-0.0692827,0.96156,-4.37362,0.86326,-0.113989,0.751827,-4.0171,0.894602,-1.4,-3.7,0,12272,48.892,23.923,11696.4
151447764,0.634769,2.223,92.8967,-0.517474,-0.0767101,0.970063,-3.9018,0.661206,-0.166795,0.810734,-4.59648,2.28589,-1.4,-3.7,0,12272,48.892,23.923,11696.4
151548065,0.634769,2.223,92.8785,-0.534955,-0.0801228,0.97553,-3.37417,0.419614,-0.19914,0.747716,-5.0604,2.66812,-1.4,-3.7,0,12272,48.892,23.923,11696.4
151648341,0.634769,2.223,92.8634,-0.528658,-0.0749296,0.974468,-2.79617,0.174351,-0.191226,0.988273,-5.09683,3.18996,-1.4,-3.7,0,12272,48.892,23.923,11696.4
151748632,0.634769,2.223,92.8337,-0.509708,-0.0604068,0.967916,-2.2436,-0.075882,-0.184921,0.897079,-4.99248,2.96184,-1.4,-3.7,0,12272,48.892,23.923,11696.4
151849951,0.634769,2.223,92.8104,-0.488394,-0.0421909,0.960393,-1.7149,-0.333931,-0.172505,0.700579,-4.59765,3.05274,-1.4,-3.7,0,12272,48.892,23.923,11696.4
151955242,0.634769,2.223,92.7887,-0.461187,-0.0175101,0.950389,-1.1451,-0.638419,-0.147211,0.4491,-4.26516,2.61432,-2.1,1.2,0,12272,48.892,23.923,11696.4
152055592,0.634769,2.223,92.7951,-0.419107,0.00440665,0.943078,-0.721998,-0.901458,-0.12434,0.259452,-4.24871,2.00216,-2.1,1.2,0,12231,48.625,29.717,14449.9
152155958,0.634769,2.223,92.7923,-0.196903,0.0741445,0.943715,-0.345865,-1.15647,-0.0509841,-0.00225967,-3.60949,1.41266,-2.1,1.2,0,12231,48.625,29.717,14449.9
152256417,0.634769,2.223,92.7951,0.118151,0.141545,0.956189,-0.304568,-1.28547,-0.0400275,-1.03179,-0.211257,-0.527851,-2.1,1.2,0,12231,48.625,29.717,14449.9
152356776,0.634769,2.223,92.7996,0.284399,0.163124,0.964077,-0.557066,-1.27281,-0.109983,-1.43225,2.63379,0.180031,-2.1,1.2,0,12231,48.625,29.717,14449.9
152457123,0.634769,2.223,92.7914,0.330393,0.159865,0.961302,-0.926108,-1.20407,-0.126091,-1.4798,3.4467,1.42859,-2.1,1.2,0,12231,48.625,29.717,14449.9
152557473,0.634769,2.223,92.7737,0.300584,0.13993,0.952471,-1.31658,-1.11442,-0.103781,-1.43858,3.53517,1.57342,-2.1,1.2,0,12231,48.625,29.717,14449.9
152657789,0.634769,2.223,92.7528,0.23852,0.115066,0.944553,-1.65339,-1.03358,-0.0891741,-1.17085,2.95757,1.32793,-2.1,1.2,0,12231,48.625,29.717,14449.9
152758047,0.634769,2.223,92.7203,0.165143,0.0908654,0.938632,-1.91152,-0.971327,-0.0716729,-0.853368,2.26681,0.673574,-2.1,1.2,0,12231,48.625,29.717,14449.9
152858400,0.634769,2.223,92.6979,0.10456,0.0721888,0.936214,-2.09232,-0.931226,-0.0648852,-0.583817,1.54448,0.214316,-2.1,1.2,0,12231,48.625,29.717,14449.9
152958954,0.634769,2.223,92.6969,0.0617982,0.0573593,0.935716,-2.22583,-0.911258,-0.0565817,-0.456438,0.993225,0.00726933,1,-2.8,0,12231,48.625,29.717,14449.9
153059290,0.634769,2.223,92.702,0.0109811,0.0159303,0.932415,-2.32839,-0.900569,-0.0467973,-0.388765,0.68289,0.485339,1,-2.8,0,12184,48.644,27.904,13573.6
153159682,0.634768,2.223,92.7272,-0.143935,-0.123255,0.942302,-2.34028,-0.865628,0.011942,0.585991,-0.140256,0.554683,1,-2.8,0,12184,48.644,27.904,13573.6
153260071,0.634768,2.223,92.7467,-0.266957,-0.21487,0.966116,-2.11623,-0.817358,-0.00569462,1.92734,-1.88257,0.201087,1,-2.8,0,12184,48.644,27.904,13573.6
153360421,0.634768,2.223,92.7724,-0.329628,-0.261353,0.984163,-1.79169,-0.763428,-0.0590887,2.48316,-2.49596,1.08619,1,-2.8,0,12184,48.644,27.904,13573.6
153460716,0.634768,2.223,92.7753,-0.349868,-0.276274,0.992372,-1.38574,-0.698864,-0.0688217,2.84836,-2.91101,1.51717,1,-2.8,0,12184,48.644,27.904,13573.6
153561076,0.634768,2.223,92.7751,-0.349506,-0.271144,0.992615,-0.959739,-0.630583,-0.0624796,2.87934,-2.93224,1.67768,1,-2.8,0,12184,48.644,27.904,13573.6
153661437,0.634768,2.223,92.8137,-0.342712,-0.258298,0.990806,-0.552406,-0.567249,-0.052116,2.72792,-2.79038,1.60529,1,-2.8,0,12184,48.644,27.904,13573.6
153761830,0.634768,2.223,92.8442,-0.341205,-0.244964,0.987852,-0.171273,-0.506884,-0.0557945,2.66312,-2.62959,1.21516,1,-2.8,0,12184,48.644,27.904,13573.6
153862198,0.634768,2.223,92.8536,-0.34081,-0.228756,0.983641,0.20152,-0.453286,-0.0609593,2.48504,-2.53321,1.23711,1,-2.8,0,12184,48.644,27.904,13573.6
153962611,0.634768,2.223,92.867,-0.34328,-0.209793,0.979962,0.56774,-0.425289,-0.0697315,2.23884,-2.6226,1.07918,-3.2,1.2,0,12184,48.644,27.904,13573.6
154062962,0.634768,2.223,92.8659,-0.333036,-0.180312,0.972777,0.932695,-0.424133,-0.0809731,1.96808,-2.65417,1.28821,-3.2,1.2,0,12184,48.392,29.908,14473.1
154163313,0.634768,2.223,92.8422,-0.166063,-0.0134228,0.946241,1.28617,-0.442697,-0.0522164,1.56957,-2.46849,1.38494,-3.2,1.2,0,12184,48.392,29.908,14473.1
154263685,0.634768,2.223,92.8221,0.0870383,0.198278,0.950243,1.30488,-0.524116,-0.0278262,-0.993213,-0.0284848,-0.416092,-3.2,1.2,0,12184,48.392,29.908,14473.1
154364087,0.634768,2.223,92.7854,0.240362,0.314109,0.97382,0.992763,-0.607553,-0.106297,-2.58715,2.26846,0.585582,-3.2,1.2,0,12184,48.392,29.908,14473.1
154464427,0.634768,2.223,92.7326,0.315544,0.369394,0.989273,0.520519,-0.714488,-0.150821,-3.30259,3.05435,2.14031,-3.2,1.2,0,12184,48.392,29.908,14473.1
154565618,0.634768,2.223,92.7247,0.335216,0.388871,0.992359,-0.0476342,-0.819844,-0.164666,-3.65805,3.4885,2.83932,-3.2,1.2,0,12184,48.392,29.908,14473.1
154670321,0.634768,2.223,92.7303,0.317788,0.393304,0.987662,-0.647744,-0.928598,-0.15619,-3.63727,3.53541,3.19952,-3.2,1.2,0,12184,48.392,29.908,14473.1
154770695,0.634768,2.223,92.742,0.282535,0.382235,0.97736,-1.22896,-1.05994,-0.131279,-3.66778,3.2872,3.10182,-3.2,1.2,0,12184,48.392,29.908,14473.1
154871103,0.634768,2.223,92.7806,0.215538,0.329698,0.958765,-1.74874,-1.1923,-0.113479,-3.42434,2.88308,2.3543,-3.2,1.2,0,12184,48.392,29.908,14473.1
154971473,0.634768,2.223,92.7753,0.148966,0.27207,0.946198,-2.16643,-1.30763,-0.0870991,-2.91255,2.2961,1.33976,1.4,-0.3,0,12184,48.392,29.908,14473.1
155071845,0.634768,2.223,92.77,0.0907927,0.201216,0.937054,-2.48904,-1.40884,-0.0790682,-2.21163,1.66889,1.07091,1.4,-0.3,0,12184,48.497,28.278,13714
155172195,0.634768,2.223,92.7739,-0.000796748,-0.0415807,0.931353,-2.72088,-1.47804,-0.0118372,-1.38325,1.16741,1.01237,1.4,-0.3,0,12184,48.497,28.278,13714
155272539,0.634768,2.223,92.7743,-0.0965033,-0.272959,0.950247,-2.66978,-1.36743,0.0159509,1.85097,-0.10227,-0.0282238,1.4,-0.3,0,12184,48.497,28.278,13714
155372913,0.634768,2.223,92.7614,-0.149528,-0.386932,0.970341,-2.4419,-1.15004,-0.0702036,3.47457,-0.844869,0.501621,1.4,-0.3,0,12184,48.497,28.278,13714
155473266,0.634768,2.223,92.7779,-0.174184,-0.440215,0.983709,-2.11728,-0.870883,-0.100898,4.07682,-1.0387,1.89491,1.4,-0.3,0,12184,48.497,28.278,13714
155573602,0.634768,2.223,92.8464,-0.177414,-0.454931,0.989171,-1.72972,-0.541507,-0.103709,4.52343,-1.13219,2.18186,1.4,-0.3,0,12184,48.497,28.278,13714
155673959,0.634768,2.223,92.8783,-0.175489,-0.441494,0.988416,-1.35175,-0.216746,-0.105289,4.45788,-1.10835,1.90978,1.4,-0.3,0,12184,48.497,28.278,13714
155774272,0.634768,2.223,92.8782,-0.181829,-0.410811,0.984662,-0.977459,0.108477,-0.0968321,4.38978,-1.07504,1.77383,1.4,-0.3,0,12184,48.497,28.278,13714
155874596,0.634768,2.223,92.865,-0.178758,-0.35429,0.976126,-0.545487,0.444482,-0.0846254,3.75989,-1.12613,1.75038,1.4,-0.3,0,12184,48.497,28.278,13714
155976666,0.634768,2.223,92.8361,-0.169537,-0.286447,0.965979,-0.241654,0.652403,-0.0948102,3.07727,-1.08498,1.03506,-3.6,-4.5,0,12184,48.497,28.278,13714
156079042,0.634768,2.223,92.7927,-0.165623,-0.189057,0.952878,0.0206211,0.812465,-0.0904703,2.35957,-0.929397,1.5844,-3.6,-4.5,0,12184,48.536,28.246,13709.5
156179367,0.634768,2.223,92.7461,-0.213165,0.0341111,0.93807,0.238302,0.874387,0.00679659,1.10181,-1.27125,0.0291795,-3.6,-4.5,0,12184,48.536,28.246,13709.5
156279670,0.634768,2.223,92.6959,-0.271738,0.207722,0.910708,0.316549,0.685052,-0.0756757,-1.56342,-1.92863,-0.278819,-3.6,-4.5,0,12184,48.536,28.246,13709.5
156380076,0.634768,2.223,92.6439,-0.314129,0.298387,0.887795,0.365713,0.338328,-0.121701,-2.51565,-2.07108,1.76932,-3.6,-4.5,0,12184,48.536,28.246,13709.5
156480434,0.634768,2.223,92.5965,-0.334425,0.339628,0.874348,0.400073,-0.126981,-0.120563,-3.16732,-2.4029,2.67334,-3.6,-4.5,0,12184,48.536,28.246,13709.5
156580794,0.634768,2.223,92.5606,-0.341278,0.344703,0.871014,0.420137,-0.632629,-0.10632,-3.51592,-2.5568,2.60996,-3.6,-4.5,0,12184,48.536,28.246,13709.5
156681143,0.634768,2.223,92.5434,-0.348234,0.330395,0.874086,0.448773,-1.15028,-0.0795374,-3.40506,-2.70219,2.70575,-3.6,-4.5,0,12184,48.536,28.246,13709.5
156781479,0.634768,2.223,92.548,-0.352334,0.309967,0.879535,0.48636,-1.65638,-0.0421535,-3.30466,-2.70101,2.52649,-3.6,-4.5,0,12184,48.536,28.246,13709.5
156881824,0.634768,2.223,92.566,-0.352816,0.290336,0.885415,0.534817,-2.12924,-0.0144233,-2.97515,-2.5387,2.25902,-3.6,-4.5,0,12184,48.536,28.246,13709.5
156986083,0.634768,2.223,92.5932,-0.351798,0.272017,0.89045,0.600448,-2.58014,0.012514,-2.67545,-2.51494,2.06984,1.9,0.1,0,12184,48.536,28.246,13709.5
157086449,0.634768,2.223,92.6216,-0.340433,0.245394,0.897321,0.682396,-2.99882,0.0420619,-2.43861,-2.71885,1.35945,1.9,0.1,0,12143,48.437,28.906,14001.2
157186807,0.634768,2.223,92.6437,-0.196792,0.0755766,0.926388,0.772708,-3.39602,0.104886,-2.00003,-2.50043,1.52671,1.9,0.1,0,12143,48.437,28.906,14001.2
157287152,0.634768,2.223,92.69,0.0256291,-0.172951,0.930286,0.845095,-3.46257,0.175738,0.519766,-0.502762,0.0956486,1.9,0.1,0,12143,48.437,28.906,14001.2
157387448,0.634768,2.223,92.6985,0.17415,-0.321646,0.905447,0.85555,-3.19256,0.160343,2.8035,1.91647,-0.206944,1.9,0.1,0,12143,48.437,28.906,14001.2
157487748,0.634768,2.223,92.726,0.239828,-0.379526,0.890805,0.838402,-2.80214,0.00974842,3.57476,2.7217,0.320417,1.9,0.1,0,12143,48.437,28.906,14001.2
157588125,0.634768,2.223,92.7392,0.26769,-0.394359,0.887666,0.822702,-2.32633,-0.0479831,3.64682,2.78807,1.88997,1.9,0.1,0,12143,48.437,28.906,14001.2
157688493,0.634768,2.223,92.7032,0.272259,-0.387094,0.892324,0.79065,-1.81326,-0.0907186,3.75294,3.10944,1.76376,1.9,0.1,0,12143,48.437,28.906,14001.2
157788808,0.634768,2.223,92.6466,0.266311,-0.378177,0.897181,0.748209,-1.30218,-0.120009,3.62916,3.05827,1.95916,1.9,0.1,0,12143,48.437,28.906,14001.2
157889179,0.634768,2.223,92.6178,0.249922,-0.382587,0.899688,0.708505,-0.775737,-0.0992117,3.52642,2.9144,2.46153,1.9,0.1,0,12143,48.437,28.906,14001.2
157989588,0.634768,2.223,92.6281,0.215091,-0.367195,0.908095,0.68265,-0.263442,-0.109237,3.50179,2.77867,2.33869,-3.9,4.2,0,12143,48.437,28.906,14001.2
158089962,0.634768,2.223,92.6234,0.163199,-0.306325,0.924888,0.67683,0.225476,-0.0673181,3.40946,2.50006,1.63236,-3.9,4.2,0,12143,48.437,28.906,14001.2
158190347,0.634768,2.223,92.6387,0.177171,-0.080144,0.933507,0.670496,0.628038,0.0468835,2.47057,1.89983,2.43934,-3.9,4.2,0,12143,48.455,29.006,14054.9
158290680,0.634768,2.223,92.6506,0.224105,0.177641,0.956064,0.458974,0.777882,0.0796276,-0.605399,2.40131,0.343089,-3.9,4.2,0,12143,48.455,29.006,14054.9
158391042,0.634768,2.223,92.6451,0.255224,0.313352,0.983324,0.0897664,0.739683,-0.0201247,-2.7361,2.59492,0.609684,-3.9,4.2,0,12143,48.455,29.006,14054.9
158491395,0.634768,2.223,92.6268,0.275177,0.374502,0.999806,-0.372452,0.633227,-0.0723393,-3.45675,2.71435,1.93876,-3.9,4.2,0,12143,48.455,29.006,14054.9
158591739,0.634768,2.223,92.6074,0.284938,0.390537,1.00706,-0.890521,0.481323,-0.0900224,-3.93241,2.84448,2.3951,-3.9,4.2,0,12143,48.455,29.006,14054.9
158692092,0.634768,2.223,92.6091,0.287291,0.383668,1.00653,-1.42257,0.329792,-0.0843009,-3.78707,2.81767,2.70709,-3.9,4.2,0,12143,48.455,29.006,14054.9
158792451,0.634768,2.223,92.5861,0.285126,0.367885,1.00339,-1.95074,0.184017,-0.0567802,-3.68199,2.80268,2.68303,-3.9,4.2,0,12143,48.455,29.006,14054.9
158892818,0.634768,2.223,92.5814,0.28374,0.352749,1.0006,-2.45723,0.0494643,-0.0381247,-3.4791,2.79911,2.52777,-3.9,4.2,0,12143,48.455,29.006,14054.9
158993241,0.634768,2.223,92.5639,0.278844,0.337669,0.996975,-2.93832,-0.078292,-0.0227919,-3.26054,2.73038,2.33277,2.7,3.4,0,12143,48.455,29.006,14054.9
159093590,0.634768,2.223,92.5609,0.267609,0.315665,0.990678,-3.49201,-0.220409,-0.0160654,-3.23508,2.71031,1.7856,2.7,3.4,0,12143,48.455,29.006,14054.9
159193889,0.634768,2.223,92.5897,0.205721,0.132237,0.970712,-3.91138,-0.302542,0.0658079,-2.39101,2.45398,1.83799,2.7,3.4,0,12143,48.443,30.795,14918
159294230,0.634768,2.223,92.6158,0.0999073,-0.167563,0.947688,-4.04419,-0.194122,0.12055,0.769166,1.46842,-0.493597,2.7,3.4,0,12143,48.443,30.795,14918
159394592,0.634768,2.223,92.6521,0.0309404,-0.353414,0.938871,-3.92168,0.0598143,0.0451001,3.09946,0.383324,0.220616,2.7,3.4,0,12143,48.443,30.795,14918
159494947,0.634768,2.223,92.6737,-0.000430013,-0.451734,0.934706,-3.67633,0.40744,0.00306922,4.19062,0.000928958,1.54683,2.7,3.4,0,12143,48.443,30.795,14918
159595280,0.634768,2.223,92.7028,-0.0117021,-0.489712,0.929435,-3.36588,0.812259,-0.00574325,4.66628,-0.0610875,2.14949,2.7,3.4,0,12143,48.443,30.795,14918
159695650,0.634768,2.223,92.7431,-0.0105373,-0.494285,0.924182,-3.02186,1.22753,0.0137965,4.89245,-0.199206,2.09017,2.7,3.4,0,12143,48.443,30.795,14918
159795998,0.634768,2.223,92.7526,0.000787975,-0.481284,0.919046,-2.68556,1.64136,0.00148046,4.81603,-0.144566,2.02353,2.7,3.4,0,12143,48.443,30.795,14918
159896373,0.634767,2.223,92.7646,0.0180144,-0.468476,0.915087,-2.3717,2.05156,-0.0118021,4.69814,0.0368769,1.89713,2.7,3.4,0,12143,48.443,30.795,14918
159996745,0.634767,2.223,92.7732,0.0373497,-0.447837,0.911518,-2.07162,2.45914,-0.0216619,4.48379,0.216114,1.9238,1.3,1.1,0,12143,48.443,30.795,14918
160097110,0.634767,2.223,92.7794,0.0375071,-0.391183,0.912477,-1.85985,2.77711,-0.0360703,4.21009,0.375352,1.48742,1.3,1.1,0,12143,48.443,30.795,14918
160197469,0.634767,2.223,92.7664,-0.128955,-0.239239,0.936666,-1.55276,3.18333,0.0706149,3.32776,-0.0919481,2.20039,1.3,1.1,0,12143,48.399,27.765,13438
160297818,0.634767,2.223,92.7716,-0.290792,-0.0596123,0.933005,-1.24927,3.19131,0.0927326,1.37659,-2.60662,-0.493133,1.3,1.1,0,12143,48.399,27.765,13438
160398176,0.634767,2.223,92.7303,-0.337699,0.0400443,0.919843,-0.990564,3.01235,-0.0709667,-0.158631,-3.15087,0.243618,1.3,1.1,0,12143,48.399,27.765,13438
160498540,0.634767,2.223,92.6976,-0.308959,0.082167,0.916477,-0.752333,2.75952,-0.106891,-0.871735,-3.1567,0.727711,1.3,1.1,0,12143,48.399,27.765,13438
160598892,0.634767,2.223,92.6915,-0.248178,0.0864878,0.920785,-0.556866,2.50577,-0.138532,-0.978337,-2.75896,0.716846,1.3,1.1,0,12143,48.399,27.765,13438
160699242,0.634767,2.223,92.6896,-0.176423,0.0709812,0.926563,-0.422924,2.28184,-0.131126,-1.02652,-1.99019,0.692032,1.3,1.1,0,12143,48.399,27.765,13438
160799726,0.634767,2.223,92.6592,-0.11271,0.0459835,0.93169,-0.329351,2.12487,-0.113915,-0.684087,-1.29216,0.993225,1.3,1.1,0,12143,48.399,27.765,13438
160900144,0.634767,2.223,92.659,-0.079221,0.0255289,0.935628,-0.277722,2.01999,-0.0748748,-0.519358,-0.758969,0.36739,1.3,1.1,0,12143,48.399,27.765,13438
161000610,0.634767,2.223,92.6399,-0.0597237,0.00699798,0.938356,-0.224567,1.93274,-0.0492771,-0.338945,-0.658939,0.277482,4.1,-0.1,0,12143,48.399,27.765,13438
161101023,0.634767,2.223,92.5975,-0.0518173,-0.0291261,0.938363,-0.188401,1.87438,-0.0361816,-0.141228,-0.356192,0.0273442,4.1,-0.1,0,12143,48.399,27.765,13438
161201437,0.634767,2.223,92.5659,-0.0956259,-0.167552,0.94666,-0.12707,1.8649,-0.000734776,0.765419,-0.437635,0.148964,4.1,-0.1,0,12143,48.282,31.851,15378.3
161302928,0.634767,2.223,92.5429,-0.13866,-0.281336,0.960084,0.0670948,1.93127,-0.0283458,1.79153,-1.0009,0.71328,4.1,-0.1,0,12143,48.282,31.851,15378.3
161403288,0.634767,2.223,92.5057,-0.167146,-0.351312,0.969772,0.35473,2.07188,-0.0184927,2.78845,-1.23862,1.66306,4.1,-0.1,0,12143,48.282,31.851,15378.3
161503650,0.634767,2.223,92.5028,-0.17858,-0.380659,0.973859,0.686384,2.24591,-0.00415471,3.17608,-1.32147,1.78785,4.1,-0.1,0,12143,48.282,31.851,15378.3
161604081,0.634767,2.223,92.4961,-0.174857,-0.374676,0.971288,1.04548,2.44385,0.0165867,3.54441,-1.50853,1.70779,4.1,-0.1,0,12143,48.282,31.851,15378.3
161704435,0.634767,2.223,92.5123,-0.150678,-0.333137,0.963291,1.37109,2.627,0.0475336,3.16866,-1.28729,1.57255,4.1,-0.1,0,12143,48.282,31.851,15378.3
161804783,0.634768,2.223,92.5285,-0.124922,-0.285892,0.955417,1.62783,2.77112,0.0747363,2.55842,-1.10296,0.970882,4.1,-0.1,0,12143,48.282,31.851,15378.3
161905131,0.634768,2.223,92.526,-0.100631,-0.244134,0.949794,1.82929,2.88513,0.0784046,2.09855,-0.840551,0.634867,4.1,-0.1,0,12143,48.282,31.851,15378.3
162005486,0.634768,2.223,92.514,-0.0787401,-0.204393,0.94581,1.98397,2.97637,0.0681208,1.70408,-0.642855,0.214899,-1.1,3.8,0,12143,48.282,31.851,15378.3
162105840,0.634768,2.223,92.5256,-0.0466314,-0.13543,0.941607,2.1091,3.05734,0.0796693,1.38752,-0.487944,0.354718,-1.1,3.8,0,12143,48.282,31.851,15378.3
162206197,0.634768,2.223,92.5415,0.0908695,0.0977846,0.938287,2.16095,3.08888,0.138003,0.246404,-0.0354728,0.404919,-1.1,3.8,0,12143,48.386,29.46,14254.5
162306592,0.634768,2.223,92.5612,0.218609,0.267046,0.966114,1.89307,2.99463,0.14027,-2.55532,1.79802,-0.0786613,-1.1,3.8,0,12143,48.386,29.46,14254.5
162406950,0.634768,2.223,92.5535,0.292139,0.347981,0.990941,1.47348,2.86491,0.0479191,-3.44647,2.61257,1.24336,-1.1,3.8,0,12143,48.386,29.46,14254.5
162507301,0.634768,2.223,92.5385,0.322287,0.38815,1.00681,0.937698,2.69061,0.0101888,-3.97612,2.88214,2.60731,-1.1,3.8,0,12143,48.386,29.46,14254.5
162607664,0.634768,2.223,92.5602,0.3231,0.39668,1.01238,0.353899,2.49153,0.0103934,-4.30185,3.06579,2.71192,-1.1,3.8,0,12143,48.386,29.46,14254.5
162708051,0.634768,2.223,92.5794,0.315247,0.388286,1.01073,-0.214585,2.29705,-0.0128568,-4.06565,2.86893,2.80556,-1.1,3.8,0,12143,48.386,29.46,14254.5
162808390,0.634768,2.223,92.5907,0.309119,0.372204,1.00647,-0.765428,2.12089,-0.025222,-3.89157,2.90649,2.45621,-1.1,3.8,0,12143,48.386,29.46,14254.5
162908752,0.634768,2.223,92.6057,0.306244,0.350871,1.00072,-1.30274,1.95672,-0.0455066,-3.67628,2.81782,2.3778,-1.1,3.8,0,12143,48.386,29.46,14254.5
163010121,0.634768,2.223,92.6175,0.287589,0.31568,0.990512,-1.82312,1.81602,-0.0490982,-3.56818,2.89683,1.92511,2.4,3.6,0,12143,48.386,29.46,14254.5
163113388,0.634768,2.223,92.6328,0.239213,0.239957,0.971751,-2.29236,1.70539,-0.0283152,-2.96059,2.56932,1.50187,2.4,3.6,0,12143,48.386,29.46,14254.5
163213764,0.634768,2.223,92.6515,0.170984,-0.0109173,0.948977,-2.65813,1.63859,0.0634284,-1.8978,2.05565,1.07853,2.4,3.6,0,12143,48.386,29.46,14254.5
163314134,0.634767,2.223,92.6864,0.095601,-0.277524,0.932849,-2.74125,1.78745,0.0479473,1.71266,1.29049,-1.22038,2.4,3.6,0,12143,48.407,27.377,13252.4
163414503,0.634767,2.223,92.6821,0.0586003,-0.423979,0.925592,-2.63191,2.08874,-0.0364309,3.43423,0.601948,0.742222,2.4,3.6,0,12143,48.407,27.377,13252.4
163514878,0.634767,2.223,92.6939,0.0381726,-0.477954,0.920235,-2.40369,2.49014,-0.0513617,4.43546,0.290506,2.05337,2.4,3.6,0,12143,48.407,27.377,13252.4
163615185,0.634767,2.223,92.7402,0.0256783,-0.43955,0.918933,-2.12146,2.92281,-0.0284549,4.57516,0.146844,2.33313,2.4,3.6,0,12143,48.407,27.377,13252.4
163716326,0.634767,2.223,92.7645,0.0208584,-0.359247,0.919494,-1.83822,3.34172,-0.0173745,3.84053,0.101438,0.990017,2.4,3.6,0,12143,48.407,27.377,13252.4
163817842,0.634767,2.223,92.7572,0.0211655,-0.270367,0.922814,-1.66142,3.6021,-0.0374331,3.01311,-0.0220189,0.324985,2.4,3.6,0,12143,48.407,27.377,13252.4
163918180,0.634767,2.223,92.7484,0.0200748,-0.199586,0.925786,-1.53248,3.79718,-0.0352318,2.08467,0.00782792,0.483837,2.4,3.6,0,12143,48.407,27.377,13252.4
164018586,0.634767,2.223,92.7533,0.0241713,-0.13941,0.928727,-1.43376,3.93589,-0.0318424,1.45233,-0.0280539,0.031289,4.2,3.2,0,12143,48.407,27.377,13252.4
164118914,0.634767,2.223,92.7706,0.0196046,-0.117396,0.929272,-1.3838,4.02589,-0.0375202,0.65989,0.0888683,0.486059,4.2,3.2,0,12143,48.407,27.377,13252.4
164219286,0.634767,2.223,92.7539,-0.00810128,-0.206699,0.93638,-1.30694,4.1181,-0.0265383,1.19963,-0.146563,0.0015519,4.2,3.2,0,12143,48.407,27.377,13252.4
164319655,0.634767,2.223,92.7522,-0.0298949,-0.280991,0.940705,-1.14335,4.28104,-0.0718189,2.15375,-0.423001,0.369849,4.2,3.2,0,12143,48.341,28.791,13917.9
164419987,0.634767,2.223,92.7389,-0.0355758,-0.312819,0.94062,-0.936619,4.47629,-0.111918,2.42995,-0.461601,1.06435,4.2,3.2,0,12143,48.341,28.791,13917.9
164520374,0.634767,2.223,92.7253,-0.0320704,-0.300099,0.939132,-0.703236,4.69074,-0.0766503,2.63822,-0.61563,1.37059,4.2,3.2,0,12143,48.341,28.791,13917.9
164620721,0.634767,2.223,92.7278,-0.0215512,-0.263296,0.936501,-0.499547,4.87161,-0.0727415,2.35685,-0.519348,0.645149,4.2,3.2,0,12143,48.341,28.791,13917.9
164721073,0.634767,2.223,92.7124,-0.00890985,-0.221633,0.935186,-0.339007,5.02492,-0.0562925,1.96213,-0.340217,0.460885,4.2,3.2,0,12143,48.341,28.791,13917.9
164821484,0.634767,2.223,92.7114,0.00616713,-0.179163,0.934939,-0.220454,5.15409,-0.0359854,1.55741,-0.168388,0.576116,4.2,3.2,0,12143,48.341,28.791,13917.9
164921840,0.634767,2.223,92.7182,0.0143293,-0.144575,0.93676,-0.128953,5.24421,-0.0305937,1.16109,-0.136375,0.247285,4.2,3.2,0,12143,48.341,28.791,13917.9
165022236,0.634767,2.223,92.7441,0.0228023,-0.119329,0.937393,-0.0811344,5.31705,-0.0238718,0.822562,0.0629748,0.167888,2.7,-3.2,0,12143,48.341,28.791,13917.9
165123101,0.634767,2.223,92.7641,-0.00526029,-0.093598,0.941744,-0.0575269,5.36812,-0.0343637,0.530529,0.159613,0.276688,2.7,-3.2,0,12143,48.341,28.791,13917.9
165223434,0.634767,2.223,92.7777,-0.184047,-0.0172088,0.94537,0.00420985,5.36365,0.00780744,0.179801,-0.838356,0.336705,2.7,-3.2,0,12143,48.341,28.791,13917.9
165323803,0.634767,2.223,92.8201,-0.332882,0.0458568,0.933477,0.181246,5.15214,0.00945579,-0.737124,-2.82486,0.137625,2.7,-3.2,0,12143,48.364,28.791,13924.5
165424213,0.634767,2.223,92.8155,-0.42393,0.0773992,0.919478,0.415468,4.83375,-0.0482714,-1.15007,-3.76528,1.11107,2.7,-3.2,0,12143,48.364,28.791,13924.5
165524558,0.634767,2.223,92.7681,-0.467674,0.0937326,0.908798,0.701675,4.43047,-0.0718657,-1.35422,-4.34037,1.97587,2.7,-3.2,0,12143,48.364,28.791,13924.5
165624942,0.634767,2.223,92.7317,-0.474408,0.0986656,0.90288,0.998723,3.99519,-0.0828825,-1.44982,-4.36455,2.44564,2.7,-3.2,0,12143,48.364,28.791,13924.5
165725315,0.634767,2.223,92.7023,-0.455565,0.0929823,0.901843,1.29198,3.55708,-0.0856502,-1.4052,-4.29563,2.3413,2.7,-3.2,0,12143,48.364,28.791,13924.5
165825669,0.634767,2.223,92.678,-0.433362,0.0832951,0.904841,1.55958,3.1384,-0.074736,-1.42003,-4.01658,2.30187,2.7,-3.2,0,12143,48.364,28.791,13924.5
165926005,0.634767,2.223,92.6883,-0.422353,0.0684432,0.910302,1.82339,2.7425,-0.0672331,-1.29101,-4.00052,1.88162,2.7,-3.2,0,12143,48.364,28.791,13924.5
166026394,0.634767,2.223,92.7031,-0.414481,0.0503133,0.916422,2.07339,2.364,-0.0640133,-1.28142,-3.97735,1.46343,-0.4,2.9,0,12143,48.364,28.791,13924.5
166126729,0.634767,2.223,92.702,-0.393234,0.0363939,0.921752,2.32902,2.00635,-0.0587633,-0.996502,-3.64046,1.72881,-0.4,2.9,0,12143,48.364,28.791,13924.5
166227031,0.634767,2.223,92.6887,-0.224591,0.117533,0.921504,2.61628,1.64463,0.0811716,-0.789886,-3.51805,3.11555,-0.4,2.9,0,12143,48.364,28.791,13924.5
166327365,0.634767,2.223,92.7423,0.0896005,0.212172,0.947874,2.61573,1.35885,0.139822,-2.24344,-1.04482,-0.485298,-0.4,2.9,0,12140,48.393,27.752,13430
166427686,0.634767,2.223,92.7774,0.321792,0.239881,0.976555,2.30347,1.24957,-0.00719037,-2.73749,2.47335,-0.777885,-0.4,2.9,0,12140,48.393,27.752,13430
166527918,0.634767,2.223,92.773,0.43614,0.240585,0.989114,1.81421,1.23805,-0.142432,-2.58963,3.86478,1.65494,-0.4,2.9,0,12140,48.393,27.752,13430
166628273,0.634767,2.223,92.7512,0.478428,0.236713,0.991976,1.19699,1.28182,-0.169179,-2.71108,4.6183,2.76609,-0.4,2.9,0,12140,48.393,27.752,13430
166728642,0.634767,2.223,92.7582,0.470768,0.236992,0.993288,0.543378,1.34192,-0.18147,-2.69803,4.6324,3.20763,-0.4,2.9,0,12140,48.393,27.752,13430
166828998,0.634767,2.223,92.7501,0.442293,0.236708,0.99165,-0.102599,1.39085,-0.158739,-2.69261,4.39738,3.28817,-0.4,2.9,0,12140,48.393,27.752,13430
166929358,0.634767,2.223,92.7607,0.387731,0.214209,0.979768,-0.710987,1.43408,-0.141766,-2.66371,4.2712,2.57363,-0.4,2.9,0,12140,48.393,27.752,13430
167032610,0.634767,2.223,92.7616,0.308338,0.172512,0.964354,-1.23258,1.46792,-0.103592,-2.2392,3.48872,2.07455,-0.2,2.6,0,12140,48.393,27.752,13430
167138253,0.634767,2.223,92.7613,0.212898,0.112186,0.948539,-1.70383,1.50377,-0.076535,-1.68319,2.63811,1.15843,-0.2,2.6,0,12140,48.393,27.752,13430
167238624,0.634767,2.223,92.7748,0.113742,0.049946,0.939756,-1.94614,1.52923,-0.0463165,-0.902877,1.43446,0.044346,-0.2,2.6,0,12140,48.393,27.752,13430
167338955,0.634767,2.223,92.802,0.0584779,0.0118686,0.937743,-2.07919,1.55547,-0.0572357,-0.36076,0.744224,-0.388855,-0.2,2.6,0,12100,48.411,27.752,13435
167439279,0.634767,2.223,92.8133,0.0231816,-0.00749326,0.938141,-2.1584,1.57891,-0.0544573,-0.146181,0.277418,-0.431393,-0.2,2.6,0,12100,48.411,27.752,13435
167540475,0.634767,2.223,92.819,0.00517945,-0.0172022,0.938618,-2.2086,1.60606,-0.0627127,0.0534952,0.0685425,-0.313877,-0.2,2.6,0,12100,48.411,27.752,13435
167640826,0.634767,2.223,92.8039,-0.00427397,-0.0180875,0.939307,-2.2291,1.62996,-0.0632877,0.124685,-0.0872393,-0.045389,-0.2,2.6,0,12100,48.411,27.752,13435
167741192,0.634767,2.223,92.8078,-0.00925611,-0.0137031,0.939252,-2.23294,1.65189,-0.0508694,0.176184,-0.210782,-0.248538,-0.2,2.6,0,12100,48.411,27.752,13435
167841564,0.634767,2.223,92.7757,-0.00687591,-0.00824305,0.93919,-2.24201,1.66403,-0.0524387,0.0259179,-0.118433,0.188693,-0.2,2.6,0,12100,48.411,27.752,13435
167941921,0.634767,2.223,92.7663,-0.0071214,-0.00133704,0.939342,-2.25732,1.67331,-0.055667,-0.0401264,-0.0992214,-0.213017,-0.2,2.6,0,12100,48.411,27.752,13435
168042334,0.634767,2.223,92.7615,-0.00671427,0.00265393,0.939043,-2.2621,1.6797,-0.0530186,-0.0284796,-0.132848,-0.106211,-0.9,-2.7,0,12100,48.411,27.752,13435
168142686,0.634767,2.223,92.7477,-0.03796,0.00681707,0.940971,-2.27164,1.67181,-0.0644887,-0.183069,-0.0832669,0.136714,-0.9,-2.7,0,12100,48.411,27.752,13435
168243046,0.634767,2.223,92.7293,-0.192509,0.0230179,0.937954,-2.23495,1.6287,-0.0262791,-0.244201,-0.963284,0.429411,-0.9,-2.7,0,12100,48.411,27.752,13435
168343453,0.634767,2.223,92.7143,-0.332602,0.0332897,0.935184,-2.04581,1.45451,-0.0506207,-0.315976,-2.66205,0.663918,-0.9,-2.7,0,12100,48.411,27.752,13435
168443811,0.634767,2.223,92.7065,-0.414126,0.0410019,0.933513,-1.76972,1.20586,-0.0748792,-0.453707,-3.63808,1.32187,-0.9,-2.7,0,12100,48.411,27.752,13435
168544286,0.634767,2.223,92.695,-0.447489,0.0473377,0.932435,-1.43442,0.90782,-0.0755744,-0.475004,-4.02767,2.09937,-0.9,-2.7,0,12100,48.411,27.752,13435
168644641,0.634767,2.223,92.68,-0.453936,0.0535358,0.931523,-1.0943,0.57748,-0.0887823,-0.637329,-4.22242,2.06736,-0.9,-2.7,0,12100,48.411,27.752,13435
168744989,0.634767,2.223,92.6639,-0.443752,0.058334,0.930046,-0.752232,0.240378,-0.0669994,-0.679937,-4.19047,2.06724,-0.9,-2.7,0,12100,48.411,27.752,13435
168845383,0.634767,2.223,92.6588,-0.431079,0.0627528,0.929032,-0.427069,-0.0942221,-0.0487548,-0.716321,-3.96892,2.07469,-0.9,-2.7,0,12100,48.411,27.752,13435
168945721,0.634767,2.223,92.6632,-0.418521,0.0648299,0.928736,-0.12072,-0.410059,-0.0338108,-0.67867,-3.65131,2.14428,-0.9,-2.7,0,12100,48.411,27.752,13435
169049168,0.634767,2.223,92.6625,-0.408645,0.0649806,0.929409,0.173837,-0.723185,-0.0307825,-0.732093,-3.77709,1.61072,-3.6,-2.5,0,12100,48.485,27.908,13531.2
169149531,0.634767,2.223,92.656,-0.38823,0.0805532,0.927259,0.449519,-1.03293,-0.0291953,-0.76573,-3.52779,1.70211,-3.6,-2.5,0,12100,48.485,27.908,13531.2
169249850,0.634767,2.223,92.6582,-0.298487,0.197968,0.919691,0.700298,-1.33754,0.000447299,-1.01968,-3.209,1.47386,-3.6,-2.5,0,12100,48.485,27.908,13531.2
169350203,0.634767,2.223,92.6492,-0.208576,0.292227,0.9158,0.752449,-1.68361,0.0161329,-2.36094,-2.08373,0.910939,-3.6,-2.5,0,12100,48.485,27.908,13531.2
169450547,0.634767,2.223,92.6333,-0.155681,0.348188,0.913676,0.676244,-2.02393,-0.0199359,-2.97934,-1.16335,1.00391,-3.6,-2.5,0,12100,48.485,27.908,13531.2
169550889,0.634767,2.223,92.6382,-0.135919,0.3713,0.910421,0.526426,-2.39427,-0.0290327,-3.51247,-0.850019,1.25411,-3.6,-2.5,0,12100,48.485,27.908,13531.2
169651238,0.634767,2.223,92.6348,-0.134837,0.360187,0.90845,0.351653,-2.76861,-0.0303569,-3.56882,-0.758792,1.40574,-3.6,-2.5,0,12100,48.485,27.908,13531.2
169751589,0.634767,2.223,92.6325,-0.129906,0.312873,0.910718,0.197903,-3.11596,-0.0339724,-3.19707,-0.634113,1.20874,-3.6,-2.5,0,12100,48.485,27.908,13531.2
169851933,0.634767,2.223,92.6525,-0.122175,0.259036,0.915839,0.0611489,-3.41398,-0.00274852,-2.76038,-0.674923,0.829401,-3.6,-2.5,0,12100,48.485,27.908,13531.2
169952339,0.634767,2.223,92.681,-0.115217,0.207027,0.921065,-0.0456659,-3.64768,0.00307364,-2.13734,-0.524974,0.555415,-3.6,-2.5,0,12100,48.485,27.908,13531.2
170052754,0.634767,2.223,92.6922,-0.112693,0.162492,0.925631,-0.115878,-3.8188,-0.00683529,-1.50432,-0.489635,0.265461,0.1,-2.3,0,12052,48.516,25.634,12436.6
170153078,0.634767,2.223,92.7179,-0.108688,0.108845,0.930961,-0.170435,-3.96928,-0.00125217,-1.16519,-0.568485,0.223565,0.1,-2.3,0,12052,48.516,25.634,12436.6
170253428,0.634767,2.223,92.7434,-0.0844756,-0.128462,0.940147,-0.202641,-4.06998,0.051062,-0.378143,-0.410005,0.530834,0.1,-2.3,0,12052,48.516,25.634,12436.6
170353784,0.634767,2.223,92.7663,-0.0630877,-0.325658,0.949356,-0.0784707,-3.89799,0.0199786,2.73276,-0.159625,-0.477508,0.1,-2.3,0,12052,48.516,25.634,12436.6
170454139,0.634767,2.223,92.7716,-0.0592035,-0.433091,0.956795,0.121442,-3.58922,-0.0573483,3.7439,0.0379457,1.49079,0.1,-2.3,0,12052,48.516,25.634,12436.6
170555307,0.634767,2.223,92.7893,-0.0648639,-0.474343,0.963438,0.397428,-3.182,-0.0841922,4.53849,-0.0126588,2.09877,0.1,-2.3,0,12052,48.516,25.634,12436.6
170661160,0.634767,2.223,92.8228,-0.0671495,-0.432147,0.966073,0.746,-2.67009,-0.0894849,4.67316,0.0240269,1.90297,0.1,-2.3,0,12052,48.516,25.634,12436.6
170761514,0.634767,2.223,92.8236,-0.0722952,-0.360287,0.964349,0.994635,-2.29908,-0.093316,4.00053,0.0116499,1.63587,0.1,-2.3,0,12052,48.516,25.634,12436.6
170861867,0.634767,2.223,92.7926,-0.0782641,-0.279399,0.960304,1.20332,-2.00747,-0.0999969,3.18773,-0.0620598,1.07947,0.1,-2.3,0,12052,48.516,25.634,12436.6
170962254,0.634767,2.223,92.753,-0.0872115,-0.212496,0.955118,1.37713,-1.78604,-0.092254,2.48982,-0.184139,1.04432,0.1,-2.3,0,12052,48.516,25.634,12436.6
171062647,0.634767,2.223,92.7104,-0.0958101,-0.154042,0.950333,1.51447,-1.6202,-0.0941857,1.89906,-0.269552,0.560367,-1.2,1.5,0,12052,48.366,29.762,14394.7
171162990,0.634767,2.223,92.6762,-0.073685,-0.101715,0.942604,1.63582,-1.51599,-0.0671542,1.28341,-0.490566,0.623472,-1.2,1.5,0,12052,48.366,29.762,14394.7
171263324,0.634767,2.223,92.6529,0.132314,0.00282234,0.936985,1.69465,-1.43633,-0.0217894,0.715785,0.182893,0.839456,-1.2,1.5,0,12052,48.366,29.762,14394.7
171363666,0.634767,2.223,92.6366,0.307089,0.0879739,0.952348,1.44526,-1.30234,-0.0282759,-0.640357,2.92426,0.288211,-1.2,1.5,0,12052,48.366,29.762,14394.7
171463995,0.634767,2.223,92.6314,0.405508,0.131471,0.965991,1.05048,-1.14661,-0.0786403,-1.1627,3.93055,1.4964,-1.2,1.5,0,12052,48.366,29.762,14394.7
171564397,0.634767,2.223,92.6178,0.452865,0.149068,0.973024,0.539784,-0.97407,-0.0822186,-1.44519,4.46163,2.81295,-1.2,1.5,0,12052,48.366,29.762,14394.7
171664762,0.634767,2.223,92.6155,0.445878,0.147859,0.971463,-0.0203472,-0.781361,-0.0745345,-1.51654,4.92194,2.69015,-1.2,1.5,0,12052,48.366,29.762,14394.7
171765189,0.634767,2.223,92.6281,0.375173,0.12877,0.963214,-0.541144,-0.598073,-0.0436712,-1.33163,4.53762,2.4489,-1.2,1.5,0,12052,48.366,29.762,14394.7
171865567,0.634767,2.223,92.6474,0.288038,0.105335,0.953475,-0.944848,-0.467769,-0.0210534,-1.14666,3.56089,1.4687,-1.2,1.5,0,12052,48.366,29.762,14394.7
171965914,0.634767,2.223,92.6617,0.209667,0.0843785,0.947707,-1.26021,-0.370777,0.00956657,-0.898037,2.78111,0.685341,-1.2,1.5,0,12052,48.366,29.762,14394.7
172066320,0.634767,2.223,92.6641,0.143552,0.0672138,0.944537,-1.48455,-0.305639,0.00732966,-0.699673,1.99007,0.105336,4.9,-4.4,0,12052,48.366,29.762,14394.7
172166663,0.634767,2.223,92.6541,0.063146,0.0228648,0.939371,-1.65743,-0.269798,-0.00413168,-0.645526,1.45419,0.32467,4.9,-4.4,0,12052,48.379,28.045,13567.9
172267016,0.634767,2.223,92.6626,-0.121148,-0.128042,0.948261,-1.7101,-0.229871,0.0579519,0.348392,0.271119,0.66109,4.9,-4.4,0,12052,48.379,28.045,13567.9
172367368,0.634767,2.223,92.6899,-0.253629,-0.23108,0.968847,-1.49096,-0.183094,0.025368,1.89433,-1.75576,-0.15226,4.9,-4.4,0,12052,48.379,28.045,13567.9
172467719,0.634767,2.223,92.7074,-0.327656,-0.290252,0.984473,-1.13886,-0.131374,-0.0299412,2.60823,-2.60884,1.0524,4.9,-4.4,0,12052,48.379,28.045,13567.9
172568090,0.634767,2.223,92.7284,-0.358224,-0.315145,0.991306,-0.682576,-0.069176,-0.0373316,2.89293,-2.92677,1.93872,4.9,-4.4,0,12052,48.379,28.045,13567.9
172668430,0.634767,2.223,92.7615,-0.358287,-0.320018,0.990866,-0.191093,-0.0127703,-0.0358744,3.09494,-3.23837,1.88566,4.9,-4.4,0,12052,48.379,28.045,13567.9
172768807,0.634767,2.223,92.7612,-0.346733,-0.31599,0.987818,0.29065,0.05663,-0.0327896,3.09,-2.98735,1.89096,4.9,-4.4,0,12052,48.379,28.045,13567.9
172869154,0.634767,2.223,92.7257,-0.335847,-0.313358,0.985902,0.745909,0.124555,-0.0460641,2.96927,-2.83346,1.75835,4.9,-4.4,0,12052,48.379,28.045,13567.9
172970562,0.634767,2.223,92.7093,-0.323686,-0.311246,0.984519,1.20193,0.20039,-0.0419443,3.02922,-2.85321,1.58991,4.9,-4.4,0,12052,48.379,28.045,13567.9
173073233,0.634767,2.223,92.6898,-0.309846,-0.308079,0.982707,1.64958,0.275702,-0.0362844,2.82983,-2.51831,1.90612,-3.5,2.7,0,12052,48.379,28.045,13567.9
173173617,0.634767,2.223,92.667,-0.285482,-0.28797,0.97873,2.07046,0.35784,-0.0369865,2.84093,-2.44074,1.52285,-3.5,2.7,0,12052,48.322,28.584,13812.4
173273969,0.634767,2.223,92.6312,-0.131459,-0.10311,0.945285,2.48053,0.434389,-0.0125339,2.41863,-2.16525,1.75818,-3.5,2.7,0,12052,48.322,28.584,13812.4
173374317,0.634767,2.223,92.6242,0.0911144,0.14411,0.946399,2.54712,0.41847,0.0556343,-0.137138,-0.0363708,0.504052,-3.5,2.7,0,12052,48.322,28.584,13812.4
173474677,0.634767,2.223,92.612,0.23512,0.280833,0.973479,2.25602,0.344723,0.00590962,-2.40585,2.23665,0.621017,-3.5,2.7,0,12052,48.322,28.584,13812.4
173575030,0.634767,2.223,92.5812,0.30643,0.346911,0.99367,1.80412,0.234469,-0.0298439,-3.35125,3.02387,1.88741,-3.5,2.7,0,12052,48.322,28.584,13812.4
173675425,0.634767,2.223,92.5837,0.329226,0.369702,1.00123,1.2745,0.110372,-0.0601196,-3.57482,3.32298,2.71714,-3.5,2.7,0,12052,48.322,28.584,13812.4
173775734,0.634767,2.223,92.586,0.329829,0.375235,1.00215,0.716576,-0.0242485,-0.0547062,-3.81839,3.33795,2.53316,-3.5,2.7,0,12052,48.322,28.584,13812.4
173876094,0.634767,2.223,92.5925,0.321372,0.372551,0.999413,0.15558,-0.163533,-0.0601561,-3.72959,3.26952,2.98395,-3.5,2.7,0,12052,48.322,28.584,13812.4
173976444,0.634767,2.223,92.5982,0.311186,0.363342,0.996017,-0.398987,-0.303855,-0.0355073,-3.6167,3.22656,2.51669,-3.5,2.7,0,12052,48.322,28.584,13812.4
174076868,0.634767,2.223,92.62,0.298548,0.349054,0.992025,-0.934583,-0.435397,-0.0352973,-3.54906,3.17361,2.32546,4.8,0.9,0,12052,48.322,28.584,13812.4
174177189,0.634767,2.223,92.595,0.282858,0.319001,0.984369,-1.45,-0.564526,-0.0258334,-3.388,2.96555,2.07244,4.8,0.9,0,12011,48.289,28.761,13888.4
174277481,0.634767,2.223,92.6108,0.213055,0.115603,0.960311,-1.94805,-0.657665,0.0516529,-2.88714,2.85084,2.03151,4.8,0.9,0,12011,48.289,28.761,13888.4
174377838,0.634767,2.223,92.6199,0.0856828,-0.188985,0.940954,-2.16786,-0.571105,0.0780671,0.0800322,1.80439,0.261342,4.8,0.9,0,12011,48.289,28.761,13888.4
174478177,0.634767,2.223,92.6052,-0.0101744,-0.367611,0.945022,-2.09343,-0.329447,0.0154769,2.83781,0.434997,0.376364,4.8,0.9,0,12011,48.289,28.761,13888.4
174578528,0.634767,2.223,92.6154,-0.0630207,-0.457067,0.950918,-1.85018,-0.00817963,-0.0137984,3.85539,-0.275216,1.9691,4.8,0.9,0,12011,48.289,28.761,13888.4
174678892,0.634767,2.223,92.6424,-0.0869188,-0.486053,0.952315,-1.52236,0.360572,-0.00500205,4.56098,-0.594487,2.32247,4.8,0.9,0,12011,48.289,28.761,13888.4
174779243,0.634767,2.223,92.675,-0.0900599,-0.485421,0.950233,-1.16783,0.727849,-0.0080355,4.67133,-0.747389,2.18115,4.8,0.9,0,12011,48.289,28.761,13888.4
174879604,0.634767,2.223,92.6847,-0.0853888,-0.472894,0.947523,-0.809602,1.0867,0.00593124,4.49737,-0.798814,2.22175,4.8,0.9,0,12011,48.289,28.761,13888.4
174979944,0.634767,2.223,92.686,-0.0741268,-0.455022,0.94522,-0.472336,1.43182,0.00613426,4.2799,-0.653048,2.09959,4.8,0.9,0,12011,48.289,28.761,13888.4
175080429,0.634767,2.223,92.674,-0.062971,-0.437442,0.943812,-0.0950218,1.83575,-0.00543769,4.15364,-0.563526,1.51251,1,-2.4,0,12011,48.289,28.761,13888.4
175180820,0.634767,2.223,92.6362,-0.0602629,-0.409054,0.942581,0.195153,2.16871,-0.00927545,3.82094,-0.267081,1.69382,1,-2.4,0,12011,48.281,30.215,14588.1
175281190,0.634767,2.223,92.6297,-0.170902,-0.232261,0.95664,0.504815,2.46391,0.102179,3.17029,-0.655587,2.24218,1,-2.4,0,12011,48.281,30.215,14588.1
175381533,0.634767,2.223,92.6175,-0.315524,-0.0105994,0.943476,0.750697,2.39232,0.114604,0.340572,-2.68677,-0.0749596,1,-2.4,0,12011,48.281,30.215,14588.1
175481899,0.634767,2.223,92.6113,-0.397116,0.10711,0.915233,0.954199,2.12571,-0.00528187,-1.22203,-3.2904,0.625239,1,-2.4,0,12011,48.281,30.215,14588.1
175582269,0.634767,2.223,92.6045,-0.435025,0.161732,0.897125,1.18835,1.72314,-0.0467784,-1.85573,-3.58445,2.39471,1,-2.4,0,12011,48.281,30.215,14588.1
175682592,0.634767,2.223,92.6154,-0.440245,0.176594,0.8891,1.41211,1.27833,-0.0466369,-2.11811,-3.65694,2.39716,1,-2.4,0,12011,48.281,30.215,14588.1
175782949,0.634767,2.223,92.5756,-0.409961,0.161272,0.893129,1.63233,0.841352,-0.066401,-2.05563,-3.80882,1.90243,1,-2.4,0,12011,48.281,30.215,14588.1
175884611,0.634767,2.223,92.576,-0.350709,0.132517,0.903806,1.82274,0.449831,-0.048303,-1.80109,-3.18213,1.95096,1,-2.4,0,12011,48.281,30.215,14588.1
175985321,0.634767,2.223,92.5915,-0.284913,0.0920935,0.917093,1.96806,0.129268,-0.0323356,-1.50462,-2.58311,1.25557,1,-2.4,0,12011,48.281,30.215,14588.1
176085917,0.634767,2.223,92.5775,-0.223766,0.0529045,0.927226,2.0925,-0.108765,-0.0213303,-0.974324,-2.01377,0.864634,-3.1,0,0,12011,48.281,30.215,14588.1
176186255,0.634767,2.223,92.5795,-0.157257,0.0574195,0.932457,2.19463,-0.272929,0.00541485,-0.45853,-1.46238,0.865504,-3.1,0,0,12011,48.231,31.14,15019.1
176286671,0.634767,2.223,92.6193,0.00241227,0.212047,0.942869,2.20274,-0.420341,0.0698026,-1.20575,-0.410884,0.8548,-3.1,0,0,12011,48.231,31.14,15019.1
176387300,0.634767,2.223,92.6549,0.131377,0.323605,0.961987,1.93423,-0.60686,0.0469452,-2.92612,1.37015,0.308439,-3.1,0,0,12011,48.231,31.14,15019.1
176487717,0.634767,2.223,92.6614,0.198054,0.377895,0.974646,1.55467,-0.787514,-0.0194952,-3.42247,2.07981,1.12519,-3.1,0,0,12011,48.231,31.14,15019.1
176588088,0.634767,2.223,92.6649,0.226876,0.396958,0.978235,1.07693,-0.992195,-0.0524681,-3.99352,2.56116,1.71001,-3.1,0,0,12011,48.231,31.14,15019.1
176688447,0.634767,2.223,92.6724,0.225841,0.394737,0.973793,0.575604,-1.18683,-0.0693063,-3.81906,2.61998,2.05012,-3.1,0,0,12011,48.231,31.14,15019.1
176788803,0.634767,2.223,92.6738,0.202178,0.389586,0.968275,0.0687655,-1.37037,-0.0626006,-3.63602,2.54747,2.4401,-3.1,0,0,12011,48.231,31.14,15019.1
176889165,0.634767,2.223,92.7125,0.163156,0.359394,0.959006,-0.407368,-1.57229,-0.0393356,-3.58299,2.19448,2.34008,-3.1,0,0,12011,48.231,31.14,15019.1
176989542,0.634767,2.223,92.7296,0.111656,0.308846,0.949848,-0.811973,-1.74922,-0.0329944,-3.09732,1.81005,1.52825,-3.1,0,0,12011,48.231,31.14,15019.1
177089919,0.634767,2.223,92.7195,0.0650396,0.254585,0.943763,-1.12482,-1.90382,-0.0335594,-2.54138,1.27646,1.18331,2.6,-2.6,0,12011,48.231,31.14,15019.1
177190283,0.634767,2.223,92.719,0.0211496,0.187005,0.938296,-1.36811,-2.03643,-0.0470945,-2.0705,0.858633,0.487721,2.6,-2.6,0,12011,48.231,31.14,15019.1
177290667,0.634767,2.223,92.7372,-0.078694,-0.0642017,0.940306,-1.52906,-2.13011,0.00691811,-1.13998,0.349557,0.670707,2.6,-2.6,0,12011,48.227,29.953,14445.4
177391018,0.634767,2.223,92.7674,-0.165377,-0.272645,0.964397,-1.41297,-2.03867,0.00390642,2.00566,-0.854241,-0.231144,2.6,-2.6,0,12011,48.227,29.953,14445.4
177491334,0.634767,2.223,92.7718,-0.216888,-0.382066,0.986038,-1.1413,-1.85387,-0.080405,3.25372,-1.401,0.937012,2.6,-2.6,0,12011,48.227,29.953,14445.4
177591703,0.634767,2.223,92.8075,-0.241989,-0.430022,0.998343,-0.755544,-1.60283,-0.106951,3.90268,-1.63478,2.27258,2.6,-2.6,0,12011,48.227,29.953,14445.4
177692055,0.634767,2.223,92.8372,-0.244843,-0.436016,1.00116,-0.317317,-1.31621,-0.0939032,4.49443,-1.91268,2.12393,2.6,-2.6,0,12011,48.227,29.953,14445.4
177792337,0.634767,2.223,92.8668,-0.240848,-0.422446,1.00005,0.12303,-1.03454,-0.0839424,4.26184,-1.85835,2.4085,2.6,-2.6,0,12011,48.227,29.953,14445.4
177892688,0.634767,2.223,92.9034,-0.23818,-0.403787,0.997308,0.529599,-0.768096,-0.0813037,3.97014,-1.60855,2.27701,2.6,-2.6,0,12011,48.227,29.953,14445.4
177993037,0.634767,2.223,92.9275,-0.240333,-0.38519,0.995113,0.932581,-0.52244,-0.0820144,3.86481,-1.74145,1.76436,2.6,-2.6,0,12011,48.227,29.953,14445.4
178093419,0.634767,2.223,92.8982,-0.241532,-0.365683,0.992628,1.31131,-0.295198,-0.102756,3.62061,-1.62524,1.56183,-4.6,-0.1,0,12011,48.227,29.953,14445.4
178193773,0.634767,2.223,92.8479,-0.241979,-0.330709,0.988129,1.68881,-0.0749551,-0.101264,3.43942,-1.64239,1.60982,-4.6,-0.1,0,12011,48.227,29.953,14445.4
178294135,0.634767,2.223,92.8207,-0.14395,-0.103925,0.957397,2.06496,0.10261,-0.071377,2.84441,-1.59764,1.86612,-4.6,-0.1,0,12011,48.29,28.742,13879.5
178394424,0.634767,2.223,92.8024,-0.00240269,0.19273,0.944791,2.14356,0.0970195,-0.0284177,-0.307582,-0.387155,-0.354872,-4.6,-0.1,0,12011,48.29,28.742,13879.5
178494798,0.634767,2.223,92.7716,0.0909223,0.356874,0.954377,1.91969,-0.0593505,-0.102512,-2.85078,0.970667,0.571254,-4.6,-0.1,0,12011,48.29,28.742,13879.5
178595156,0.634767,2.223,92.7398,0.140158,0.428879,0.962011,1.56225,-0.277246,-0.150425,-3.71901,1.5615,1.84689,-4.6,-0.1,0,12011,48.29,28.742,13879.5
178695452,0.634767,2.223,92.7165,0.154109,0.444435,0.960935,1.11969,-0.526754,-0.175174,-4.12059,1.90844,2.56905,-4.6,-0.1,0,12011,48.29,28.742,13879.5
178795719,0.634767,2.223,92.6913,0.146282,0.437957,0.955581,0.656612,-0.786048,-0.162338,-4.11876,1.84689,2.9029,-4.6,-0.1,0,12011,48.29,28.742,13879.5
178896101,0.634767,2.223,92.6956,0.129409,0.428796,0.951409,0.202854,-1.04019,-0.127727,-3.96263,1.82369,2.80269,-4.6,-0.1,0,12011,48.29,28.742,13879.5
178996492,0.634767,2.223,92.6938,0.105553,0.421126,0.94802,-0.220902,-1.28423,-0.0994725,-3.86674,1.701,2.22231,-4.6,-0.1,0,12011,48.29,28.742,13879.5
179096860,0.634767,2.223,92.6913,0.0746676,0.411953,0.944769,-0.612606,-1.54411,-0.0944473,-3.7566,1.3886,2.01704,-4.1,1.2,0,12011,48.29,28.742,13879.5
179197251,0.634767,2.223,92.6973,0.0568897,0.397793,0.943721,-0.979271,-1.83149,-0.0592874,-3.56932,1.03515,2.31129,-4.1,1.2,0,12011,48.29,28.742,13879.5
179297591,0.634767,2.223,92.7083,0.119334,0.359783,0.964649,-1.32152,-2.09604,-0.0132548,-3.27309,1.10153,1.7123,-4.1,1.2,0,12011,48.363,28.029,13555.7
179397926,0.634767,2.223,92.7046,0.172402,0.318333,0.97238,-1.67922,-2.27321,-0.0234124,-3.01246,1.65431,1.24582,-4.1,1.2,0,12011,48.363,28.029,13555.7
179498428,0.634767,2.223,92.7174,0.185304,0.267965,0.966565,-2.03701,-2.38619,-0.0194977,-2.46684,1.96004,1.17019,-4.1,1.2,0,12011,48.363,28.029,13555.7
179601210,0.634767,2.223,92.7291,0.166801,0.223891,0.956901,-2.42732,-2.46027,-0.0204841,-1.99303,1.98399,0.437209,-4.1,1.2,0,12011,48.363,28.029,13555.7
179701574,0.634767,2.223,92.7378,0.131489,0.184197,0.949315,-2.69439,-2.49393,-0.0290824,-1.52104,1.69053,0.361734,-4.1,1.2,0,12011,48.363,28.029,13555.7
179801934,0.634767,2.223,92.7487,0.0939581,0.152735,0.944507,-2.8978,-2.51917,-0.0355115,-1.18698,1.24032,-0.0303816,-4.1,1.2,0,12011,48.363,28.029,13555.7
179902295,0.634767,2.223,92.7448,0.0600132,0.129478,0.942527,-3.05249,-2.54171,-0.0455444,-0.910153,0.870862,-0.0574178,-4.1,1.2,0,12011,48.363,28.029,13555.7
180002648,0.634767,2.223,92.7552,0.033649,0.111338,0.941484,-3.1667,-2.56261,-0.0534936,-0.715531,0.509988,0.20434,-4.1,1.2,0,12011,48.363,28.029,13555.7
180103031,0.634767,2.223,92.7218,0.0154065,0.0974082,0.941563,-3.25411,-2.58813,-0.0693655,-0.589317,0.322843,-0.1883,4.7,0.2,0,12011,48.363,28.029,13555.7
180203389,0.634767,2.223,92.7333,-0.003035,0.0595103,0.939652,-3.3319,-2.60417,-0.060749,-0.553922,0.321716,0.172034,4.7,0.2,0,12011,48.363,28.029,13555.7
180303748,0.634767,2.223,92.7403,-0.0429305,-0.174762,0.943513,-3.33285,-2.55716,-0.000156574,0.827171,-0.00246169,0.43539,4.7,0.2,0,11967,48.271,28.634,13821.9
180404097,0.634767,2.223,92.7544,-0.0714645,-0.341184,0.951278,-3.13081,-2.32631,-0.00508291,3.18365,-0.47916,0.264769,4.7,0.2,0,11967,48.271,28.634,13821.9
180504473,0.634766,2.223,92.7456,-0.0878073,-0.436361,0.955755,-2.84736,-1.99866,-0.0660601,4.28841,-0.556026,1.16902,4.7,0.2,0,11967,48.271,28.634,13821.9
180604835,0.634766,2.223,92.7568,-0.0953429,-0.490434,0.957266,-2.4819,-1.61279,-0.107299,4.72298,-0.713857,2.25651,4.7,0.2,0,11967,48.271,28.634,13821.9
180705174,0.634766,2.223,92.7458,-0.0932907,-0.502965,0.955598,-2.08003,-1.1768,-0.129221,4.98898,-0.637144,2.80874,4.7,0.2,0,11967,48.271,28.634,13821.9
180805506,0.634766,2.223,92.714,-0.0865615,-0.488421,0.954384,-1.6729,-0.741313,-0.128352,4.94427,-0.629567,2.92914,4.7,0.2,0,11967,48.271,28.634,13821.9
180905892,0.634766,2.223,92.6877,-0.0733411,-0.467137,0.952613,-1.2957,-0.322975,-0.115964,4.64541,-0.484314,2.74378,4.7,0.2,0,11967,48.271,28.634,13821.9
181006220,0.634766,2.223,92.6625,-0.0657701,-0.446023,0.952089,-0.933314,0.0979533,-0.0674303,4.40006,-0.305148,3.06522,4.7,0.2,0,11967,48.271,28.634,13821.9
181106693,0.634766,2.223,92.6532,-0.0617317,-0.427305,0.952054,-0.593967,0.483821,-0.0392557,4.36498,-0.360249,2.09425,3.1,-0.7,0,11967,48.271,28.634,13821.9
181208564,0.634766,2.223,92.6202,-0.0853363,-0.407191,0.958566,-0.280512,0.839943,-0.0408627,4.1006,-0.241169,1.65759,3.1,-0.7,0,11967,48.271,28.634,13821.9
181308906,0.634766,2.223,92.6177,-0.149467,-0.37505,0.974782,0.0615355,1.16233,-0.00335426,3.94185,-0.898085,1.7381,3.1,-0.7,0,11967,48.288,29.841,14409.6
181409240,0.634766,2.223,92.6147,-0.19499,-0.335645,0.975977,0.399315,1.40668,-0.00529008,3.51431,-1.16921,1.01926,3.1,-0.7,0,11967,48.288,29.841,14409.6
181509619,0.634766,2.223,92.6125,-0.209303,-0.28429,0.967428,0.752652,1.58532,-0.00993558,2.97276,-1.52367,1.4981,3.1,-0.7,0,11967,48.288,29.841,14409.6
181609965,0.634766,2.223,92.5946,-0.195441,-0.236076,0.956826,1.07494,1.69556,0.0138565,2.39705,-1.64741,0.954687,3.1,-0.7,0,11967,48.288,29.841,14409.6
181710350,0.634766,2.223,92.5601,-0.165759,-0.195273,0.948374,1.33901,1.7771,0.0123375,2.00952,-1.43873,0.524103,3.1,-0.7,0,11967,48.288,29.841,14409.6
181810710,0.634767,2.223,92.5577,-0.132827,-0.159707,0.942213,1.54904,1.842,0.0378432,1.56496,-1.12086,0.420788,3.1,-0.7,0,11967,48.288,29.841,14409.6
181911081,0.634767,2.223,92.5569,-0.11157,-0.13165,0.938804,1.69791,1.89141,0.0487142,1.19163,-0.718036,0.448563,3.1,-0.7,0,11967,48.288,29.841,14409.6
182011485,0.634767,2.223,92.5726,-0.0947628,-0.111096,0.937013,1.81963,1.91583,0.063668,0.884642,-0.662313,0.111638,3.1,-0.7,0,11967,48.288,29.841,14409.6
182111917,0.634767,2.223,92.5902,-0.0809219,-0.0967855,0.935716,1.90589,1.93194,0.0606677,0.738432,-0.481059,-0.321142,-1.9,2.8,0,11967,48.288,29.841,14409.6
182212325,0.634767,2.223,92.6126,-0.0617057,-0.0683059,0.935379,1.96283,1.94365,0.0612579,0.57131,-0.231869,-0.289229,-1.9,2.8,0,11967,48.288,29.841,14409.6
182312636,0.634767,2.223,92.6199,0.0679906,0.13578,0.937835,1.99867,1.93274,0.101777,0.00212413,-0.0167415,0.350446,-1.9,2.8,0,11967,48.288,29.841,14409.6
182413012,0.634767,2.223,92.6466,0.200695,0.307048,0.96646,1.72391,1.79979,0.0868638,-2.83995,1.81461,0.0117942,-1.9,2.8,0,11967,48.361,27.701,13396.5
182513371,0.634767,2.223,92.6544,0.270892,0.394891,0.994525,1.29136,1.62989,-0.0178853,-3.73864,2.59068,1.15375,-1.9,2.8,0,11967,48.361,27.701,13396.5
182613707,0.634767,2.223,92.6298,0.299826,0.429872,1.00973,0.747173,1.40449,-0.0558491,-4.19092,2.78677,2.81691,-1.9,2.8,0,11967,48.361,27.701,13396.5
182714060,0.634767,2.223,92.6071,0.303101,0.430397,1.01238,0.169362,1.1806,-0.0813099,-4.32224,3.01931,2.67872,-1.9,2.8,0,11967,48.361,27.701,13396.5
182814421,0.634767,2.223,92.5839,0.295723,0.412157,1.00741,-0.419037,0.958184,-0.0841656,-4.08296,2.91783,3.29457,-1.9,2.8,0,11967,48.361,27.701,13396.5
182914771,0.634767,2.223,92.5469,0.304108,0.392741,1.00345,-1.01055,0.748976,-0.059883,-3.86193,2.87731,3.58216,-1.9,2.8,0,11967,48.361,27.701,13396.5
183015113,0.634767,2.223,92.5142,0.296586,0.35994,0.995677,-1.60878,0.563622,-0.0315826,-3.87106,3.12305,2.92137,-1.9,2.8,0,11967,48.361,27.701,13396.5
183115504,0.634767,2.223,92.508,0.245076,0.290794,0.976234,-2.16295,0.41992,-0.0016502,-3.34177,2.93653,2.59996,3.5,2.2,0,11967,48.361,27.701,13396.5
183217153,0.634767,2.223,92.5291,0.186656,0.204533,0.958144,-2.58292,0.304578,0.0346377,-2.5862,2.17107,1.81067,3.5,2.2,0,11967,48.361,27.701,13396.5
183323412,0.634767,2.223,92.5549,0.090979,-0.0737701,0.941062,-2.92754,0.260096,0.132739,-0.961535,1.50445,0.568623,3.5,2.2,0,11967,48.361,27.701,13396.5
183423716,0.634766,2.223,92.5927,0.00845776,-0.30055,0.941069,-2.91491,0.430739,0.0925476,2.21455,0.518381,-0.289549,3.5,2.2,0,11964,48.199,30.67,14782.6
183524102,0.634766,2.223,92.6009,-0.0374584,-0.418357,0.945334,-2.73031,0.699328,0.0435415,3.53137,-0.195175,1.13329,3.5,2.2,0,11964,48.199,30.67,14782.6
183624459,0.634766,2.223,92.6196,-0.059508,-0.468003,0.946878,-2.46293,1.04661,0.0100871,4.35829,-0.338301,1.58476,3.5,2.2,0,11964,48.199,30.67,14782.6
183724814,0.634766,2.223,92.6436,-0.0623085,-0.477976,0.944753,-2.14986,1.41512,0.0175541,4.53315,-0.475986,2.01724,3.5,2.2,0,11964,48.199,30.67,14782.6
183825167,0.634766,2.223,92.6492,-0.057269,-0.472504,0.942344,-1.84299,1.79011,0.0128777,4.54628,-0.38974,2.00643,3.5,2.2,0,11964,48.199,30.67,14782.6
183925522,0.634766,2.223,92.6397,-0.0492916,-0.463468,0.941055,-1.53342,2.1529,0.0116242,4.24045,-0.43552,2.1704,3.5,2.2,0,11964,48.199,30.67,14782.6
184025830,0.634766,2.223,92.6406,-0.0409548,-0.452902,0.939367,-1.23132,2.52587,0.0153062,4.31933,-0.347376,1.81952,3.5,2.2,0,11964,48.199,30.67,14782.6
184126302,0.634766,2.223,92.6276,-0.0358679,-0.411832,0.937159,-0.942837,2.88404,0.0177867,4.11557,-0.261594,1.53254,1.8,-3.6,0,11964,48.199,30.67,14782.6
184226690,0.634766,2.223,92.5967,-0.0566665,-0.329833,0.938638,-0.694569,3.19841,0.0329247,3.34815,-0.114286,1.77955,1.8,-3.6,0,11964,48.199,30.67,14782.6
184327128,0.634766,2.223,92.5776,-0.213231,-0.154939,0.954061,-0.457485,3.41024,0.127731,2.38316,-0.850544,0.969982,1.8,-3.6,0,11964,48.199,30.67,14782.6
184427497,0.634766,2.223,92.5649,-0.346207,-0.0193213,0.940044,-0.224404,3.32438,0.0717366,0.393351,-2.75933,-0.365526,1.8,-3.6,0,11964,48.339,26.518,12818.5
184527796,0.634766,2.223,92.5588,-0.422664,0.0488301,0.922252,0.0345696,3.07854,-0.0101539,-0.685586,-3.44051,1.34009,1.8,-3.6,0,11964,48.339,26.518,12818.5
184628205,0.634766,2.223,92.5527,-0.454675,0.0801402,0.909771,0.332135,2.72186,-0.0194184,-1.20622,-4.05883,2.02043,1.8,-3.6,0,11964,48.339,26.518,12818.5
184728566,0.634766,2.223,92.5447,-0.459667,0.0908229,0.903598,0.619951,2.33256,-0.0307369,-1.44881,-4.14901,2.00547,1.8,-3.6,0,11964,48.339,26.518,12818.5
184828916,0.634766,2.223,92.5259,-0.453601,0.0889101,0.9027,0.897943,1.93813,-0.0263612,-1.41486,-3.91644,2.45926,1.8,-3.6,0,11964,48.339,26.518,12818.5
184929263,0.634766,2.223,92.5124,-0.444526,0.0763489,0.906923,1.17313,1.53981,-0.00850324,-1.34513,-3.85592,2.52123,1.8,-3.6,0,11964,48.339,26.518,12818.5
185029599,0.634766,2.223,92.528,-0.430425,0.0553137,0.913437,1.44253,1.16424,0.00292159,-1.1535,-3.79019,2.06286,1.8,-3.6,0,11964,48.339,26.518,12818.5
185129999,0.634766,2.223,92.5498,-0.414941,0.030328,0.920859,1.71161,0.830226,0.0232916,-0.886946,-3.55184,1.84136,4.7,-3.2,0,11964,48.339,26.518,12818.5
185230364,0.634766,2.223,92.5627,-0.387435,-0.0197663,0.93509,1.96223,0.53493,0.0185784,-0.642541,-3.31236,1.60948,4.7,-3.2,0,11964,48.339,26.518,12818.5
185330732,0.634766,2.223,92.582,-0.293452,-0.155471,0.946454,2.24181,0.309051,0.0715946,0.310405,-3.21368,0.386233,4.7,-3.2,0,11964,48.339,26.518,12818.5
185431060,0.634766,2.223,92.5883,-0.210436,-0.263071,0.954746,2.49004,0.288499,0.0476115,1.79045,-2.03661,0.133016,4.7,-3.2,0,11919,48.153,30.621,14744.9
185531413,0.634766,2.223,92.5905,-0.168872,-0.321796,0.962001,2.71877,0.403314,0.0150812,2.61784,-1.10005,0.475985,4.7,-3.2,0,11919,48.153,30.621,14744.9
185631764,0.634766,2.223,92.5989,-0.160709,-0.351464,0.968389,2.94942,0.56908,-0.00145736,2.97892,-0.865023,0.57395,4.7,-3.2,0,11919,48.153,30.621,14744.9
185732121,0.634767,2.223,92.6298,-0.163015,-0.361406,0.972491,3.19016,0.749604,-0.0251957,2.94718,-0.824724,1.1355,4.7,-3.2,0,11919,48.153,30.621,14744.9
185832480,0.634767,2.223,92.6587,-0.171204,-0.36092,0.974986,3.43691,0.936527,-0.0201451,2.966,-0.844622,1.15806,4.7,-3.2,0,11919,48.153,30.621,14744.9
185932834,0.634767,2.223,92.689,-0.180175,-0.356327,0.976163,3.68732,1.10693,-0.0128937,2.78665,-0.930835,1.37782,4.7,-3.2,0,11919,48.153,30.621,14744.9
