timestamp,lat,log,alt,roll,pitch,yaw,vel_x,vel_y,vel_z,acc_x,acc_y,acc_z,act_vx,act_vy,act_yr,capacity,vol,cur,power
4673550689,0.634768,2.223,125.795,-0.0611576,0.0186035,0.97135,-0.0230427,0.0944729,-0.0091134,0.0358252,0.0100495,0.485145,0,-4.1,0,12743,49.914,22.842,11401.4
4673651219,0.634768,2.223,125.792,-0.0618765,0.0154889,0.971485,-0.0181239,0.0860892,-0.00381266,0.0171029,-0.063494,0.103955,0,-4.1,0,12743,49.914,22.842,11401.4
4673751602,0.634768,2.223,125.794,-0.0723888,0.0104588,0.972978,-0.0169506,0.0875426,0.00244636,0.0992747,-0.0934772,-0.279581,0,-4.1,0,12743,49.914,22.842,11401.4
4673852047,0.634768,2.223,125.806,-0.167092,0.00498345,0.971962,0.0102995,0.0828349,0.0153314,0.233892,-0.491879,-0.238113,0,-4.1,0,12743,49.872,23.112,11526.4
4673952382,0.634768,2.223,125.816,-0.299793,0.00192651,0.971606,0.136813,0.0132387,-0.0530401,0.0939552,-1.68195,-0.242378,0,-4.1,0,12743,49.872,23.112,11526.4
4674052721,0.634768,2.223,125.825,-0.378516,0.00145467,0.971651,0.362535,-0.150262,-0.0517742,0.0418999,-2.63684,1.25561,0,-4.1,0,12743,49.872,23.112,11526.4
4674153122,0.634768,2.223,125.824,-0.422709,0.00559834,0.971055,0.677111,-0.339565,-0.042665,0.268433,-3.38433,1.43953,0,-4.1,0,12743,49.872,23.112,11526.4
4674253468,0.634768,2.223,125.82,-0.436397,0.0124215,0.968424,1.00348,-0.558749,-0.0453645,0.122101,-3.53593,1.52469,0,-4.1,0,12743,49.872,23.112,11526.4
4674353844,0.634768,2.223,125.799,-0.439899,0.0178462,0.966225,1.35034,-0.775158,-0.0314595,0.136679,-3.54851,1.77112,0,-4.1,0,12743,49.872,23.112,11526.4
4674454271,0.634768,2.223,125.779,-0.436286,0.0219393,0.965309,1.66545,-1.00021,-0.023885,0.0473785,-3.41611,1.55241,0,-4.1,0,12743,49.872,23.112,11526.4
4674554664,0.634768,2.223,125.779,-0.43133,0.0247609,0.963983,1.96661,-1.2258,-0.0557004,-0.211677,-3.33419,1.34553,0,-4.1,0,12743,49.872,23.112,11526.4
4674655033,0.634768,2.223,125.778,-0.400148,0.0247831,0.964929,2.26482,-1.47669,-0.0283051,-0.146249,-3.3724,1.70187,0,-4.1,0,12743,49.872,23.112,11526.4
4674755377,0.634768,2.223,125.78,-0.349376,0.0251165,0.964656,2.53665,-1.66003,-0.00396047,0.0364329,-2.73214,1.36532,0,-4.1,0,12743,49.872,23.112,11526.4
4674855680,0.634768,2.223,125.783,-0.306715,0.0229334,0.966103,2.74038,-1.84472,0.0208808,-0.152841,-2.2757,1.0237,0,-4.1,0,12743,49.917,23.476,11718.5
4674956093,0.634769,2.223,125.788,-0.266985,0.0197986,0.967011,2.91086,-1.97454,0.034105,-0.0974989,-1.80349,0.69182,0,-4.1,0,12743,49.917,23.476,11718.5
4675058878,0.634769,2.223,125.799,-0.235963,0.019041,0.967576,3.04984,-2.07734,0.0255942,-0.0694847,-1.50393,0.177542,0,-4.1,0,12743,49.917,23.476,11718.5
4675159251,0.634769,2.223,125.816,-0.210473,0.0178849,0.967833,3.14648,-2.16982,0.0253652,-0.236973,-1.15876,0.0498431,0,-4.1,0,12743,49.917,23.476,11718.5
4675259597,0.634769,2.223,125.833,-0.190528,0.0132875,0.968616,3.23399,-2.24478,0.00632073,-0.0466467,-1.03401,0.0816337,0,-4.1,0,12743,49.917,23.476,11718.5
4675359954,0.634769,2.223,125.855,-0.172502,0.011761,0.969184,3.31281,-2.29087,0.0178017,0.121037,-0.865179,-0.353734,0,-4.1,0,12743,49.917,23.476,11718.5
4675460353,0.634769,2.223,125.881,-0.157936,0.0122316,0.969162,3.378,-2.31586,-0.00657114,0.197253,-0.612387,0.224282,0,-4.1,0,12743,49.917,23.476,11718.5
4675560732,0.634769,2.223,125.887,-0.148065,0.0118133,0.969259,3.42523,-2.3343,-0.0261881,0.0674913,-0.548305,-0.499654,0,-2.9,0,12743,49.917,23.476,11718.5
4675661106,0.634769,2.223,125.891,-0.124229,0.0109035,0.967732,3.4623,-2.35124,-0.0309173,0.175691,-0.461629,-0.309701,0,-2.9,0,12743,49.917,23.476,11718.5
4675761466,0.634769,2.223,125.889,-0.0440578,0.0142607,0.968563,3.49925,-2.36077,-0.00248369,0.0264151,-0.134781,-0.0349557,0,-2.9,0,12743,49.917,23.476,11718.5
4675861836,0.634769,2.223,125.9,0.0336687,0.0202172,0.9702,3.43949,-2.29995,-0.00599677,0.00483827,0.906859,-1.26168,0,-2.9,0,12743,49.917,23.476,11718.5
4675962159,0.634769,2.223,125.902,0.0697362,0.0224325,0.969686,3.30348,-2.20669,-0.0334174,-0.081195,1.60224,0.182127,0,-2.9,0,12743,49.785,23.4,11649.7
4676062511,0.634769,2.223,125.895,0.0722133,0.0272938,0.969481,3.1688,-2.09377,-0.0332226,0.0533284,1.66594,-0.084493,0,-2.9,0,12743,49.785,23.4,11649.7
4676162898,0.634769,2.223,125.895,0.0588038,0.0290051,0.968954,3.04007,-2.00139,-0.0622591,0.00873509,1.44324,-0.118523,0,-2.9,0,12743,49.785,23.4,11649.7
4676263161,0.634769,2.223,125.894,0.0344103,0.0269355,0.967688,2.91134,-1.92407,-0.0686357,-0.0856448,1.29529,0.0212101,0,-2.9,0,12743,49.785,23.4,11649.7
4676363429,0.634769,2.223,125.886,0.0115909,0.0237297,0.967933,2.806,-1.8725,-0.081271,-0.211087,1.02017,-0.447201,0,-2.9,0,12743,49.785,23.4,11649.7
4676463785,0.634769,2.223,125.878,-0.010028,0.018674,0.967745,2.70987,-1.8162,-0.0883892,-0.0928427,0.942142,0.119013,0,-2.9,0,12743,49.785,23.4,11649.7
4676564123,0.634769,2.223,125.883,-0.0270175,0.0125146,0.968158,2.62979,-1.77216,-0.0707833,-0.0230329,0.681807,0.0170234,0,-2.9,0,12743,49.785,23.4,11649.7
4676664485,0.634769,2.223,125.892,-0.0446909,0.00976943,0.968179,2.57237,-1.72419,-0.0582266,0.117866,0.490095,0.294109,0,-2.9,0,12743,49.785,23.4,11649.7
4676764824,0.634769,2.223,125.897,-0.0589164,0.0113611,0.96882,2.53897,-1.69648,-0.0501989,0.0500888,0.25689,0.420241,0,-2.9,0,12743,49.785,23.4,11649.7
4676866192,0.634769,2.223,125.91,-0.0671841,0.0167551,0.968836,2.50624,-1.67681,-0.0506842,-0.0196382,0.24284,-0.492634,0,-2.9,0,12743,49.785,23.4,11649.7
4676972575,0.634769,2.223,125.926,-0.0750706,0.0189721,0.968577,2.48212,-1.66137,-0.0498622,-0.0462632,0.0901335,0.218381,0,-2.9,0,12713,49.679,27.843,13832.1
4677072919,0.63477,2.223,125.937,-0.083041,0.0177682,0.969013,2.45999,-1.66264,-0.0469922,-0.151566,0.0727477,-0.152723,0,-2.9,0,12713,49.679,27.843,13832.1
4677173304,0.63477,2.223,125.939,-0.090179,0.01611,0.969151,2.44982,-1.67347,-0.0438666,-0.0563017,-0.261131,-1.20196,0,-2.9,0,12713,49.679,27.843,13832.1
4677273695,0.63477,2.223,125.947,-0.0901927,0.0175674,0.969266,2.46401,-1.66533,-0.0637052,0.0636114,-0.0594678,0.242725,0,-2.9,0,12713,49.679,27.843,13832.1
4677374014,0.63477,2.223,125.947,-0.089397,0.0169762,0.969579,2.45977,-1.67203,-0.0435699,0.0506527,-0.0297749,-0.107163,0,-2.9,0,12713,49.679,27.843,13832.1
4677474381,0.63477,2.223,125.949,-0.0914179,0.0189632,0.969157,2.46487,-1.66487,-0.0869226,0.118366,-0.0257085,0.121168,0,-2.9,0,12713,49.679,27.843,13832.1
4677574787,0.63477,2.223,125.942,-0.0918883,0.0190387,0.969058,2.47317,-1.66571,-0.0663426,0.0142778,-0.0883062,-0.184496,0,2.1,0,12713,49.679,27.843,13832.1
4677675128,0.63477,2.223,125.936,-0.062172,0.0175812,0.966385,2.47232,-1.67154,-0.0690122,-0.0838226,0.00934012,0.662642,0,2.1,0,12713,49.679,27.843,13832.1
4677775400,0.63477,2.223,125.929,0.162851,0.0115608,0.971224,2.43617,-1.63647,0.0251835,0.156683,0.848829,0.550474,0,2.1,0,12713,49.679,27.843,13832.1
4677875742,0.63477,2.223,125.941,0.329832,0.0177794,0.974626,2.19736,-1.45044,-0.00356493,0.112639,3.36806,-0.26582,0,2.1,0,12713,49.679,27.843,13832.1
4677976115,0.63477,2.223,125.956,0.421699,0.0256696,0.977642,1.84035,-1.19749,-0.0822845,0.0329057,4.28124,1.48072,0,2.1,0,12669,49.873,24.511,12224.4
4678076485,0.63477,2.223,125.958,0.471642,0.0345499,0.981413,1.39946,-0.900927,-0.116006,-0.0740463,5.02918,1.69075,0,2.1,0,12669,49.873,24.511,12224.4
4678176803,0.63477,2.223,125.946,0.493452,0.0359566,0.981246,0.904498,-0.606524,-0.18249,-0.36488,5.06923,2.73792,0,2.1,0,12669,49.873,24.511,12224.4
4678277092,0.63477,2.223,125.921,0.492606,0.0278713,0.976162,0.402773,-0.282729,-0.184295,-0.186901,5.22459,2.80056,0,2.1,0,12669,49.873,24.511,12224.4
4678377450,0.63477,2.223,125.885,0.458131,0.00637595,0.964337,-0.0786957,0.085359,-0.197134,0.24086,5.29287,2.28307,0,2.1,0,12669,49.873,24.511,12224.4
4678477792,0.63477,2.223,125.848,0.379557,-0.0117244,0.956864,-0.511151,0.451811,-0.162764,0.434728,4.84594,2.5612,0,2.1,0,12669,49.873,24.511,12224.4
4678578140,0.63477,2.223,125.827,0.274568,-0.00832851,0.959954,-0.84199,0.751702,-0.129692,0.458254,3.67739,1.34678,0,2.1,0,12669,49.873,24.511,12224.4
4678678537,0.63477,2.223,125.809,0.186483,0.0100646,0.966516,-1.06472,1.00184,-0.0329318,0.725479,2.9684,0.150992,0,2.1,0,12669,49.873,24.511,12224.4
4678778933,0.63477,2.223,125.807,0.121869,0.0314427,0.970651,-1.23488,1.12807,-0.0453905,0.0509559,1.80347,0.875919,0,2.1,0,12669,49.873,24.511,12224.4
4678879292,0.63477,2.223,125.8,0.0748119,0.0424399,0.972486,-1.39553,1.20788,0.0336497,-0.15982,1.31623,1.33641,0,2.1,0,12669,49.873,24.511,12224.4
4678979589,0.63477,2.223,125.822,0.0405934,0.0458405,0.973306,-1.49143,1.24577,0.0325654,-0.315485,0.796602,-0.798231,0,2.1,0,12669,49.934,21.889,10930.1
4679079933,0.63477,2.223,125.849,0.0209472,0.0476771,0.973678,-1.56433,1.27509,0.00701809,-0.16803,0.616714,-0.131973,0,2.1,0,12669,49.934,21.889,10930.1
4679181936,0.63477,2.223,125.855,0.00807887,0.0503097,0.973463,-1.6324,1.29367,0.00322556,-0.271677,0.524349,-0.225875,0,2.1,0,12669,49.934,21.889,10930.1
4679288119,0.63477,2.223,125.883,0.000250964,0.0483496,0.973224,-1.67201,1.29494,0.00833038,-0.210617,0.267488,-0.391135,0,2.1,0,12669,49.934,21.889,10930.1
4679388456,0.63477,2.223,125.893,-0.00276205,0.0444141,0.973527,-1.70543,1.29384,0.00321503,-0.211056,0.326626,-0.238294,0,2.1,0,12669,49.934,21.889,10930.1
4679488750,0.63477,2.223,125.901,-0.00561199,0.0371939,0.973179,-1.72922,1.29121,-0.0120311,-0.126523,0.252391,-0.302886,0,2.1,0,12669,49.934,21.889,10930.1
4679589163,0.63477,2.223,125.912,-0.00561937,0.0316371,0.973288,-1.7383,1.27448,-0.0191492,-0.144149,0.0715252,-0.210066,0,-2.3,0,12669,49.934,21.889,10930.1
4679689545,0.63477,2.223,125.904,-0.018278,0.0285539,0.974612,-1.75705,1.28641,-0.0275386,0.0431345,0.402732,0.037741,0,-2.3,0,12669,49.934,21.889,10930.1
4679789910,0.63477,2.223,125.897,-0.170522,0.0220653,0.970934,-1.72385,1.26546,0.0128327,0.0944003,-0.714553,-1.06928,0,-2.3,0,12669,49.934,21.889,10930.1
4679890248,0.634769,2.223,125.883,-0.329979,0.0135374,0.970247,-1.5257,1.14839,-0.0774422,0.163463,-2.42081,0.0689536,0,-2.3,0,12669,49.934,21.889,10930.1
4679990615,0.634769,2.223,125.859,-0.426475,0.0124076,0.970837,-1.20247,0.935369,-0.114289,0.0709089,-3.73825,0.999957,0,-2.3,0,12669,49.858,25.54,12733.7
4680090939,0.634769,2.223,125.831,-0.472968,0.0114262,0.971416,-0.795201,0.662503,-0.0950379,0.231063,-3.90098,2.77282,0,-2.3,0,12669,49.858,25.54,12733.7
4680191296,0.634769,2.223,125.809,-0.483446,0.0163853,0.970052,-0.366576,0.378173,-0.0670908,0.175905,-3.90711,3.01966,0,-2.3,0,12669,49.858,25.54,12733.7
4680291655,0.634769,2.223,125.788,-0.476874,0.0236863,0.966869,0.0485599,0.0799873,-0.0502417,-0.0779306,-4.12699,2.33311,0,-2.3,0,12669,49.858,25.54,12733.7
4680392048,0.634769,2.223,125.769,-0.456598,0.0281909,0.965489,0.456681,-0.190996,-0.0281704,0.108056,-4.27379,1.85727,0,-2.3,0,12669,49.858,25.54,12733.7
4680492416,0.63477,2.223,125.772,-0.395697,0.0279083,0.966898,0.827513,-0.432625,-0.0142926,0.232358,-3.41808,2.19035,0,-2.3,0,12669,49.858,25.54,12733.7
4680592750,0.63477,2.223,125.783,-0.333691,0.0293973,0.967383,1.11989,-0.629086,0.0133392,0.101048,-2.95385,1.11388,0,-2.3,0,12669,49.858,25.54,12733.7
4680693075,0.63477,2.223,125.789,-0.273493,0.0303513,0.967778,1.36462,-0.789053,0.00280138,0.280792,-2.50145,0.777493,0,-2.3,0,12669,49.858,25.54,12733.7
4680793433,0.63477,2.223,125.794,-0.220547,0.0311655,0.967607,1.54171,-0.910409,0.0067008,-0.0245275,-1.65691,0.670823,0,-2.3,0,12669,49.858,25.54,12733.7
4680893775,0.63477,2.223,125.814,-0.176803,0.0328893,0.967874,1.6753,-1.00582,0.0289639,0.026553,-1.30892,0.104476,0,-2.3,0,12669,49.858,25.54,12733.7
4680994122,0.63477,2.223,125.837,-0.144211,0.0368845,0.967331,1.76871,-1.08439,0.0254759,-0.046381,-0.916535,-0.0584119,0,-2.3,0,12669,49.858,25.54,12733.7
4681094461,0.63477,2.223,125.848,-0.120904,0.0350899,0.967398,1.82433,-1.13987,0.0103725,-0.0546042,-0.598891,-0.0973447,0,-2.3,0,12669,49.858,24.731,12330.4
4681194793,0.63477,2.223,125.853,-0.106057,0.0332856,0.967972,1.87005,-1.1774,0.00639662,0.0470435,-0.422441,-0.272959,0,-2.3,0,12669,49.858,24.731,12330.4
4681295070,0.63477,2.223,125.852,-0.0998573,0.0309266,0.968131,1.9034,-1.20279,-0.0336209,0.172543,-0.274117,0.532742,0,-2.3,0,12669,49.858,24.731,12330.4
4681395413,0.63477,2.223,125.846,-0.0926964,0.0304242,0.968353,1.92693,-1.21669,-0.0181528,0.104286,-0.163214,-0.250064,0,-2.3,0,12669,49.858,24.731,12330.4
4681495778,0.63477,2.223,125.844,-0.0896166,0.0305959,0.968363,1.93725,-1.23274,-0.0456144,-0.0483518,-0.229293,-0.589128,0,-2.3,0,12669,49.858,24.731,12330.4
4681596252,0.63477,2.223,125.838,-0.0864996,0.0266509,0.968472,1.94134,-1.25169,-0.0318172,0.0362707,-0.170389,0.223797,0,0.9,0,12669,49.858,24.731,12330.4
4681696620,0.63477,2.223,125.83,-0.0441123,0.0276165,0.965583,1.96152,-1.25983,-0.0249247,0.132209,-0.297395,0.771923,0,0.9,0,12669,49.858,24.731,12330.4
4681797001,0.63477,2.223,125.835,0.176819,0.0277568,0.972432,1.91625,-1.24219,0.0588407,-0.11723,0.935814,-0.0353323,0,0.9,0,12669,49.858,24.731,12330.4
4681898684,0.63477,2.223,125.845,0.335764,0.0259003,0.974079,1.64428,-1.07562,0.00736663,0.00724107,3.29818,0.0232808,0,0.9,0,12669,49.858,24.731,12330.4
4682001707,0.63477,2.223,125.837,0.425156,0.0282209,0.974947,1.28924,-0.8262,-0.074358,0.11739,4.12755,1.47397,0,0.9,0,12669,49.858,24.731,12330.4
4682102014,0.63477,2.223,125.835,0.427076,0.0289673,0.973202,0.828609,-0.517363,-0.0935131,0.0221639,4.7695,2.44601,0,0.9,0,12669,49.767,24.731,12307.9
4682202374,0.63477,2.223,125.827,0.365338,0.0254558,0.971041,0.380857,-0.2251,-0.092471,-0.0840262,4.6528,1.80458,0,0.9,0,12669,49.767,24.731,12307.9
4682302729,0.63477,2.223,125.807,0.271313,0.0173871,0.968175,0.0343156,0.025919,-0.0826552,0.268028,3.58404,1.26348,0,0.9,0,12669,49.767,24.731,12307.9
4682403083,0.63477,2.223,125.787,0.179763,0.0213245,0.969633,-0.232016,0.213477,-0.0631906,-0.063539,2.58784,1.75783,0,0.9,0,12669,49.767,24.731,12307.9
4682503410,0.63477,2.223,125.792,0.113066,0.0190831,0.970704,-0.442338,0.326239,-0.0411355,-0.075022,1.96399,0.395495,0,0.9,0,12669,49.767,24.731,12307.9
4682603779,0.63477,2.223,125.806,0.0614123,0.0193804,0.97162,-0.581116,0.416983,-0.0189118,-0.00166137,1.28772,-0.236784,0,0.9,0,12669,49.767,24.731,12307.9
4682704129,0.63477,2.223,125.812,0.0225043,0.0238309,0.971371,-0.665815,0.481916,-0.015842,0.0557075,0.787137,-0.00531588,0,0.9,0,12669,49.767,24.731,12307.9
4682804485,0.63477,2.223,125.814,-0.00172613,0.0266196,0.971115,-0.727785,0.519229,-0.00657152,-0.0436664,0.462054,-0.922188,0,0.9,0,12669,49.767,24.731,12307.9
4682904843,0.63477,2.223,125.817,-0.0170673,0.028939,0.970897,-0.770126,0.537343,-0.0109364,-0.107877,0.267424,0.119552,0,0.9,0,12669,49.767,24.731,12307.9
4683005221,0.63477,2.223,125.83,-0.0281759,0.0284635,0.970677,-0.800135,0.545588,-0.0110497,-0.0929576,0.0902719,-0.0740812,0,0.9,0,12669,49.767,24.731,12307.9
4683105593,0.63477,2.223,125.826,-0.0315578,0.0281772,0.97055,-0.828309,0.551687,-0.0161651,-0.105965,0.17193,-0.082599,0,0.9,0,12669,49.695,27.415,13623.9
4683205956,0.63477,2.223,125.811,-0.0333191,0.0282061,0.970771,-0.840521,0.562211,-0.0263455,-0.0387539,0.0625537,-0.0923016,0,0.9,0,12669,49.695,27.415,13623.9
4683306313,0.63477,2.223,125.799,-0.0327779,0.0279061,0.970499,-0.851297,0.56815,-0.0241285,0.0500647,0.114747,0.153272,0,0.9,0,12669,49.695,27.415,13623.9
4683406613,0.63477,2.223,125.791,-0.0331565,0.0281857,0.970549,-0.847791,0.572307,-0.0162471,-0.0172153,-0.00527281,-0.54141,0,0.9,0,12669,49.695,27.415,13623.9
4683506975,0.63477,2.223,125.775,-0.0298152,0.0256229,0.970674,-0.84509,0.565768,-0.0225227,-0.0116729,-0.0324707,0.186429,0,0.9,0,12669,49.695,27.415,13623.9
4683607362,0.63477,2.223,125.766,-0.0273145,0.0233054,0.970728,-0.848998,0.569268,-0.0115815,0.0220806,0.133728,0.226735,0,1.5,0,12669,49.695,27.415,13623.9
4683707718,0.63477,2.223,125.77,-0.0133141,0.0225832,0.97009,-0.854117,0.563643,0.0181912,-0.0749537,0.0417932,0.246749,0,1.5,0,12669,49.695,27.415,13623.9
4683808108,0.63477,2.223,125.776,0.0406542,0.0205191,0.971421,-0.887477,0.589859,0.0302496,-0.00860867,0.682112,-0.372557,0,1.5,0,12669,49.695,27.415,13623.9
4683908494,0.63477,2.223,125.779,0.0722807,0.0227143,0.972061,-0.970897,0.637371,-0.00414876,-0.111874,1.08764,-0.344543,0,1.5,0,12669,49.695,27.415,13623.9
4684008857,0.63477,2.223,125.784,0.0795059,0.0206033,0.971437,-1.06946,0.697853,-0.0061594,0.0157837,1.20803,0.250426,0,1.5,0,12669,49.695,27.415,13623.9
4684109229,0.63477,2.223,125.782,0.0732799,0.0183454,0.971242,-1.15669,0.764567,-0.014235,0.074155,1.20964,-0.354213,0,1.5,0,12669,49.723,27.235,13542.1
4684209600,0.63477,2.223,125.777,0.0577393,0.0152681,0.970613,-1.23851,0.822388,-0.000102291,0.0175299,1.06746,0.282775,0,1.5,0,12669,49.723,27.235,13542.1
4684309936,0.63477,2.223,125.771,0.0392378,0.0158793,0.971009,-1.29871,0.871163,-0.00709617,0.0615862,0.805199,-0.111912,0,1.5,0,12669,49.723,27.235,13542.1
4684410294,0.63477,2.223,125.763,0.0238885,0.0176193,0.971086,-1.33704,0.908547,-0.020061,0.0765548,0.579671,0.0621667,0,1.5,0,12669,49.723,27.235,13542.1
4684511451,0.63477,2.223,125.759,0.0128929,0.0177828,0.971336,-1.3738,0.929338,-0.00571503,-0.00136217,0.483381,-0.00830799,0,1.5,0,12669,49.723,27.235,13542.1
4684611853,0.63477,2.223,125.738,0.00331516,0.0172927,0.971086,-1.3955,0.970026,-0.0297709,0.239659,0.416137,0.597231,0,1.5,0,12669,49.723,27.235,13542.1
4684712234,0.63477,2.223,125.723,-0.00409167,0.0206112,0.97099,-1.41461,0.996427,-0.00405655,0.111069,0.313287,0.0989564,0,1.5,0,12669,49.723,27.235,13542.1
4684812584,0.63477,2.223,125.717,-0.00881428,0.0223507,0.970726,-1.43484,1.01189,0.00347861,0.0683857,0.235877,0.0792753,0,1.5,0,12669,49.723,27.235,13542.1
4684912934,0.63477,2.223,125.705,-0.0134762,0.0229584,0.970709,-1.42985,1.03107,0.0038151,0.261796,0.0323437,0.520244,0,1.5,0,12669,49.723,27.235,13542.1
4685013273,0.634769,2.223,125.705,-0.0159512,0.0268623,0.970831,-1.42034,1.05238,0.0270859,0.290651,0.00405416,-0.130715,0,1.5,0,12669,49.723,27.235,13542.1
4685113619,0.634769,2.223,125.717,-0.0182912,0.0307629,0.970993,-1.42659,1.06045,0.0184341,0.0801749,0.0722253,-0.0736541,0,1.5,0,12669,49.723,27.235,13542.1
4685213984,0.634769,2.223,125.723,-0.0214087,0.0300662,0.971089,-1.44552,1.06356,0.0179456,-0.0107722,0.186772,-0.050476,0,1.5,0,12669,49.723,27.235,13542.1
4685314344,0.634769,2.223,125.72,-0.0236923,0.0303587,0.970972,-1.44709,1.07602,0.0225917,0.0885934,0.13777,0.0225036,0,1.5,0,12669,49.723,27.235,13542.1
4685414695,0.634769,2.223,125.718,-0.0268078,0.0309086,0.970911,-1.4531,1.08041,0.0302293,0.00891865,0.0531007,0.0371693,0,1.5,0,12669,49.723,27.235,13542.1
4685515059,0.634769,2.223,125.714,-0.0287119,0.0297594,0.970618,-1.44481,1.0824,0.0309029,0.118142,-0.022434,0.013985,0,1.5,0,12669,49.723,27.235,13542.1
4685615457,0.634769,2.223,125.712,-0.0293466,0.0300253,0.970735,-1.44674,1.09009,0.0381125,0.0722266,0.0842926,-0.111149,0,2.6,0,12654,49.683,25.974,12904.7
4685715788,0.634769,2.223,125.722,-0.00313869,0.0294094,0.969255,-1.42938,1.1016,0.0241307,0.241072,-0.0816192,0.388439,0,2.6,0,12654,49.683,25.974,12904.7
4685816135,0.634769,2.223,125.733,0.0695045,0.032521,0.972389,-1.45636,1.12546,0.0475847,0.0704731,0.46344,-0.110972,0,2.6,0,12654,49.683,25.974,12904.7
4685920744,0.634769,2.223,125.742,0.128655,0.0351141,0.973249,-1.54931,1.19157,0.0367739,0.034901,1.23006,-0.203647,0,2.6,0,12654,49.683,25.974,12904.7
4686023457,0.634769,2.223,125.747,0.149559,0.0361093,0.973074,-1.69693,1.27611,0.0157786,-0.0422996,1.70892,0.22989,0,2.6,0,12654,49.683,25.974,12904.7
4686123777,0.634769,2.223,125.761,0.141296,0.0366042,0.972507,-1.84196,1.37677,0.0386904,0.0533045,1.74601,0.278075,0,2.6,0,12654,49.683,25.974,12904.7
4686224150,0.634769,2.223,125.769,0.117485,0.037101,0.972038,-1.9775,1.46703,0.0237815,0.0383751,1.60865,-0.200793,0,2.6,0,12654,49.683,25.974,12904.7
4686324518,0.634769,2.223,125.771,0.0884343,0.0377701,0.971572,-2.09688,1.53875,0.0165589,-0.0710466,1.35188,-0.0934797,0,2.6,0,12654,49.683,25.974,12904.7
4686424878,0.634769,2.223,125.771,0.0628055,0.0363277,0.971277,-2.20117,1.5855,0.0149762,-0.120945,1.08129,0.0638619,0,2.6,0,12654,49.683,25.974,12904.7
4686526125,0.634769,2.223,125.781,0.0394241,0.0348629,0.971195,-2.28044,1.61592,0.0113906,-0.127556,0.733213,0.0317466,0,2.6,0,12654,49.683,25.974,12904.7
4686631363,0.634769,2.223,125.787,0.0203803,0.0336868,0.97083,-2.33776,1.66164,0.00843606,0.0641921,0.527687,-0.057748,0,2.6,0,12654,49.697,24.739,12294.5
4686731705,0.634769,2.223,125.793,0.00747084,0.033851,0.970969,-2.36246,1.68134,-0.0035785,0.0859286,0.257002,-0.179306,0,2.6,0,12654,49.697,24.739,12294.5
4686832079,0.634769,2.223,125.793,-0.00113076,0.0348905,0.970764,-2.40634,1.69013,-0.00275473,-0.102423,0.339324,0.18298,0,2.6,0,12654,49.697,24.739,12294.5
4686932427,0.634769,2.223,125.785,-0.00911034,0.0325285,0.970412,-2.4336,1.69177,0.00481341,-0.038913,0.181484,0.118428,0,2.6,0,12654,49.697,24.739,12294.5
4687032789,0.634769,2.223,125.777,-0.0123988,0.0303478,0.970235,-2.44724,1.69479,-0.0111997,-0.00148193,0.0887047,-0.227682,0,2.6,0,12654,49.697,24.739,12294.5
4687133224,0.634769,2.223,125.777,-0.0138796,0.0281493,0.970297,-2.45918,1.68905,-0.0127129,-0.139689,0.046299,-0.0997279,0,2.6,0,12654,49.697,24.739,12294.5
4687234327,0.634769,2.223,125.779,-0.0151591,0.0252852,0.969997,-2.48679,1.70142,-0.00675271,-0.0133625,0.216797,0.212168,0,2.6,0,12654,49.697,24.739,12294.5
4687335329,0.634769,2.223,125.778,-0.0182546,0.0235954,0.969893,-2.49507,1.70061,0.0131882,0.00788911,0.047223,-0.091654,0,2.6,0,12654,49.697,24.739,12294.5
4687435680,0.634769,2.223,125.774,-0.0206611,0.0235236,0.96966,-2.49022,1.70502,0.000262032,0.0936791,-0.0310586,-0.0168717,0,2.6,0,12654,49.697,24.739,12294.5
4687536133,0.634769,2.223,125.782,-0.0213704,0.0248666,0.96961,-2.50156,1.70185,0.0012694,-0.0502871,0.0876488,-0.0163768,0,2.6,0,12654,49.697,24.739,12294.5
4687639762,0.634769,2.223,125.784,-0.0222275,0.0242027,0.969775,-2.50484,1.69812,0.00853968,-0.0171459,0.0643323,0.689925,0,-1.4,0,12654,49.671,24.971,12403.3
4687746309,0.634769,2.223,125.78,-0.0392707,0.0224884,0.971018,-2.49921,1.69402,-0.000546142,0.0259978,-0.0159364,-0.132161,0,-1.4,0,12654,49.671,24.971,12403.3
4687846662,0.634769,2.223,125.772,-0.180625,0.0174605,0.967665,-2.47152,1.67635,0.0252833,0.0578892,-0.529069,0.146404,0,-1.4,0,12654,49.671,24.971,12403.3
4687947021,0.634769,2.223,125.772,-0.315462,0.0138384,0.966683,-2.30878,1.5632,-0.033783,0.00331226,-2.08317,0.0356734,0,-1.4,0,12654,49.671,24.971,12403.3
4688047415,0.634769,2.223,125.766,-0.402003,0.0121186,0.967219,-1.94909,1.33269,-0.0325223,0.113598,-3.35772,1.41762,0,-1.4,0,12654,49.671,24.971,12403.3
4688147791,0.634768,2.223,125.756,-0.442913,0.0120955,0.967528,-1.56949,1.10301,-0.0251977,0.235521,-3.84874,1.96976,0,-1.4,0,12654,49.671,24.971,12403.3
4688248189,0.634768,2.223,125.751,-0.454469,0.0141327,0.967207,-1.17959,0.84797,-0.0112018,0.18311,-4.01426,2.00752,0,-1.4,0,12654,49.671,24.971,12403.3
4688348566,0.634768,2.223,125.743,-0.448938,0.0182888,0.96657,-0.801917,0.610828,-0.000921966,0.144612,-3.8622,1.87403,0,-1.4,0,12654,49.671,24.971,12403.3
4688448952,0.634768,2.223,125.736,-0.435895,0.0242034,0.964897,-0.423434,0.377392,-0.00447964,0.308929,-3.86034,1.93161,0,-1.4,0,12654,49.671,24.971,12403.3
4688550585,0.634768,2.223,125.739,-0.385777,0.0291265,0.964557,-0.0877001,0.137202,0.0110162,0.0143467,-3.41249,1.97112,0,-1.4,0,12654,49.671,24.971,12403.3
4688651702,0.634768,2.223,125.743,-0.32967,0.0326647,0.964797,0.207292,-0.0530097,0.0282185,0.156351,-2.95201,0.987992,0,-1.4,0,12654,49.671,25.087,12461
4688752095,0.634768,2.223,125.747,-0.26794,0.0358551,0.965256,0.442138,-0.214812,0.036768,0.0956247,-2.52769,0.736817,0,-1.4,0,12654,49.668,25.087,12460.2
4688852428,0.634768,2.223,125.75,-0.222869,0.0384334,0.965532,0.620106,-0.33517,0.0381134,0.0101848,-1.69519,0.763338,0,-1.4,0,12654,49.668,25.087,12460.2
4688952747,0.634769,2.223,125.768,-0.181151,0.0371095,0.966649,0.758118,-0.430284,0.0346861,0.0369172,-1.40499,0.0424439,0,-1.4,0,12654,49.668,25.087,12460.2
4689053098,0.634769,2.223,125.784,-0.152303,0.035025,0.967447,0.853014,-0.505387,0.0254958,-0.0394766,-0.997342,0.126223,0,-1.4,0,12654,49.668,25.087,12460.2
4689153445,0.634769,2.223,125.787,-0.128608,0.0327764,0.967794,0.92934,-0.555937,0.0113842,-0.0145177,-0.68983,0.0985885,0,-1.4,0,12654,49.668,25.087,12460.2
4689253802,0.634769,2.223,125.797,-0.112613,0.0311644,0.9682,0.980118,-0.599422,0.0217201,-0.13906,-0.557883,-0.596144,0,-1.4,0,12654,49.668,25.087,12460.2
4689354073,0.634769,2.223,125.801,-0.103085,0.0292237,0.968128,1.01269,-0.623464,0.0265273,0.178845,-0.41905,0.426993,0,-1.4,0,12654,49.668,25.087,12460.2
4689454483,0.634769,2.223,125.8,-0.0985565,0.0310032,0.968142,1.04589,-0.637243,-0.00254455,0.126332,-0.330387,-0.145258,0,-1.4,0,12654,49.668,25.087,12460.2
4689554844,0.634769,2.223,125.804,-0.0927209,0.0302782,0.968521,1.07266,-0.656035,0.00363347,-0.0141763,-0.318737,0.192778,0,-1.4,0,12654,49.668,25.087,12460.2
4689655245,0.634769,2.223,125.801,-0.089085,0.0295301,0.968486,1.08259,-0.668688,0.000892481,-0.00733061,-0.218961,-0.236918,0,-4.7,0,12654,49.668,25.087,12460.2
4689755586,0.634769,2.223,125.799,-0.118119,0.0246057,0.969888,1.08206,-0.67308,0.00559751,0.0605031,0.0396077,0.499841,0,-4.7,0,12625,49.631,26.324,13064.9
4689855886,0.634769,2.223,125.795,-0.220123,0.0192108,0.966962,1.13686,-0.69938,-0.00181346,0.134799,-1.06473,-0.841779,0,-4.7,0,12625,49.631,26.324,13064.9
4689956288,0.634769,2.223,125.79,-0.316692,0.0171586,0.966944,1.2884,-0.774303,-0.0628106,0.125436,-1.88219,-0.00554842,0,-4.7,0,12625,49.631,26.324,13064.9
4690056642,0.634769,2.223,125.776,-0.377788,0.0157624,0.967424,1.48187,-0.92679,-0.0727719,0.0988328,-2.52497,1.3085,0,-4.7,0,12625,49.631,26.324,13064.9
4690157027,0.634769,2.223,125.758,-0.401942,0.015761,0.967391,1.74602,-1.10942,-0.0646624,0.0308955,-2.81909,1.63095,0,-4.7,0,12625,49.631,26.324,13064.9
4690257376,0.634769,2.223,125.747,-0.409533,0.0186317,0.967055,2.04188,-1.28503,-0.0316994,0.239753,-3.11647,1.53345,0,-4.7,0,12625,49.631,26.324,13064.9
4690357714,0.634769,2.223,125.735,-0.411325,0.0240655,0.965493,2.34004,-1.49376,-0.00497226,0.21627,-3.17914,1.82411,0,-4.7,0,12625,49.631,26.324,13064.9
4690458088,0.634769,2.223,125.723,-0.408087,0.0306736,0.964109,2.63999,-1.67206,0.0161531,0.17333,-3.32267,1.02009,0,-4.7,0,12625,49.631,26.324,13064.9
4690558465,0.634769,2.223,125.732,-0.377469,0.0339072,0.96359,2.8979,-1.88811,0.00973583,-0.254586,-3.15727,1.37294,0,-4.7,0,12625,49.631,26.324,13064.9
4690658825,0.634769,2.223,125.757,-0.33654,0.0336212,0.963821,3.11819,-2.09123,0.0277,-0.206701,-2.60463,1.24458,0,-4.7,0,12625,49.631,26.324,13064.9
4690759144,0.634769,2.223,125.766,-0.298876,0.0305906,0.964502,3.29099,-2.25312,0.0495116,-0.215119,-2.12738,0.85966,0,-4.7,0,12625,49.493,28.977,14341.6
4690859373,0.634769,2.223,125.78,-0.266326,0.0285915,0.965349,3.453,-2.37867,0.0626478,0.00746157,-1.73592,0.683591,0,-4.7,0,12625,49.493,28.977,14341.6
4690959679,0.634769,2.223,125.799,-0.239333,0.0278849,0.96565,3.5622,-2.46715,0.0443311,-0.204276,-1.31383,0.346604,0,-4.7,0,12625,49.493,28.977,14341.6
4691060070,0.634769,2.223,125.82,-0.217151,0.0262911,0.966177,3.67712,-2.54489,0.0369433,0.0916002,-1.30327,0.10719,0,-4.7,0,12625,49.493,28.977,14341.6
4691160409,0.634769,2.223,125.83,-0.195611,0.0280215,0.966451,3.78052,-2.59333,0.0369232,0.19849,-1.20125,-0.559876,0,-4.7,0,12625,49.493,28.977,14341.6
4691260775,0.634769,2.223,125.842,-0.176946,0.0304317,0.966749,3.85962,-2.63362,0.0318686,0.0797685,-0.799296,-0.200767,0,-4.7,0,12625,49.493,28.977,14341.6
4691361103,0.634769,2.223,125.85,-0.160716,0.0282683,0.967351,3.8882,-2.68533,-0.00242921,-0.151978,-0.571013,-0.169136,0,-4.7,0,12625,49.493,28.977,14341.6
4691461461,0.634769,2.223,125.859,-0.147545,0.0201831,0.968767,3.93294,-2.71657,0.0189497,0.0989437,-0.44483,0.701932,0,-4.7,0,12625,49.493,28.977,14341.6
4691561829,0.634769,2.223,125.865,-0.141242,0.0165949,0.969781,3.96964,-2.71395,-0.0016,0.150486,-0.392092,-0.696055,0,-4.7,0,12625,49.493,28.977,14341.6
4691662212,0.63477,2.223,125.865,-0.134047,0.0186886,0.969663,4.01004,-2.72004,-0.013561,0.234775,-0.34232,0.215688,0,4.1,0,12625,49.493,28.977,14341.6
4691762564,0.63477,2.223,125.858,-0.108652,0.0237259,0.966116,4.05844,-2.71126,-0.0256667,0.285235,-0.474929,-0.343629,0,4.1,0,12625,49.548,25.789,12777.9
4691862922,0.63477,2.223,125.847,0.11077,0.0184681,0.970517,4.05712,-2.71962,0.0472383,0.139584,0.0490036,1.63552,0,4.1,0,12625,49.548,25.789,12777.9
4691963256,0.63477,2.223,125.851,0.32414,0.0121035,0.971921,3.80263,-2.52746,0.164397,0.169705,3.17918,1.42362,0,4.1,0,12625,49.548,25.789,12777.9
4692063635,0.63477,2.223,125.862,0.423567,0.0151352,0.973271,3.4427,-2.26188,0.0727464,0.107098,4.62668,0.575587,0,4.1,0,12625,49.548,25.789,12777.9
4692164037,0.63477,2.223,125.874,0.453283,0.0173096,0.974539,3.02006,-1.96501,0.00563364,0.20077,4.2511,3.08405,0,4.1,0,12625,49.548,25.789,12777.9
4692264384,0.63477,2.223,125.872,0.459914,0.021891,0.976662,2.5802,-1.64388,-0.0373709,0.110455,5.18557,0.969277,0,4.1,0,12625,49.548,25.789,12777.9
4692364727,0.63477,2.223,125.868,0.464893,0.0173283,0.974062,2.16046,-1.34982,-0.120611,0.0876463,4.48857,2.37887,0,4.1,0,12625,49.548,25.789,12777.9
4692465062,0.63477,2.223,125.861,0.473941,0.00849017,0.970798,1.71191,-1.0421,-0.155281,-0.00195962,4.92578,1.81234,0,4.1,0,12625,49.548,25.789,12777.9
4692565395,0.63477,2.223,125.844,0.492869,0.0129113,0.971316,1.25823,-0.708931,-0.175398,0.112871,5.01283,2.17826,0,4.1,0,12625,49.548,25.789,12777.9
4692665756,0.63477,2.223,125.814,0.509462,0.022642,0.972538,0.778419,-0.360987,-0.207592,0.14724,4.87091,3.18226,0,4.1,0,12625,49.548,25.789,12777.9
4692766135,0.63477,2.223,125.781,0.512592,0.0278031,0.971606,0.214563,0.0164014,-0.18845,0.0216854,5.33806,3.61059,0,4.1,0,12625,49.548,25.789,12777.9
4692866466,0.63477,2.223,125.752,0.49723,0.0279719,0.97062,-0.336013,0.39149,-0.151813,-0.00398875,5.33961,3.27094,0,4.1,0,12580,49.47,28.711,14203.3
4692966833,0.63477,2.223,125.718,0.466589,0.029994,0.972606,-0.849254,0.748691,-0.169136,0.0809199,5.08669,2.87358,0,4.1,0,12580,49.47,28.711,14203.3
4693067154,0.63477,2.223,125.69,0.431698,0.0332743,0.974799,-1.44821,1.17572,-0.0773877,0.260281,4.74369,3.8208,0,4.1,0,12580,49.47,28.711,14203.3
4693167416,0.63477,2.223,125.691,0.370758,0.0393898,0.978202,-1.89756,1.47063,-0.0208416,-0.0672896,4.5511,1.84759,0,4.1,0,12580,49.47,28.711,14203.3
4693267725,0.63477,2.223,125.7,0.288462,0.0435987,0.979185,-2.26268,1.6832,0.0541619,-0.230743,3.50233,1.79877,0,4.1,0,12580,49.47,28.711,14203.3
4693368053,0.63477,2.223,125.721,0.21486,0.045116,0.978626,-2.49116,1.82223,0.0945065,-0.218397,2.97197,0.96643,0,4.1,0,12580,49.47,28.711,14203.3
4693468354,0.63477,2.223,125.744,0.151419,0.0435391,0.977347,-2.73499,1.94876,0.0751427,-0.272889,1.93108,0.371316,0,4.1,0,12580,49.47,28.711,14203.3
4693568741,0.63477,2.223,125.777,0.106147,0.0420435,0.976216,-2.86709,2.0184,0.0717095,-0.218684,1.33242,-0.519495,0,4.1,0,12580,49.47,28.711,14203.3
4693669126,0.63477,2.223,125.82,0.0805741,0.0401426,0.975219,-2.95294,2.06,0.0591824,-0.20768,0.895343,-0.257293,0,1,0,12580,49.47,28.711,14203.3
4693769425,0.63477,2.223,125.846,0.0427299,0.0357326,0.9753,-3.03195,2.10104,0.0490189,-0.16917,0.941245,0.106968,0,1,0,12580,49.47,28.711,14203.3
4693869780,0.634769,2.223,125.872,-0.170904,0.0315781,0.968004,-3.03717,2.09974,0.11068,-0.101138,-0.351018,-0.237537,0,1,0,12580,49.688,24.439,12143.3
4693970144,0.634769,2.223,125.89,-0.360502,0.0308078,0.964673,-2.83319,1.96106,0.000347979,-0.0718063,-2.94272,-0.785124,0,1,0,12580,49.688,24.439,12143.3
4694070514,0.634769,2.223,125.899,-0.436049,0.028345,0.964281,-2.48496,1.73039,-0.0600756,0.0516552,-3.686,1.74832,0,1,0,12580,49.688,24.439,12143.3
4694170885,0.634769,2.223,125.888,-0.421311,0.025106,0.965767,-2.10012,1.46897,-0.0544146,0.025521,-3.94277,1.55049,0,1,0,12580,49.688,24.439,12143.3
4694271233,0.634769,2.223,125.878,-0.353692,0.025996,0.966527,-1.75338,1.23414,-0.0389253,0.0270551,-3.59844,1.03662,0,1,0,12580,49.688,24.439,12143.3
4694371585,0.634769,2.223,125.851,-0.283305,0.0285189,0.966943,-1.47372,1.05265,-0.0374949,0.0529883,-2.77594,1.19591,0,1,0,12580,49.688,24.439,12143.3
4694471945,0.634769,2.223,125.825,-0.212814,0.0327028,0.967152,-1.2699,0.906313,-0.0311686,-0.0498469,-2.06932,0.400194,0,1,0,12580,49.688,24.439,12143.3
4694572363,0.634769,2.223,125.837,-0.159395,0.0331036,0.967906,-1.11103,0.786124,-0.021926,-0.0312717,-1.50172,0.361279,0,1,0,12580,49.688,24.439,12143.3
4694672702,0.634769,2.223,125.846,-0.113557,0.0296429,0.969439,-1.01325,0.685348,-0.0369226,-0.219551,-0.96413,0.0333729,0,1,0,12580,49.688,24.439,12143.3
4694773041,0.634769,2.223,125.846,-0.0819376,0.0253169,0.970177,-0.94613,0.623798,-0.0237238,-0.050164,-0.490298,-0.0517835,0,1,0,12580,49.688,24.439,12143.3
4694873428,0.634769,2.223,125.842,-0.0606275,0.0235807,0.970749,-0.900318,0.582777,-0.0315488,-0.0936995,-0.243935,-0.470577,0,1,0,12537,49.827,23.97,11943.5
4694973735,0.634769,2.223,125.848,-0.0465471,0.0192779,0.970973,-0.87896,0.553043,0.00504387,-0.0622412,-0.0361763,0.330899,0,1,0,12537,49.827,23.97,11943.5
4695074060,0.634769,2.223,125.856,-0.0384604,0.0188054,0.971284,-0.856885,0.5364,-0.027215,-0.00772475,0.0164561,-0.348789,0,1,0,12537,49.827,23.97,11943.5
4695174407,0.634769,2.223,125.862,-0.0319145,0.0148157,0.971805,-0.840635,0.522047,-0.0314067,0.0594534,0.0641398,0.0270378,0,1,0,12537,49.827,23.97,11943.5
4695274747,0.634769,2.223,125.866,-0.0276256,0.00986335,0.971747,-0.83955,0.519673,-0.0299179,0.0453042,0.179972,0.339428,0,1,0,12537,49.827,23.97,11943.5
4695375110,0.634769,2.223,125.864,-0.024087,0.00715824,0.971994,-0.846067,0.530717,-0.00732625,0.0460067,0.299869,-0.372454,0,1,0,12537,49.827,23.97,11943.5
4695475455,0.634769,2.223,125.865,-0.0273647,0.00566528,0.971841,-0.849974,0.544898,-0.0387563,0.15419,0.179621,0.019244,0,1,0,12537,49.827,23.97,11943.5
4695575888,0.634769,2.223,125.854,-0.0283663,0.00884816,0.971251,-0.851824,0.569827,-0.0390275,0.220772,0.33568,0.778507,0,1,0,12537,49.827,23.97,11943.5
4695676358,0.634769,2.223,125.84,-0.0347055,0.0131852,0.97145,-0.865197,0.589135,-0.02103,0.129267,0.329167,0.58765,0,-4.3,0,12537,49.827,23.97,11943.5
4695776681,0.634769,2.223,125.837,-0.0756558,0.016208,0.972843,-0.883692,0.597696,-0.0364729,0.0456734,0.315258,0.340417,0,-4.3,0,12537,49.827,23.97,11943.5
4695876977,0.634769,2.223,125.834,-0.218243,0.0133812,0.969163,-0.841323,0.579197,-0.0192582,0.124657,-0.741974,-0.31518,0,-4.3,0,12537,49.591,25.301,12547
4695977315,0.634769,2.223,125.832,-0.337973,0.00896385,0.969632,-0.683389,0.485246,-0.0828012,0.143954,-1.89976,0.617139,0,-4.3,0,12537,49.591,25.301,12547
4696077659,0.634769,2.223,125.817,-0.41159,0.00768934,0.969665,-0.407597,0.310831,-0.0888299,0.0410751,-3.0886,1.17985,0,-4.3,0,12537,49.591,25.301,12547
4696177934,0.634769,2.223,125.8,-0.44672,0.00745725,0.969452,-0.0555472,0.0810917,-0.0392402,0.159049,-3.70857,1.62795,0,-4.3,0,12537,49.591,25.301,12547
4696278158,0.634769,2.223,125.79,-0.451211,0.00731709,0.969439,0.296587,-0.146072,-0.0509077,0.208047,-3.38358,2.67668,0,-4.3,0,12537,49.591,25.301,12547
4696378456,0.634769,2.223,125.767,-0.44581,0.00950173,0.969057,0.668068,-0.370839,-0.0206957,0.203424,-3.68809,1.8531,0,-4.3,0,12537,49.591,25.301,12547
4696478807,0.634769,2.223,125.745,-0.441697,0.0146424,0.966944,0.99023,-0.601109,-0.0368615,-0.0994558,-3.46897,1.7151,0,-4.3,0,12537,49.591,25.301,12547
4696579199,0.634769,2.223,125.737,-0.433805,0.0192025,0.96527,1.30277,-0.825961,-0.0353244,-0.0464751,-3.34885,1.89117,0,-4.3,0,12537,49.591,25.301,12547
4696679506,0.634769,2.223,125.733,-0.426998,0.0228975,0.964712,1.65709,-1.06295,-0.00701411,-0.000668595,-3.54361,2.07429,0,-4.3,0,12537,49.591,25.301,12547
4696779865,0.634769,2.223,125.729,-0.419517,0.021173,0.965944,1.97412,-1.2964,0.0225256,-0.0683661,-3.50591,1.43005,0,-4.3,0,12537,49.591,25.301,12547
4696880236,0.634769,2.223,125.73,-0.412897,0.0164353,0.967775,2.26317,-1.50711,0.00651075,0.0612785,-3.09899,1.53934,0,-4.3,0,12537,49.617,24.88,12344.7
4696980598,0.634769,2.223,125.739,-0.379572,0.0170171,0.967153,2.54721,-1.70268,0.0252567,-0.0872107,-2.79372,1.05751,0,-4.3,0,12537,49.617,24.88,12344.7
4697080938,0.634769,2.223,125.755,-0.340786,0.0201226,0.965154,2.80007,-1.87079,0.0559674,0.1779,-2.54004,1.22471,0,-4.3,0,12537,49.617,24.88,12344.7
4697181281,0.634769,2.223,125.764,-0.29514,0.0262385,0.964358,3.00673,-2.01465,0.0469782,-0.0102988,-2.17402,0.629647,0,-4.3,0,12537,49.617,24.88,12344.7
4697281636,0.634769,2.223,125.768,-0.25816,0.0274801,0.96482,3.16492,-2.14973,0.0678673,-0.129431,-1.69923,1.01744,0,-4.3,0,12537,49.617,24.88,12344.7
4697382021,0.63477,2.223,125.784,-0.229501,0.0260843,0.965478,3.26989,-2.25815,0.0406286,-0.250195,-1.33287,-0.0308373,0,-4.3,0,12537,49.617,24.88,12344.7
4697482425,0.63477,2.223,125.799,-0.204237,0.0240758,0.965666,3.36438,-2.33733,0.0325174,-0.119824,-1.09668,-0.0426294,0,-4.3,0,12537,49.617,24.88,12344.7
4697582766,0.63477,2.223,125.809,-0.18658,0.0223665,0.966079,3.44008,-2.41371,0.029131,-0.0901856,-0.856316,0.833375,0,-4.3,0,12537,49.617,24.88,12344.7
4697684057,0.63477,2.223,125.814,-0.169264,0.0141819,0.967363,3.49126,-2.46561,0.0221242,-0.0639191,-0.659486,-0.190027,0,2.8,0,12537,49.617,24.88,12344.7
4697785613,0.63477,2.223,125.822,-0.14343,0.0101729,0.966065,3.54984,-2.49029,0.0214742,0.314832,-0.556075,0.153747,0,2.8,0,12537,49.617,24.88,12344.7
4697885955,0.63477,2.223,125.823,0.0792401,0.0102261,0.968694,3.58988,-2.51314,0.0793811,0.165393,-0.205964,1.09803,0,2.8,0,12537,49.617,24.88,12344.7
4697986304,0.63477,2.223,125.839,0.306018,0.0264985,0.977302,3.36364,-2.36624,0.136381,-0.0799082,3.0674,-0.154478,0,2.8,0,12537,49.636,25.172,12494.4
4698086650,0.63477,2.223,125.838,0.415662,0.0405904,0.984311,2.97225,-2.15053,0.0367161,-0.333522,4.26503,1.41837,0,2.8,0,12537,49.636,25.172,12494.4
4698187011,0.63477,2.223,125.837,0.454192,0.0361226,0.98596,2.50464,-1.87223,0.04757,0.0522621,4.77248,1.96606,0,2.8,0,12537,49.636,25.172,12494.4
4698287350,0.63477,2.223,125.829,0.460702,0.0272264,0.983929,2.05572,-1.59227,-0.0350085,-0.0355888,4.61283,2.0908,0,2.8,0,12537,49.636,25.172,12494.4
4698387694,0.63477,2.223,125.807,0.469259,0.0256517,0.982788,1.58696,-1.3047,-0.0827647,-0.1614,4.93297,1.91072,0,2.8,0,12537,49.636,25.172,12494.4
4698488072,0.63477,2.223,125.778,0.482445,0.0185918,0.979211,1.09793,-0.989043,-0.112843,-0.040991,5.2765,1.87241,0,2.8,0,12537,49.636,25.172,12494.4
4698588408,0.63477,2.223,125.739,0.498726,0.0140776,0.976922,0.58932,-0.651897,-0.141765,-0.00152717,4.78194,3.53585,0,2.8,0,12537,49.636,25.172,12494.4
4698688757,0.63477,2.223,125.704,0.505444,0.0158391,0.976411,0.0543678,-0.291156,-0.145125,-0.184869,5.27749,2.85503,0,2.8,0,12537,49.636,25.172,12494.4
4698789112,0.63477,2.223,125.671,0.500395,0.000901267,0.967338,-0.482966,0.0561517,-0.153381,-0.173981,5.12958,3.4798,0,2.8,0,12537,49.636,25.172,12494.4
4698889480,0.63477,2.223,125.662,0.435975,-0.0185309,0.959675,-1.0968,0.518196,-0.123487,0.277519,4.9235,3.43217,0,2.8,0,12537,49.636,25.172,12494.4
4698989813,0.63477,2.223,125.663,0.336009,-0.0354645,0.95628,-1.49777,0.86282,-0.0885598,0.492695,4.35816,1.84877,0,2.8,0,12537,49.645,27.609,13706.5
4699090185,0.63477,2.223,125.667,0.219312,-0.0338361,0.960956,-1.77699,1.14618,-0.0439415,0.724021,3.14225,1.4743,0,2.8,0,12537,49.645,27.609,13706.5
4699190525,0.63477,2.223,125.676,0.122199,-0.0118287,0.968265,-1.96457,1.32217,0.0335223,0.46134,2.08021,0.533805,0,2.8,0,12537,49.645,27.609,13706.5
4699290878,0.63477,2.223,125.702,0.0544961,0.00624119,0.971337,-2.09418,1.42057,0.0420798,-0.0356105,1.44541,-1.38529,0,2.8,0,12537,49.645,27.609,13706.5
4699391746,0.63477,2.223,125.726,0.0136145,0.0160309,0.971894,-2.17487,1.46031,0.0547455,-0.103048,0.61922,0.556078,0,2.8,0,12537,49.645,27.609,13706.5
4699495445,0.63477,2.223,125.748,-0.00708565,0.019579,0.97153,-2.20841,1.49207,0.0945735,0.0143887,0.30377,0.0547294,0,2.8,0,12537,49.645,27.609,13706.5
4699595850,0.63477,2.223,125.771,-0.0166094,0.019051,0.971266,-2.22912,1.52281,0.0727606,0.0570022,0.231543,-0.165301,0,2.8,0,12537,49.645,27.609,13706.5
4699697523,0.63477,2.223,125.776,-0.0209156,0.0181071,0.97156,-2.24351,1.54228,0.0620414,-0.0625513,0.170586,-0.329454,0,0.7,0,12537,49.645,27.609,13706.5
4699801104,0.63477,2.223,125.776,-0.061948,0.0146213,0.973514,-2.24109,1.54404,0.0445165,-0.0135902,0.133103,0.413841,0,0.7,0,12537,49.645,27.609,13706.5
4699905345,0.63477,2.223,125.778,-0.214527,0.0124712,0.970413,-2.19433,1.49423,0.0901269,-0.226212,-0.997244,-0.326986,0,0.7,0,12537,49.645,27.609,13706.5
4700005713,0.63477,2.223,125.778,-0.317317,0.00946815,0.970297,-2.00318,1.34688,0.000882361,-0.140498,-2.18576,0.375732,0,0.7,0,12537,49.893,23.345,11647.5
4700106062,0.63477,2.223,125.766,-0.353354,0.00804509,0.970327,-1.71968,1.16798,-0.00980772,0.0654306,-3.08517,1.05574,0,0.7,0,12537,49.893,23.345,11647.5
4700206441,0.634769,2.223,125.76,-0.327214,0.00911168,0.970833,-1.40506,0.967985,0.00134394,0.0784205,-3.17053,1.17826,0,0.7,0,12537,49.893,23.345,11647.5
4700306791,0.634769,2.223,125.752,-0.271959,0.0105181,0.970741,-1.14102,0.795975,0.0107306,0.0652348,-2.56562,1.06856,0,0.7,0,12537,49.893,23.345,11647.5
4700407147,0.634769,2.223,125.739,-0.215398,0.0124241,0.970712,-0.930182,0.651461,0.00724391,-0.0602729,-1.60221,0.56078,0,0.7,0,12537,49.893,23.345,11647.5
4700507495,0.634769,2.223,125.748,-0.172297,0.01207,0.970607,-0.785818,0.550383,0.0208165,-0.0357301,-1.43305,0.0763035,0,0.7,0,12537,49.893,23.345,11647.5
4700607838,0.634769,2.223,125.768,-0.13373,0.0124856,0.970856,-0.664619,0.481502,0.0084783,0.133823,-1.10736,-0.068239,0,0.7,0,12537,49.893,23.345,11647.5
4700708252,0.634769,2.223,125.775,-0.102275,0.0125719,0.971122,-0.581507,0.434608,0.0318846,0.136649,-0.598471,0.264459,0,0.7,0,12537,49.893,23.345,11647.5
4700808575,0.63477,2.223,125.782,-0.0775292,0.0127423,0.971197,-0.51576,0.400163,0.0135613,0.0891267,-0.483977,-0.511764,0,0.7,0,12537,49.893,23.345,11647.5
4700908944,0.63477,2.223,125.801,-0.0597472,0.0135868,0.971119,-0.488475,0.376708,0.0362915,-0.0445341,-0.0927076,-0.0122275,0,0.7,0,12537,49.893,23.345,11647.5
4701009293,0.63477,2.223,125.821,-0.0513394,0.0120482,0.971036,-0.459448,0.366701,0.0259137,0.0642126,-0.0532164,-0.407001,0,0.7,0,12537,49.713,24.204,12032.5
4701109637,0.63477,2.223,125.821,-0.0443303,0.0112612,0.971017,-0.431112,0.356474,-0.0104915,0.143919,-0.113693,0.0928648,0,0.7,0,12537,49.713,24.204,12032.5
4701209987,0.63477,2.223,125.817,-0.0395759,0.0115469,0.97053,-0.434504,0.341484,0.00186456,-0.0619894,0.0746166,0.161651,0,0.7,0,12537,49.713,24.204,12032.5
4701310342,0.63477,2.223,125.821,-0.0381159,0.0104724,0.970269,-0.430706,0.345921,-0.0240632,0.0884184,0.0829433,0.0697636,0,0.7,0,12537,49.713,24.204,12032.5
4701410701,0.63477,2.223,125.824,-0.0379112,0.0165607,0.970702,-0.420489,0.345844,3.50513e-05,0.0460873,0.00951598,-0.159563,0,0.7,0,12537,49.713,24.204,12032.5
4701511070,0.634769,2.223,125.816,-0.0360094,0.0204118,0.970998,-0.43388,0.333289,-0.0154317,-0.142855,0.0946127,-0.266596,0,0.7,0,12537,49.713,24.204,12032.5
4701611432,0.634769,2.223,125.807,-0.0335247,0.0228131,0.971354,-0.432213,0.325948,-0.020778,-0.0947349,-0.0040832,0.0910089,0,0.7,0,12537,49.713,24.204,12032.5
4701711790,0.634769,2.223,125.802,-0.0321069,0.021488,0.971879,-0.444466,0.314006,-0.0251015,-0.128772,0.0147743,-0.836545,0,-1.8,0,12537,49.713,24.204,12032.5
4701812406,0.634769,2.223,125.802,-0.0600935,0.0189279,0.974205,-0.461809,0.314122,-0.0187704,-0.0667858,0.230548,0.756506,0,-1.8,0,12537,49.713,24.204,12032.5
4701912822,0.634769,2.223,125.796,-0.202795,0.0157127,0.970388,-0.455757,0.287321,0.0252681,-0.0769579,-0.684424,-1.03296,0,-1.8,0,12537,49.713,24.204,12032.5
4702013234,0.634769,2.223,125.795,-0.328818,0.0133254,0.96891,-0.268455,0.193749,-0.0348337,0.131637,-2.22177,0.00405335,0,-1.8,0,12521,49.526,25.975,12864.4
4702113592,0.634769,2.223,125.793,-0.405918,0.013332,0.968106,-0.0269141,-0.0175547,-0.0562941,-0.265689,-3.25425,0.982754,0,-1.8,0,12521,49.526,25.975,12864.4
4702213965,0.634769,2.223,125.785,-0.416484,0.0100348,0.968029,0.297715,-0.250177,-0.0242825,0.13183,-3.38553,2.53613,0,-1.8,0,12521,49.526,25.975,12864.4
4702314313,0.634769,2.223,125.769,-0.380578,0.0110633,0.967429,0.597667,-0.464282,-0.0102993,0.00635617,-3.3835,1.32553,0,-1.8,0,12521,49.526,25.975,12864.4
4702414672,0.634769,2.223,125.746,-0.328993,0.00873595,0.968324,0.857202,-0.657013,-0.00837092,-0.028845,-2.87004,1.28564,0,-1.8,0,12521,49.526,25.975,12864.4
4702515023,0.634769,2.223,125.743,-0.275003,0.00504914,0.969315,1.06838,-0.812774,0.0068549,0.00256461,-2.369,0.863448,0,-1.8,0,12521,49.526,25.975,12864.4
4702615364,0.634769,2.223,125.74,-0.224907,0.00263728,0.969298,1.22409,-0.939326,-0.00437052,-0.0556511,-1.81944,0.719476,0,-1.8,0,12521,49.526,25.975,12864.4
4702715697,0.63477,2.223,125.731,-0.189965,-0.00138928,0.969809,1.33097,-1.01314,0.0197629,0.0822233,-1.24018,0.131607,0,-1.8,0,12521,49.526,25.975,12864.4
4702816081,0.63477,2.223,125.729,-0.161255,-0.00564422,0.970546,1.42516,-1.07806,0.0280706,0.286869,-1.0173,0.719264,0,-1.8,0,12521,49.526,25.975,12864.4
4702916428,0.63477,2.223,125.739,-0.13649,-0.00158054,0.969998,1.49584,-1.11414,0.0176777,0.232665,-0.749571,-0.247689,0,-1.8,0,12521,49.526,25.975,12864.4
4703016771,0.63477,2.223,125.745,-0.118682,0.00186164,0.969401,1.57161,-1.14663,0.0145847,0.134548,-0.697958,0.0606228,0,-1.8,0,12521,49.601,24.127,11967.2
4703117087,0.63477,2.223,125.754,-0.100346,0.000618398,0.969901,1.6179,-1.16935,0.0373928,0.160175,-0.439785,0.168289,0,-1.8,0,12521,49.601,24.127,11967.2
4703217445,0.63477,2.223,125.757,-0.0917937,0.000415478,0.970228,1.62731,-1.19117,0.00605642,-0.0837552,-0.224313,-0.78581,0,-1.8,0,12521,49.601,24.127,11967.2
4703317812,0.63477,2.223,125.75,-0.0864153,-0.00370963,0.97022,1.65102,-1.20062,-0.00785741,0.116695,-0.217467,0.636641,0,-1.8,0,12521,49.601,24.127,11967.2
4703418137,0.63477,2.223,125.747,-0.0842772,-0.00324699,0.969718,1.67201,-1.20525,0.0181579,0.187824,-0.211371,0.00126595,0,-1.8,0,12521,49.601,24.127,11967.2
4703518511,0.63477,2.223,125.749,-0.0819561,-0.0010385,0.969744,1.68243,-1.18836,0.0195756,0.262787,0.00810767,0.536857,0,-1.8,0,12521,49.601,24.127,11967.2
4703618865,0.63477,2.223,125.747,-0.0802264,0.00130204,0.96961,1.69302,-1.18162,0.0214979,0.166332,-0.149246,-0.411572,0,-1.8,0,12521,49.601,24.127,11967.2
4703719282,0.63477,2.223,125.746,-0.077886,0.00244489,0.969833,1.68777,-1.17511,0.00415491,0.0946893,0.0152362,0.304283,0,-4.7,0,12521,49.601,24.127,11967.2
4703819651,0.63477,2.223,125.741,-0.0933589,0.00249161,0.971658,1.67657,-1.16964,-0.0126647,0.0779247,0.0327372,0.251906,0,-4.7,0,12521,49.601,24.127,11967.2
4703922012,0.63477,2.223,125.73,-0.195814,0.00189007,0.97042,1.72722,-1.15173,0.024528,0.500289,-0.697856,-0.234149,0,-4.7,0,12521,49.601,24.127,11967.2
4704028084,0.63477,2.223,125.717,-0.307222,0.00609363,0.968442,1.87503,-1.26462,-0.0292901,-0.00626339,-1.72049,0.496801,0,-4.7,0,12521,49.588,25.673,12730.7
4704128475,0.63477,2.223,125.714,-0.378478,0.009544,0.967537,2.12045,-1.42613,-0.00709147,0.188666,-2.82238,1.05823,0,-4.7,0,12521,49.588,25.673,12730.7
4704228842,0.63477,2.223,125.719,-0.419602,0.0130457,0.966222,2.36124,-1.6222,-0.0531959,-0.081327,-2.944,1.41064,0,-4.7,0,12521,49.588,25.673,12730.7
4704329194,0.63477,2.223,125.716,-0.433005,0.0152396,0.965808,2.65888,-1.82927,-0.0241165,-0.248724,-3.02816,2.10519,0,-4.7,0,12521,49.588,25.673,12730.7
4704429547,0.63477,2.223,125.718,-0.415556,0.0118874,0.96785,2.95196,-2.05094,0.0111153,-0.0683372,-3.15406,1.48574,0,-4.7,0,12521,49.588,25.673,12730.7
4704530912,0.63477,2.223,125.721,-0.373733,0.0110795,0.968192,3.2045,-2.22331,-0.00568252,0.111303,-2.70849,1.18011,0,-4.7,0,12521,49.588,25.673,12730.7
4704631744,0.63477,2.223,125.721,-0.332789,0.0124081,0.967762,3.43845,-2.35794,0.0192203,0.183943,-2.36931,1.27739,0,-4.7,0,12521,49.588,25.673,12730.7
4704732149,0.63477,2.223,125.728,-0.289269,0.0135166,0.967724,3.60884,-2.49879,0.0498704,-0.136426,-1.96341,0.555284,0,-4.7,0,12521,49.588,25.673,12730.7
4704832472,0.63477,2.223,125.743,-0.250317,0.0100843,0.968128,3.74383,-2.59661,0.0476202,0.0560273,-1.48643,0.54216,0,-4.7,0,12521,49.588,25.673,12730.7
4704932788,0.63477,2.223,125.759,-0.220051,0.00583512,0.968765,3.85072,-2.684,0.0924757,-0.0411936,-1.1365,0.55184,0,-4.7,0,12521,49.588,25.673,12730.7
4705033100,0.63477,2.223,125.78,-0.199039,0.000345014,0.970508,3.93961,-2.73795,0.0736895,0.170994,-0.949774,0.118212,0,-4.7,0,12521,49.588,25.673,12730.7
4705133515,0.63477,2.223,125.805,-0.184459,0.000401624,0.97165,4.00786,-2.77251,0.0770121,0.16489,-0.664594,0.113968,0,-4.7,0,12521,49.526,25.673,12714.8
4705235442,0.634771,2.223,125.833,-0.168876,0.0036443,0.971238,4.08315,-2.78168,0.0526734,0.351822,-0.602684,0.12527,0,-4.7,0,12521,49.526,25.673,12714.8
4705335761,0.634771,2.223,125.84,-0.157919,0.00582319,0.97038,4.13976,-2.79012,0.0324364,0.441703,-0.524009,-0.0551543,0,-4.7,0,12521,49.526,25.673,12714.8
4705436198,0.634771,2.223,125.844,-0.146073,0.0119236,0.968818,4.1825,-2.80856,0.024206,0.114083,-0.437015,-0.0755383,0,-4.7,0,12521,49.526,25.673,12714.8
4705536560,0.634771,2.223,125.846,-0.140048,0.0145413,0.968449,4.19074,-2.84432,0.00969054,-0.160134,-0.353362,-0.463884,0,-4.7,0,12521,49.526,25.673,12714.8
4705636920,0.634771,2.223,125.839,-0.129674,0.0126629,0.968473,4.20992,-2.8533,-0.00793614,0.115004,-0.252048,-0.00895691,0,-4.7,0,12521,49.526,25.673,12714.8
4705737269,0.634771,2.223,125.838,-0.12553,0.0153439,0.968057,4.21652,-2.85,-0.033366,0.154549,-0.0805575,-0.129333,0,1.2,0,12521,49.526,25.673,12714.8
4705837624,0.634771,2.223,125.839,-0.0850363,0.0160052,0.965293,4.21481,-2.85401,-0.0402764,-0.0576141,-0.0375582,0.508094,0,1.2,0,12521,49.526,25.673,12714.8
4705937980,0.634771,2.223,125.837,0.147907,0.0132186,0.970673,4.17121,-2.83739,0.0635844,0.000814169,0.678801,1.05862,0,1.2,0,12521,49.526,25.673,12714.8
4706038317,0.634771,2.223,125.845,0.325349,0.0235166,0.975393,3.88365,-2.66145,0.0787452,-0.0422706,3.39071,0.348173,0,1.2,0,12521,49.526,25.673,12714.8
4706138685,0.634771,2.223,125.844,0.405976,0.0357855,0.982106,3.48615,-2.42728,0.0128235,-0.250408,3.98918,2.60737,0,1.2,0,12521,49.523,24.825,12294.1
4706239040,0.634771,2.223,125.838,0.442931,0.0416343,0.986091,3.061,-2.13819,-0.0340348,0.0097288,4.75158,1.47148,0,1.2,0,12521,49.523,24.825,12294.1
4706339379,0.634771,2.223,125.826,0.46778,0.0485821,0.989406,2.57876,-1.84809,-0.0643712,-0.32433,5.06602,2.26983,0,1.2,0,12521,49.523,24.825,12294.1
4706439768,0.634771,2.223,125.817,0.481785,0.0485031,0.989235,2.05375,-1.58719,-0.106985,-0.486218,5.04203,2.68673,0,1.2,0,12521,49.523,24.825,12294.1
4706540133,0.634771,2.223,125.794,0.490371,0.0444942,0.988677,1.50016,-1.2996,-0.120033,-0.560656,5.00938,3.12359,0,1.2,0,12521,49.523,24.825,12294.1
4706640480,0.634771,2.223,125.76,0.477606,0.0339387,0.985098,0.961413,-0.97942,-0.122278,-0.212791,5.28291,2.81735,0,1.2,0,12521,49.523,24.825,12294.1
4706740829,0.634771,2.223,125.746,0.417634,0.0158706,0.977859,0.465363,-0.645961,-0.0932048,-0.0163888,4.73618,3.34565,0,1.2,0,12521,49.523,24.825,12294.1
4706841991,0.634771,2.223,125.737,0.328791,-0.00902547,0.970191,0.04022,-0.332748,-0.0514409,0.315993,4.44728,1.59198,0,1.2,0,12521,49.523,24.825,12294.1
4706947285,0.634771,2.223,125.735,0.234442,-0.0250691,0.967763,-0.309649,-0.0360256,-0.0497951,0.326148,3.17627,0.97304,0,1.2,0,12521,49.523,24.825,12294.1
4707047643,0.634771,2.223,125.738,0.144885,-0.0325026,0.968414,-0.503524,0.165484,-0.031471,0.434408,2.22945,0.221744,0,1.2,0,12521,49.523,24.825,12294.1
4707148041,0.634771,2.223,125.752,0.0759473,-0.031303,0.969828,-0.654443,0.260886,0.00101483,-0.0680569,1.34271,0.617568,0,1.2,0,12521,49.516,24.743,12251.7
4707248406,0.634771,2.223,125.769,0.0303966,-0.0330939,0.971365,-0.748612,0.34862,0.0190196,0.291424,0.913623,0.421046,0,1.2,0,12521,49.516,24.743,12251.7
4707348795,0.634771,2.223,125.785,0.00291997,-0.0270489,0.972423,-0.789634,0.430974,0.0295305,0.403387,0.585358,-0.259851,0,1.2,0,12521,49.516,24.743,12251.7
4707450623,0.634771,2.223,125.803,-0.0161013,-0.0228707,0.972689,-0.813226,0.493514,0.0346607,0.331788,0.363975,0.0923649,0,1.2,0,12521,49.516,24.743,12251.7
4707555520,0.634771,2.223,125.808,-0.026785,-0.0167711,0.972342,-0.816872,0.539587,0.0304965,0.284098,0.205616,-0.168938,0,1.2,0,12521,49.516,24.743,12251.7
4707655918,0.634771,2.223,125.811,-0.0336388,-0.0100443,0.971992,-0.814183,0.569619,0.0142201,0.247906,0.136755,-0.223243,0,1.2,0,12521,49.516,24.743,12251.7
4707756468,0.634771,2.223,125.813,-0.034989,-0.00192181,0.971411,-0.799151,0.58898,0.0128531,0.190404,0.0167788,-0.17836,0,-2.7,0,12521,49.516,24.743,12251.7
4707856831,0.634771,2.223,125.817,-0.0636504,0.0068284,0.9729,-0.803564,0.599845,0.0119232,-0.0355293,0.210035,0.222519,0,-2.7,0,12521,49.516,24.743,12251.7
4707957189,0.634771,2.223,125.813,-0.218417,0.0115786,0.970132,-0.790067,0.57158,0.0145334,-0.247881,-0.546075,-0.642007,0,-2.7,0,12521,49.516,24.743,12251.7
4708057530,0.634771,2.223,125.805,-0.357307,0.0127786,0.967837,-0.610212,0.45592,-0.0598359,-0.0330253,-2.31598,-0.0284604,0,-2.7,0,12521,49.516,24.743,12251.7
4708157907,0.634771,2.223,125.798,-0.442584,0.0125838,0.966514,-0.311624,0.224515,-0.0984793,-0.275509,-3.26366,1.80986,0,-2.7,0,12521,49.516,24.743,12251.7
4708258280,0.634771,2.223,125.789,-0.478565,0.0104984,0.966665,0.0629876,-0.0493766,-0.0315943,-0.142513,-3.92609,2.04,0,-2.7,0,12521,49.516,24.743,12251.7
4708358633,0.634771,2.223,125.769,-0.486088,0.0105855,0.966887,0.450861,-0.34391,-0.0373797,-0.371319,-4.03937,2.45796,0,-2.7,0,12521,49.516,24.743,12251.7
4708459000,0.634771,2.223,125.739,-0.473104,0.00789113,0.967419,0.851704,-0.629618,-0.0289171,-0.0915598,-4.1004,2.36953,0,-2.7,0,12521,49.516,24.743,12251.7
4708559347,0.634771,2.223,125.73,-0.414382,0.00590434,0.967831,1.2451,-0.896767,-0.0187769,-0.0349019,-3.69942,2.22507,0,-2.7,0,12521,49.516,24.743,12251.7
4708659697,0.634771,2.223,125.729,-0.344382,0.000110552,0.969811,1.56852,-1.12387,0.0336175,-0.012247,-3.35522,0.951658,0,-2.7,0,12493,49.775,21.291,10597.6
4708760087,0.634771,2.223,125.734,-0.279375,-0.00383745,0.971691,1.82521,-1.30321,0.0432535,0.0192029,-2.43691,1.2081,0,-2.7,0,12493,49.775,21.291,10597.6
4708860399,0.634771,2.223,125.74,-0.222836,-0.00720186,0.9726,2.01076,-1.42268,0.0569739,0.0381613,-1.68934,0.446495,0,-2.7,0,12493,49.775,21.291,10597.6
4708960750,0.634771,2.223,125.771,-0.18486,-0.00865852,0.973204,2.15863,-1.5109,0.0694844,0.193848,-1.28276,0.504909,0,-2.7,0,12493,49.775,21.291,10597.6
4709062379,0.634771,2.223,125.812,-0.158422,-0.00802758,0.972717,2.27742,-1.5784,0.0442595,0.178931,-1.08719,-0.338539,0,-2.7,0,12493,49.775,21.291,10597.6
4709167987,0.634771,2.223,125.838,-0.133174,-0.00673368,0.972268,2.367,-1.63759,0.0121693,0.0708944,-0.688822,-0.587769,0,-2.7,0,12493,49.775,21.291,10597.6
4709272711,0.634771,2.223,125.862,-0.109903,-0.00561668,0.971985,2.41776,-1.6722,0.000711389,0.00245069,-0.368681,-0.388257,0,-2.7,0,12493,49.775,21.291,10597.6
4709373206,0.634771,2.223,125.88,-0.0943897,-0.00637083,0.971871,2.45624,-1.68133,0.0211058,0.207443,-0.212742,-0.17905,0,-2.7,0,12493,49.775,21.291,10597.6
4709473592,0.634771,2.223,125.899,-0.0841535,-0.00784764,0.971819,2.47194,-1.6848,0.00118385,0.096596,-0.0827772,-0.518482,0,-2.7,0,12493,49.775,21.291,10597.6
4709573964,0.634772,2.223,125.909,-0.0805412,-0.0093038,0.971846,2.4978,-1.66989,-0.0150196,0.412298,-0.14728,-0.355666,0,-2.7,0,12493,49.775,21.291,10597.6
4709674320,0.634772,2.223,125.913,-0.075239,-0.0041023,0.971977,2.49734,-1.65971,-0.0144418,0.0928,0.0766937,-0.202665,0,-2.7,0,12493,49.573,26.366,13070.4
4709774712,0.634772,2.223,125.915,-0.0749017,-0.00285422,0.971501,2.48285,-1.6513,-0.0331596,-0.105881,0.169128,0.39134,0,-3.9,0,12493,49.573,26.366,13070.4
4709875047,0.634772,2.223,125.918,-0.0901707,-0.0025395,0.973057,2.45944,-1.6525,-0.0368429,-0.0211959,0.189282,-0.102524,0,-3.9,0,12493,49.573,26.366,13070.4
4709975426,0.634772,2.223,125.911,-0.157563,0.00110144,0.971717,2.45928,-1.65407,-0.0505395,-0.0142425,-0.258828,0.121913,0,-3.9,0,12493,49.573,26.366,13070.4
4710075820,0.634772,2.223,125.901,-0.230169,0.00182334,0.971419,2.49549,-1.72357,-0.0753123,-0.290548,-0.910744,-0.32195,0,-3.9,0,12493,49.573,26.366,13070.4
4710176212,0.634772,2.223,125.896,-0.269487,0.00390799,0.970609,2.5987,-1.80165,-0.105358,-0.0280657,-1.4787,-0.11462,0,-3.9,0,12493,49.573,26.366,13070.4
4710276580,0.634772,2.223,125.887,-0.277169,0.0100536,0.968854,2.75432,-1.86368,-0.122454,0.258431,-1.78864,0.47236,0,-3.9,0,12493,49.573,26.366,13070.4
4710376942,0.634772,2.223,125.878,-0.257995,0.012762,0.967924,2.89332,-1.98266,-0.0867696,-0.000478367,-1.62912,1.39331,0,-3.9,0,12493,49.573,26.366,13070.4
4710477313,0.634772,2.223,125.868,-0.2368,0.0113591,0.967766,3.01892,-2.05912,-0.0503286,-0.0227234,-1.43206,0.284027,0,-3.9,0,12493,49.573,26.366,13070.4
4710577614,0.634772,2.223,125.86,-0.216804,0.00738143,0.968795,3.11236,-2.13309,-0.0650867,-0.0340516,-1.22947,0.408591,0,-3.9,0,12493,49.573,26.366,13070.4
4710677978,0.634772,2.223,125.848,-0.196126,0.00439895,0.96942,3.19869,-2.20128,-0.0431219,-0.049936,-1.0091,0.505296,0,-3.9,0,12449,49.503,26.91,13321.3
4710778381,0.634772,2.223,125.852,-0.177,0.00274053,0.97026,3.26635,-2.24378,-0.0506124,0.0488542,-0.853009,-0.189544,0,-3.9,0,12449,49.503,26.91,13321.3
4710879293,0.634772,2.223,125.861,-0.161246,0.00212288,0.970384,3.31691,-2.27071,-0.035505,0.19682,-0.352125,0.281862,0,-3.9,0,12449,49.503,26.91,13321.3
4710984590,0.634772,2.223,125.861,-0.149544,0.000392709,0.97118,3.36338,-2.30149,-0.00926244,0.095657,-0.470377,-0.253885,0,-3.9,0,12449,49.503,26.91,13321.3
4711088707,0.634772,2.223,125.866,-0.141846,-0.00415352,0.972079,3.39395,-2.31133,-3.83779e-05,0.318423,-0.372887,0.193598,0,-3.9,0,12449,49.503,26.91,13321.3
4711189078,0.634772,2.223,125.877,-0.132506,-0.00225616,0.972187,3.44152,-2.32152,-0.00162596,0.291932,-0.284341,0.839325,0,-3.9,0,12449,49.503,26.91,13321.3
4711289494,0.634772,2.223,125.885,-0.127659,-0.00139523,0.97209,3.46641,-2.33262,-0.029369,0.0976885,-0.147871,0.429882,0,-3.9,0,12449,49.503,26.91,13321.3
4711389839,0.634772,2.223,125.895,-0.121328,0.0026189,0.971431,3.49472,-2.32726,-0.0108934,0.163215,-0.241064,-1.09919,0,-3.9,0,12449,49.503,26.91,13321.3
4711490186,0.634772,2.223,125.897,-0.118501,0.00461039,0.971425,3.50288,-2.34134,-0.0237742,-0.171128,-0.061278,-0.266107,0,-3.9,0,12449,49.503,26.91,13321.3
4711590543,0.634772,2.223,125.9,-0.11459,0.00469877,0.970953,3.51447,-2.35369,-0.0398402,0.0572354,-0.161979,-0.248278,0,-3.9,0,12449,49.503,26.91,13321.3
4711690914,0.634773,2.223,125.898,-0.110799,0.00402293,0.970889,3.53143,-2.36495,-0.0428787,0.0874654,-0.283175,-0.667503,0,-3.9,0,12449,49.542,24.873,12322.6
4711791303,0.634773,2.223,125.897,-0.1049,0.00448319,0.970793,3.5492,-2.36872,-0.0503486,0.0828379,-0.0834686,0.245445,0,3.6,0,12449,49.542,24.873,12322.6
4711891654,0.634773,2.223,125.896,-0.0780305,0.00475298,0.96771,3.55294,-2.38502,-0.0517804,-0.0398968,-0.194443,0.603935,0,3.6,0,12449,49.542,24.873,12322.6
4711992050,0.634773,2.223,125.906,0.127207,-0.00179235,0.969375,3.51221,-2.36378,0.0541122,0.0490784,0.798416,0.631686,0,3.6,0,12449,49.542,24.873,12322.6
4712092459,0.634773,2.223,125.918,0.310983,0.00643974,0.971873,3.25627,-2.17523,0.0361665,0.084741,3.34569,-0.0389374,0,3.6,0,12449,49.542,24.873,12322.6
4712192810,0.634773,2.223,125.914,0.393786,0.0129331,0.974115,2.87949,-1.92422,-0.00889162,0.121259,4.24714,1.72029,0,3.6,0,12449,49.542,24.873,12322.6
4712293133,0.634773,2.223,125.909,0.438942,0.0184087,0.977261,2.4545,-1.63178,-0.0350888,0.0942228,4.88007,1.64505,0,3.6,0,12449,49.542,24.873,12322.6
