timestamp,lat,log,alt,roll,pitch,yaw,vel_x,vel_y,vel_z,acc_x,acc_y,acc_z,act_vx,act_vy,act_yr,capacity,vol,cur,power
2672591136,0.634769,2.223,95.5719,-0.0206557,0.0143877,0.937761,-0.0082112,-0.00905031,-0.0396041,0.0347087,0.00496133,-0.143478,-3.9,-2.8,0,12813,49.734,23.476,11675.6
2672691727,0.634769,2.223,95.5786,-0.0211929,0.0143219,0.937685,-0.0160074,-0.0079357,-0.0315389,-0.00755746,0.0751283,-0.0219125,-3.9,-2.8,0,12813,49.734,23.476,11675.6
2672792146,0.634769,2.223,95.573,-0.0270382,0.0216974,0.936112,-0.0189787,-0.00863354,-0.039675,-0.0387935,0.0113963,-0.124466,-3.9,-2.8,0,12813,49.718,23.91,11887.6
2672892601,0.634769,2.223,95.5658,-0.0927966,0.126884,0.930282,-0.0159284,-0.021611,-0.0026834,-0.365146,-0.204062,0.277033,-3.9,-2.8,0,12813,49.718,23.91,11887.6
2672992975,0.634769,2.223,95.5678,-0.18237,0.242327,0.914553,-0.0271186,-0.213455,-0.0432999,-1.79251,-1.20926,-0.330948,-3.9,-2.8,0,12813,49.718,23.91,11887.6
2673093356,0.634769,2.223,95.5627,-0.240177,0.306788,0.900466,-0.0372336,-0.534418,-0.0798675,-2.51432,-1.68844,1.28181,-3.9,-2.8,0,12813,49.718,23.91,11887.6
2673193717,0.634769,2.223,95.5678,-0.269217,0.338327,0.891612,-0.0417795,-0.94892,-0.0562791,-2.93924,-2.09188,1.8943,-3.9,-2.8,0,12813,49.718,23.91,11887.6
2673294084,0.634769,2.223,95.5763,-0.274497,0.34441,0.889562,-0.0506521,-1.37426,-0.0296917,-3.03467,-2.14147,1.82121,-3.9,-2.8,0,12813,49.718,23.91,11887.6
2673394435,0.634769,2.223,95.5862,-0.269856,0.339698,0.8902,-0.0635218,-1.78273,-0.0376523,-3.04053,-2.12134,1.60559,-3.9,-2.8,0,12813,49.718,23.91,11887.6
2673494829,0.634769,2.223,95.5871,-0.266439,0.333649,0.89045,-0.069822,-2.18279,-0.0416649,-2.85905,-2.02558,1.77671,-3.9,-2.8,0,12813,49.718,23.91,11887.6
2673595244,0.634769,2.223,95.5867,-0.265124,0.326444,0.891258,-0.0709074,-2.57454,-0.0406207,-2.7704,-2.06441,1.54786,4.1,3.6,0,12813,49.718,23.91,11887.6
2673695620,0.634769,2.223,95.5922,-0.236697,0.287799,0.9038,-0.0688764,-2.95706,-0.0399254,-2.82463,-2.09919,1.35121,4.1,3.6,0,12813,49.718,23.91,11887.6
2673795997,0.634769,2.223,95.5957,-0.0623376,0.0627655,0.936257,-0.0614124,-3.27958,0.0183745,-1.88288,-1.52363,1.1251,4.1,3.6,0,12802,49.694,23.969,11911.2
2673896418,0.634769,2.223,95.6075,0.139252,-0.175212,0.92252,-0.0555133,-3.19148,0.0635048,1.26371,0.805032,0.197719,4.1,3.6,0,12802,49.694,23.969,11911.2
2673996783,0.634769,2.223,95.6223,0.258251,-0.305098,0.893975,-0.0674541,-2.82224,-0.0252795,3.11901,2.48964,0.310529,4.1,3.6,0,12802,49.694,23.969,11911.2
2674097139,0.634769,2.223,95.6156,0.311753,-0.355744,0.877568,-0.100518,-2.35159,-0.101774,3.42656,2.94354,2.06293,4.1,3.6,0,12802,49.694,23.969,11911.2
2674197506,0.634769,2.223,95.5846,0.326762,-0.370259,0.872369,-0.125776,-1.78873,-0.126881,3.88514,3.19567,2.56262,4.1,3.6,0,12802,49.694,23.969,11911.2
2674297876,0.634769,2.223,95.5524,0.320573,-0.369441,0.872881,-0.15683,-1.19472,-0.126508,3.91217,3.2008,3.1047,4.1,3.6,0,12802,49.694,23.969,11911.2
2674398231,0.634769,2.223,95.5197,0.306984,-0.361602,0.87513,-0.174521,-0.595626,-0.0893539,4.00008,3.1209,3.09986,4.1,3.6,0,12802,49.694,23.969,11911.2
2674498538,0.634769,2.223,95.5005,0.290872,-0.347728,0.879887,-0.191557,-0.0322031,-0.065751,3.78188,2.95435,2.65691,4.1,3.6,0,12802,49.694,23.969,11911.2
2674598949,0.634769,2.223,95.4961,0.277746,-0.337424,0.883994,-0.195587,0.502188,-0.0444275,3.56828,2.72256,2.45556,-1.8,3.8,0,12802,49.694,23.969,11911.2
2674699314,0.634769,2.223,95.4935,0.265473,-0.29554,0.891483,-0.205018,1.02448,-0.0347734,3.56438,2.66167,2.17337,-1.8,3.8,0,12802,49.694,23.969,11911.2
2674799672,0.634769,2.223,95.5032,0.250987,-0.0625984,0.912564,-0.236211,1.5144,0.0809918,2.866,2.64782,1.63295,-1.8,3.8,0,12802,49.687,25.39,12615.5
2674899984,0.634769,2.223,95.5271,0.255102,0.170755,0.945971,-0.448831,1.68298,0.0584933,-0.58794,2.63745,-0.271995,-1.8,3.8,0,12802,49.687,25.39,12615.5
2675000291,0.634769,2.223,95.5462,0.264138,0.292217,0.972895,-0.76888,1.6781,-0.0361744,-2.22392,2.34056,0.835848,-1.8,3.8,0,12802,49.687,25.39,12615.5
2675100659,0.634769,2.223,95.5526,0.267534,0.352203,0.990272,-1.19097,1.59422,-0.0492278,-3.09903,2.45023,1.95371,-1.8,3.8,0,12802,49.687,25.39,12615.5
2675201041,0.634769,2.223,95.5811,0.265138,0.373322,0.999157,-1.63533,1.46301,-0.0551289,-3.49632,2.34781,1.8598,-1.8,3.8,0,12802,49.687,25.39,12615.5
2675301358,0.634769,2.223,95.6135,0.261825,0.375862,1.00279,-2.07972,1.32653,-0.0509855,-3.42832,2.37407,1.80618,-1.8,3.8,0,12802,49.687,25.39,12615.5
2675401655,0.634769,2.223,95.6064,0.241038,0.349618,0.996946,-2.51563,1.17133,-0.0534885,-3.4293,2.20389,2.04389,-1.8,3.8,0,12802,49.687,25.39,12615.5
2675502017,0.634769,2.223,95.595,0.206372,0.303262,0.985433,-2.90244,1.02509,-0.043556,-3.03709,1.90912,1.42708,-1.8,3.8,0,12802,49.687,25.39,12615.5
2675602455,0.634769,2.223,95.6065,0.173829,0.252274,0.97317,-3.23602,0.896341,-0.0195442,-2.63835,1.65255,1.11882,4.6,-1.7,0,12802,49.687,25.39,12615.5
2675702888,0.634769,2.223,95.6156,0.134061,0.192065,0.959675,-3.49109,0.793463,-0.0205494,-2.06024,1.2674,0.323126,4.6,-1.7,0,12802,49.687,25.39,12615.5
2675803292,0.634769,2.223,95.6188,-0.0240418,-0.00184366,0.940823,-3.69278,0.707818,0.00627245,-1.42403,0.798159,0.541803,4.6,-1.7,0,12802,49.687,25.39,12615.5
2675903659,0.634768,2.223,95.6194,-0.196892,-0.188775,0.957632,-3.55763,0.732183,0.0220082,1.55768,-1.3904,-0.447147,4.6,-1.7,0,12769,49.511,28.318,14020.5
2676004080,0.634768,2.223,95.6245,-0.289717,-0.293174,0.97908,-3.21276,0.783264,-0.0720211,2.68117,-2.54689,0.844653,4.6,-1.7,0,12769,49.511,28.318,14020.5
2676104444,0.634768,2.223,95.6225,-0.338486,-0.343369,0.991389,-2.73063,0.863115,-0.103821,3.42869,-3.15566,2.13249,4.6,-1.7,0,12769,49.511,28.318,14020.5
2676204797,0.634768,2.223,95.6006,-0.351555,-0.354643,0.991843,-2.17785,0.96114,-0.10219,3.66166,-3.25916,2.8902,4.6,-1.7,0,12769,49.511,28.318,14020.5
2676305166,0.634768,2.223,95.5865,-0.344581,-0.346875,0.985737,-1.62273,1.04519,-0.0860178,3.54266,-3.28891,2.78108,4.6,-1.7,0,12769,49.511,28.318,14020.5
2676405536,0.634768,2.223,95.5799,-0.326312,-0.336116,0.979425,-1.09335,1.1289,-0.0733175,3.40563,-3.19859,2.51376,4.6,-1.7,0,12769,49.511,28.318,14020.5
2676505886,0.634768,2.223,95.5706,-0.307996,-0.329953,0.975958,-0.57792,1.20584,-0.0556235,3.24744,-3.00508,2.49761,4.6,-1.7,0,12769,49.511,28.318,14020.5
2676606290,0.634768,2.223,95.5751,-0.290257,-0.32762,0.973748,-0.0920141,1.29909,-0.0498446,3.22553,-2.7806,2.08914,2.5,3.1,0,12769,49.511,28.318,14020.5
2676706647,0.634768,2.223,95.578,-0.262213,-0.320774,0.967583,0.374082,1.40832,-0.0328626,3.16248,-2.45805,2.07683,2.5,3.1,0,12769,49.511,28.318,14020.5
2676806993,0.634768,2.223,95.5791,-0.0664089,-0.256478,0.922624,0.822713,1.52181,0.0151264,3.02615,-2.27297,1.93724,2.5,3.1,0,12769,49.511,28.318,14020.5
2676907335,0.634768,2.223,95.5769,0.20899,-0.137351,0.906543,0.986579,1.71076,0.0380813,2.09464,0.491655,0.371793,2.5,3.1,0,12769,49.355,31.094,15346.4
2677007705,0.634768,2.223,95.5721,0.366703,-0.0672237,0.919783,0.838738,1.9414,-0.0459228,0.758526,3.03286,0.0951208,2.5,3.1,0,12769,49.355,31.094,15346.4
2677108047,0.634768,2.223,95.5649,0.440725,-0.0414543,0.930018,0.552832,2.21794,-0.0915015,0.300361,3.75072,1.94459,2.5,3.1,0,12769,49.355,31.094,15346.4
2677208416,0.634768,2.223,95.5744,0.436096,-0.0371519,0.935828,0.116113,2.60151,-0.0645201,0.250173,4.31945,2.2215,2.5,3.1,0,12769,49.355,31.094,15346.4
2677308761,0.634768,2.223,95.5892,0.369672,-0.0368614,0.939458,-0.212595,2.88476,-0.0343877,0.249065,3.84087,1.72098,2.5,3.1,0,12769,49.355,31.094,15346.4
2677409025,0.634768,2.223,95.5854,0.293509,-0.0404973,0.940279,-0.472744,3.10903,-0.00773136,0.193115,3.0688,1.10097,2.5,3.1,0,12769,49.355,31.094,15346.4
2677509283,0.634768,2.223,95.5855,0.228191,-0.0410953,0.940094,-0.658271,3.28123,0.000966167,0.266783,2.33007,0.436436,2.5,3.1,0,12769,49.355,31.094,15346.4
2677610743,0.634768,2.223,95.6157,0.175716,-0.0403485,0.93888,-0.796114,3.41358,-0.0103885,0.26275,1.74625,-0.0570793,-2.6,1.2,0,12769,49.355,31.094,15346.4
2677711110,0.634768,2.223,95.6414,0.123474,-0.0154253,0.936968,-0.90812,3.52239,-0.0219854,0.292808,1.34039,0.215344,-2.6,1.2,0,12769,49.355,31.094,15346.4
2677811509,0.634768,2.223,95.6456,-0.00162676,0.185341,0.933384,-1.00848,3.56681,0.0350277,-0.708816,0.634145,0.192722,-2.6,1.2,0,12769,49.355,31.094,15346.4
2677911860,0.634768,2.223,95.6643,-0.0983087,0.330252,0.919156,-1.14404,3.30769,-0.000123989,-2.94123,-0.745708,-0.0214449,-2.6,1.2,0,12769,49.421,28.891,14278.2
2678012238,0.634768,2.223,95.6709,-0.15296,0.41133,0.906451,-1.28385,2.93358,-0.080327,-3.69604,-1.2607,1.27153,-2.6,1.2,0,12769,49.421,28.891,14278.2
2678112484,0.634768,2.223,95.6623,-0.185821,0.450119,0.900522,-1.43085,2.46886,-0.127437,-4.1521,-1.63469,1.85839,-2.6,1.2,0,12769,49.421,28.891,14278.2
2678212841,0.634768,2.223,95.6634,-0.199537,0.460178,0.900047,-1.56284,1.9526,-0.142418,-4.46585,-1.95413,2.00908,-2.6,1.2,0,12769,49.421,28.891,14278.2
2678313181,0.634768,2.223,95.6717,-0.190155,0.448212,0.90455,-1.69634,1.41484,-0.13525,-4.3626,-1.92752,2.56862,-2.6,1.2,0,12769,49.421,28.891,14278.2
2678413552,0.634768,2.223,95.6458,-0.16353,0.431186,0.91137,-1.82665,0.904111,-0.121949,-4.07724,-1.75154,2.37945,-2.6,1.2,0,12769,49.421,28.891,14278.2
2678513881,0.634768,2.223,95.6291,-0.135629,0.40995,0.916612,-1.96665,0.419567,-0.0908794,-3.97802,-1.48095,2.40356,-2.6,1.2,0,12769,49.421,28.891,14278.2
2678614242,0.634768,2.223,95.6385,-0.10102,0.353806,0.925642,-2.11204,-0.0110459,-0.0550254,-3.54221,-1.13739,1.90533,-2.5,3.9,0,12769,49.421,28.891,14278.2
2678714530,0.634768,2.223,95.6476,-0.055359,0.285211,0.933052,-2.22763,-0.350056,-0.017943,-2.75565,-0.94301,1.4916,-2.5,3.9,0,12769,49.421,28.891,14278.2
2678814842,0.634768,2.223,95.6528,0.113468,0.189866,0.960463,-2.35416,-0.58821,0.0812748,-2.12233,-0.0624481,0.347698,-2.5,3.9,0,12769,49.421,28.891,14278.2
2678915203,0.634768,2.223,95.6733,0.291047,0.129167,0.964952,-2.54917,-0.596979,-0.0306336,-1.08386,2.07863,-0.811347,-2.5,3.9,0,12724,49.365,29.672,14647.6
2679015563,0.634768,2.223,95.682,0.388758,0.107424,0.959769,-2.85085,-0.491469,-0.122499,-0.679582,3.11994,1.03903,-2.5,3.9,0,12724,49.365,29.672,14647.6
2679115911,0.634768,2.223,95.6715,0.405293,0.0983223,0.953067,-3.23872,-0.306216,-0.1321,-0.560619,3.85711,1.79632,-2.5,3.9,0,12724,49.365,29.672,14647.6
2679216321,0.634768,2.223,95.6579,0.362245,0.0909126,0.946664,-3.62057,-0.117783,-0.110985,-0.526896,3.67443,1.86708,-2.5,3.9,0,12724,49.365,29.672,14647.6
2679316674,0.634768,2.223,95.6396,0.295753,0.085091,0.942707,-3.94465,0.0486988,-0.0906235,-0.476845,3.19735,1.3602,-2.5,3.9,0,12724,49.365,29.672,14647.6
2679417033,0.634768,2.223,95.61,0.230425,0.0801228,0.940732,-4.18927,0.174644,-0.0785087,-0.36198,2.46397,0.89092,-2.5,3.9,0,12724,49.365,29.672,14647.6
2679517434,0.634768,2.223,95.5759,0.178142,0.076703,0.940001,-4.37606,0.265512,-0.0689821,-0.343884,1.81195,0.687659,-2.5,3.9,0,12724,49.365,29.672,14647.6
2679617862,0.634768,2.223,95.572,0.139014,0.0741945,0.939921,-4.51009,0.335226,-0.0573097,-0.271988,1.27406,0.415036,-0.4,1.8,0,12724,49.365,29.672,14647.6
2679718401,0.634767,2.223,95.5808,0.090163,0.048289,0.936698,-4.6175,0.390768,-0.0569509,-0.28019,1.03602,0.291891,-0.4,1.8,0,12724,49.365,29.672,14647.6
2679818777,0.634767,2.223,95.5811,-0.0840037,-0.114237,0.941413,-4.65688,0.445413,0.0115787,0.420533,0.186287,0.624137,-0.4,1.8,0,12724,49.365,29.672,14647.6
2679919121,0.634767,2.223,95.5938,-0.223203,-0.216669,0.96241,-4.38958,0.540813,-0.000852264,2.35953,-1.98001,-0.173562,-0.4,1.8,0,12724,49.51,26.74,13239
2680019452,0.634767,2.223,95.6159,-0.27778,-0.24732,0.973542,-4.00075,0.620748,-0.068737,2.72473,-2.68918,1.14553,-0.4,1.8,0,12724,49.51,26.74,13239
2680119811,0.634767,2.223,95.6241,-0.27622,-0.23119,0.97042,-3.5496,0.695507,-0.064271,2.81962,-2.93895,1.67398,-0.4,1.8,0,12724,49.51,26.74,13239
2680220188,0.634767,2.223,95.6081,-0.236748,-0.192346,0.961564,-3.14454,0.749275,-0.0787845,2.47609,-2.76499,1.03421,-0.4,1.8,0,12724,49.51,26.74,13239
2680320483,0.634767,2.223,95.5907,-0.184816,-0.143704,0.95121,-2.8099,0.797802,-0.0816455,2.05632,-2.25329,0.812244,-0.4,1.8,0,12724,49.51,26.74,13239
2680422506,0.634767,2.223,95.5775,-0.132793,-0.0978564,0.94463,-2.54711,0.831932,-0.0736011,1.50961,-1.74991,0.529459,-0.4,1.8,0,12724,49.51,26.74,13239
2680527796,0.634767,2.223,95.5523,-0.0877305,-0.057856,0.940841,-2.36235,0.853149,-0.0749081,1.02944,-1.21094,0.154184,-0.4,1.8,0,12724,49.51,26.74,13239
2680628228,0.634767,2.223,95.5507,-0.0564697,-0.027714,0.93884,-2.23259,0.867322,-0.0683592,0.661534,-0.811821,0.188201,-2.1,1.7,0,12724,49.51,26.74,13239
2680728546,0.634767,2.223,95.5468,-0.0363513,0.0111582,0.936494,-2.15147,0.870653,-0.0540893,0.308505,-0.499648,0.356358,-2.1,1.7,0,12724,49.51,26.74,13239
2680828913,0.634767,2.223,95.5378,-0.0324984,0.152688,0.934942,-2.10441,0.855943,-0.00418337,-0.381433,-0.331692,0.207376,-2.1,1.7,0,12724,49.51,26.74,13239
2680929301,0.634767,2.223,95.5251,-0.0340788,0.250934,0.932079,-2.16556,0.698062,-0.0495173,-1.85808,-0.359609,0.220234,-2.1,1.7,0,12724,49.396,28.41,14033.4
2681029674,0.634767,2.223,95.5087,-0.0303918,0.291535,0.930688,-2.29947,0.418863,-0.0602418,-2.63949,-0.340859,0.92288,-2.1,1.7,0,12724,49.396,28.41,14033.4
2681130015,0.634767,2.223,95.4958,-0.0267588,0.284405,0.930556,-2.43365,0.174681,-0.0517161,-2.56045,-0.314681,1.25398,-2.1,1.7,0,12724,49.396,28.41,14033.4
2681230321,0.634767,2.223,95.4908,-0.0232143,0.251499,0.931285,-2.56062,-0.0532246,-0.0298611,-2.3868,-0.276731,0.930939,-2.1,1.7,0,12724,49.396,28.41,14033.4
2681330689,0.634767,2.223,95.4957,-0.0196147,0.207443,0.932549,-2.65916,-0.234547,-0.0142384,-1.93123,-0.249542,0.554775,-2.1,1.7,0,12724,49.396,28.41,14033.4
2681430961,0.634767,2.223,95.5054,-0.0161279,0.166283,0.933833,-2.7348,-0.372967,-0.00576882,-1.44909,-0.17325,0.374643,-2.1,1.7,0,12724,49.396,28.41,14033.4
2681531209,0.634767,2.223,95.5165,-0.0150792,0.133045,0.934825,-2.79436,-0.477818,0.00453581,-1.10707,-0.17211,0.0142792,-2.1,1.7,0,12724,49.396,28.41,14033.4
2681631520,0.634767,2.223,95.5231,-0.013015,0.106474,0.9356,-2.83558,-0.559393,0.0125274,-0.815793,-0.162822,-0.184571,2.8,3.6,0,12724,49.396,28.41,14033.4
2681731975,0.634767,2.223,95.526,-0.00260851,0.0640284,0.93875,-2.86895,-0.623479,0.00782808,-0.702943,-0.162781,0.142437,2.8,3.6,0,12724,49.396,28.41,14033.4
2681832703,0.634767,2.223,95.5312,0.0717672,-0.148918,0.934057,-2.8821,-0.618602,0.040798,0.541024,0.217717,0.2398,2.8,3.6,0,12724,49.396,28.41,14033.4
2681933615,0.634766,2.223,95.5451,0.127804,-0.294214,0.919995,-2.8156,-0.355741,0.0115964,2.67887,0.992661,0.162744,2.8,3.6,0,12724,49.396,28.41,14033.4
2682034951,0.634766,2.223,95.548,0.164411,-0.382842,0.906919,-2.71872,0.0255523,-0.0432256,3.7026,1.38965,1.27361,2.8,3.6,0,12724,49.416,27.534,13606.2
2682135301,0.634766,2.223,95.5314,0.177878,-0.421318,0.900609,-2.58747,0.500003,-0.0541667,4.25271,1.54104,2.05916,2.8,3.6,0,12724,49.416,27.534,13606.2
2682235655,0.634766,2.223,95.5123,0.178787,-0.435196,0.898797,-2.44258,1.00997,-0.0650599,4.48504,1.59973,2.20726,2.8,3.6,0,12724,49.416,27.534,13606.2
2682335999,0.634766,2.223,95.5031,0.172981,-0.431232,0.900009,-2.2867,1.53079,-0.055283,4.47722,1.49424,2.43943,2.8,3.6,0,12724,49.416,27.534,13606.2
2682436408,0.634766,2.223,95.4978,0.166636,-0.422154,0.901944,-2.13457,2.03922,-0.0446913,4.30345,1.4848,2.37027,2.8,3.6,0,12724,49.416,27.534,13606.2
2682536759,0.634766,2.223,95.4988,0.156166,-0.398746,0.905816,-1.98515,2.537,-0.031673,4.25314,1.45538,2.17072,2.8,3.6,0,12724,49.416,27.534,13606.2
2682637163,0.634766,2.223,95.4977,0.129818,-0.33998,0.915031,-1.84641,2.98871,-0.0119103,3.80393,1.26978,1.65698,3.3,-4.8,0,12724,49.416,27.534,13606.2
2682737518,0.634766,2.223,95.4924,0.0691969,-0.271635,0.930499,-1.73666,3.35752,-0.00375854,3.0065,1.06875,1.49401,3.3,-4.8,0,12724,49.416,27.534,13606.2
2682837909,0.634766,2.223,95.4968,-0.149153,-0.172883,0.958357,-1.59383,3.62018,0.077703,2.36664,-0.0188202,1.24135,3.3,-4.8,0,12724,49.416,27.534,13606.2
2682938295,0.634766,2.223,95.5049,-0.3137,-0.0924502,0.955569,-1.32705,3.60096,0.0585979,1.14009,-2.59005,-0.0294729,3.3,-4.8,0,12724,49.416,27.534,13606.2
2683038643,0.634766,2.223,95.5144,-0.400844,-0.0497477,0.945137,-1.00193,3.45173,-0.0126293,0.48455,-3.58406,1.13461,3.3,-4.8,0,12724,49.382,27.035,13350.4
2683139048,0.634766,2.223,95.5443,-0.442451,-0.0276889,0.935864,-0.615375,3.21508,-0.0144399,0.143214,-4.10154,2.07212,3.3,-4.8,0,12724,49.382,27.035,13350.4
2683239404,0.634766,2.223,95.576,-0.45317,-0.0160679,0.928872,-0.223836,2.93335,-0.00800025,-0.0972919,-4.45187,1.67581,3.3,-4.8,0,12724,49.382,27.035,13350.4
2683339762,0.634766,2.223,95.5616,-0.446758,-0.0159717,0.927348,0.151461,2.64421,-0.0283324,-0.102594,-4.30296,1.82143,3.3,-4.8,0,12724,49.382,27.035,13350.4
2683440122,0.634766,2.223,95.5473,-0.436805,-0.022619,0.928618,0.527676,2.35909,-0.0345708,-0.0293148,-4.19073,2.00246,3.3,-4.8,0,12724,49.382,27.035,13350.4
2683540460,0.634766,2.223,95.5429,-0.428334,-0.0290582,0.929807,0.887338,2.08611,-0.0369525,-0.013631,-3.96254,1.90968,3.3,-4.8,0,12724,49.382,27.035,13350.4
2683640854,0.634766,2.223,95.5465,-0.419319,-0.0378279,0.932426,1.24709,1.81864,-0.0397809,0.075752,-3.89311,1.80859,3.1,1.4,0,12724,49.382,27.035,13350.4
2683741205,0.634766,2.223,95.5357,-0.393064,-0.0483285,0.932937,1.60675,1.56679,-0.0397115,0.219453,-3.85632,1.47603,3.1,1.4,0,12724,49.382,27.035,13350.4
2683841563,0.634766,2.223,95.5265,-0.175155,-0.0743034,0.926839,1.94419,1.3426,-0.0105456,0.23237,-3.26481,1.53047,3.1,1.4,0,12724,49.382,27.035,13350.4
2683941952,0.634766,2.223,95.5363,0.147771,-0.113749,0.920156,2.04402,1.33823,0.0382354,0.789581,-0.149182,0.241053,3.1,1.4,0,12724,49.382,27.035,13350.4
2684042296,0.634766,2.223,95.5449,0.3309,-0.133657,0.915724,1.88262,1.56486,-0.0184209,1.06577,3.16112,-0.110113,3.1,1.4,0,12713,49.346,27.875,13755.2
2684142631,0.634766,2.223,95.5531,0.381426,-0.137386,0.917271,1.62558,1.893,-0.0621196,1.15136,3.88836,1.6872,3.1,1.4,0,12713,49.346,27.875,13755.2
2684242969,0.634766,2.223,95.5645,0.349862,-0.128571,0.924288,1.33392,2.24914,-0.0371645,1.11031,4.0034,1.76642,3.1,1.4,0,12713,49.346,27.875,13755.2
2684344573,0.634766,2.223,95.5569,0.271086,-0.113123,0.932515,1.08125,2.55168,-0.0198454,0.945438,3.43192,1.30903,3.1,1.4,0,12713,49.346,27.875,13755.2
2684449769,0.634766,2.223,95.5499,0.189595,-0.0969387,0.937003,0.86831,2.79924,-0.00918331,0.625639,2.3416,0.625195,3.1,1.4,0,12713,49.346,27.875,13755.2
2684550109,0.634766,2.223,95.5622,0.134719,-0.0886097,0.937305,0.748482,2.94816,0.000364551,0.552868,1.70647,0.107966,3.1,1.4,0,12713,49.346,27.875,13755.2
2684650519,0.634766,2.223,95.5799,0.0917811,-0.0840559,0.937563,0.659443,3.05771,-0.00485059,0.426612,1.13617,0.0388183,1.8,-3.2,0,12713,49.346,27.875,13755.2
2684750875,0.634766,2.223,95.5882,0.0288891,-0.0697855,0.940176,0.605348,3.1539,-0.00840401,0.476819,0.744048,0.179787,1.8,-3.2,0,12713,49.346,27.875,13755.2
2684851210,0.634766,2.223,95.5974,-0.166449,0.00504558,0.94004,0.605794,3.18964,0.0268063,0.143112,-0.42402,0.325235,1.8,-3.2,0,12713,49.346,27.875,13755.2
2684951572,0.634766,2.223,95.6106,-0.314556,0.0610935,0.927124,0.733375,3.00247,-0.00103139,-0.771448,-2.52851,0.053856,1.8,-3.2,0,12713,49.346,27.875,13755.2
2685051896,0.634766,2.223,95.6206,-0.400128,0.0904698,0.91497,0.936696,2.71643,-0.0441673,-1.06195,-3.45599,1.26886,1.8,-3.2,0,12713,49.341,29.224,14419.4
2685152281,0.634766,2.223,95.6322,-0.438192,0.104005,0.907327,1.18119,2.35231,-0.0409071,-1.30206,-3.86979,1.98889,1.8,-3.2,0,12713,49.341,29.224,14419.4
2685252686,0.634766,2.223,95.6474,-0.447053,0.105635,0.904206,1.43343,1.96047,-0.0559637,-1.46742,-4.13381,1.71595,1.8,-3.2,0,12713,49.341,29.224,14419.4
2685353082,0.634766,2.223,95.6468,-0.439017,0.0959595,0.905464,1.69142,1.57341,-0.0594639,-1.32221,-4.04662,1.76857,1.8,-3.2,0,12713,49.341,29.224,14419.4
2685454845,0.634766,2.223,95.6384,-0.42973,0.0801856,0.909736,1.9566,1.2061,-0.0668107,-1.2289,-3.98494,1.67641,1.8,-3.2,0,12713,49.341,29.224,14419.4
2685555248,0.634767,2.223,95.6405,-0.421084,0.0604205,0.915868,2.22629,0.854403,-0.071276,-1.03752,-3.82897,1.86627,1.8,-3.2,0,12713,49.341,29.224,14419.4
2685661552,0.634767,2.223,95.6402,-0.3804,0.0379177,0.923348,2.50418,0.5288,-0.0595258,-0.782019,-3.67363,1.59244,1.2,1.2,0,12713,49.341,29.224,14419.4
2685766273,0.634767,2.223,95.6414,-0.308735,0.0164819,0.929607,2.74527,0.269124,-0.0516584,-0.481933,-3.12944,0.991587,1.2,1.2,0,12713,49.341,29.224,14419.4
2685866681,0.634767,2.223,95.6371,-0.0637018,0.0318867,0.936018,2.95538,0.0652493,0.013955,-0.350546,-2.36602,0.712419,1.2,1.2,0,12713,49.341,29.224,14419.4
2685967044,0.634767,2.223,95.6447,0.244642,0.0441518,0.945351,2.88288,0.0392231,0.0106895,-0.560964,1.14902,-0.382493,1.2,1.2,0,12713,49.341,29.224,14419.4
2686067394,0.634767,2.223,95.6378,0.407899,0.0496917,0.94964,2.5662,0.181013,-0.0825996,-0.639334,3.73855,0.420913,1.2,1.2,0,12713,49.341,29.224,14419.4
2686167748,0.634767,2.223,95.6425,0.481629,0.0538278,0.953511,2.02976,0.456885,-0.134533,-0.637412,4.62846,2.38443,1.2,1.2,0,12713,49.341,29.224,14419.4
2686268107,0.634767,2.223,95.6552,0.476889,0.0555954,0.955569,1.51672,0.723261,-0.129753,-0.676181,5.02161,2.64121,1.2,1.2,0,12713,49.341,29.224,14419.4
2686368432,0.634767,2.223,95.6419,0.40022,0.0523372,0.953926,1.04089,0.955766,-0.101575,-0.793634,4.46567,2.31583,1.2,1.2,0,12713,49.341,29.224,14419.4
2686468744,0.634767,2.223,95.6272,0.310285,0.0400954,0.949455,0.659811,1.13074,-0.0600441,-0.707823,3.6112,1.47882,1.2,1.2,0,12713,49.341,29.224,14419.4
2686569102,0.634767,2.223,95.6419,0.227419,0.0211729,0.944448,0.387826,1.26767,-0.0537071,-0.467579,2.66881,0.364851,1.2,1.2,0,12680,49.181,31.19,15339.6
2686669460,0.634767,2.223,95.6514,0.163946,0.00725727,0.940985,0.180149,1.37496,-0.0428254,-0.312667,1.93846,0.376892,-0.6,-3.7,0,12680,49.181,31.19,15339.6
2686769829,0.634767,2.223,95.661,0.0976996,0.00170478,0.939931,0.0259013,1.45923,-0.033473,-0.119307,1.39514,0.480643,-0.6,-3.7,0,12680,49.181,31.19,15339.6
2686870209,0.634767,2.223,95.6666,-0.113566,0.0607159,0.933456,-0.0421951,1.49281,0.00394882,-0.304172,0.0851445,-0.0761911,-0.6,-3.7,0,12680,49.181,31.19,15339.6
2686970537,0.634767,2.223,95.6713,-0.294543,0.106144,0.921243,0.0422995,1.31397,-0.0505697,-1.04129,-2.31602,-0.168523,-0.6,-3.7,0,12680,49.181,31.19,15339.6
2687070882,0.634767,2.223,95.6771,-0.398642,0.133768,0.910419,0.221012,1.02679,-0.0997153,-1.2286,-3.2693,1.23009,-0.6,-3.7,0,12680,49.181,31.19,15339.6
2687171229,0.634767,2.223,95.6766,-0.441523,0.149742,0.904266,0.460066,0.653187,-0.12174,-1.45978,-3.87984,1.94411,-0.6,-3.7,0,12680,49.181,31.19,15339.6
2687271578,0.634767,2.223,95.6764,-0.446928,0.156496,0.90128,0.716182,0.246835,-0.112355,-1.53138,-3.99637,2.34946,-0.6,-3.7,0,12680,49.181,31.19,15339.6
2687371936,0.634767,2.223,95.6684,-0.429629,0.156275,0.901772,0.973549,-0.16578,-0.0932746,-1.58677,-4.00822,2.22881,-0.6,-3.7,0,12680,49.181,31.19,15339.6
2687472323,0.634767,2.223,95.6685,-0.417108,0.152559,0.903672,1.20572,-0.557063,-0.0742849,-1.55423,-3.76295,1.96496,-0.6,-3.7,0,12680,49.181,31.19,15339.6
2687572667,0.634767,2.223,95.6782,-0.409077,0.1456,0.906445,1.42902,-0.928244,-0.0711189,-1.50281,-3.55115,1.79983,-0.6,-3.7,0,12680,49.181,31.19,15339.6
2687673044,0.634767,2.223,95.6854,-0.392521,0.131934,0.91248,1.64366,-1.28225,-0.0733574,-1.45344,-3.37512,1.58274,-4.3,-2.9,0,12680,49.335,27.645,13638.7
2687773406,0.634767,2.223,95.6845,-0.334433,0.132706,0.919453,1.86905,-1.59832,-0.0574579,-0.945202,-3.10261,1.75591,-4.3,-2.9,0,12680,49.335,27.645,13638.7
2687873760,0.634767,2.223,95.6858,-0.205631,0.247232,0.924936,2.01678,-1.89537,0.000310831,-1.66749,-2.32655,1.10457,-4.3,-2.9,0,12680,49.335,27.645,13638.7
2687974163,0.634767,2.223,95.6819,-0.0941956,0.33002,0.930808,1.95094,-2.18094,-0.0491455,-2.74972,-0.883391,0.301226,-4.3,-2.9,0,12680,49.335,27.645,13638.7
2688074537,0.634767,2.223,95.6721,-0.0284885,0.372715,0.933098,1.77031,-2.46447,-0.10532,-3.21784,0.0164097,0.964638,-4.3,-2.9,0,12680,49.335,27.645,13638.7
2688174892,0.634767,2.223,95.6808,0.000563704,0.388529,0.932024,1.51601,-2.7568,-0.106986,-3.45323,0.472616,1.54213,-4.3,-2.9,0,12680,49.335,27.645,13638.7
2688276925,0.634767,2.223,95.6904,0.00186691,0.386206,0.928219,1.23122,-3.04006,-0.105913,-3.63721,0.649449,1.28401,-4.3,-2.9,0,12680,49.335,27.645,13638.7
2688382084,0.634767,2.223,95.6831,-0.0100909,0.37667,0.924191,0.975556,-3.31371,-0.0930671,-3.33323,0.446761,1.33802,-4.3,-2.9,0,12680,49.335,27.645,13638.7
2688482487,0.634767,2.223,95.6777,-0.0274301,0.368755,0.921412,0.733373,-3.57461,-0.0846269,-3.21762,0.369929,1.29381,-4.3,-2.9,0,12680,49.335,27.645,13638.7
2688582858,0.634767,2.223,95.6828,-0.0439563,0.34526,0.920018,0.502062,-3.83406,-0.0770174,-3.21672,0.279893,1.00269,-4.3,-2.9,0,12680,49.335,27.645,13638.7
2688683245,0.634767,2.223,95.6812,-0.0587501,0.307375,0.920887,0.319999,-4.07183,-0.0759228,-2.75904,-0.0031955,0.756018,-1.5,1.4,0,12680,49.335,27.882,13755.6
2688783589,0.634767,2.223,95.6691,-0.0631228,0.257744,0.926069,0.171187,-4.28784,-0.0877873,-2.39496,-0.18017,0.560686,-1.5,1.4,0,12680,49.335,27.882,13755.6
2688883916,0.634767,2.223,95.6519,0.0785184,0.0770915,0.950078,0.0394629,-4.48189,0.00415862,-1.8429,-0.032849,1.07034,-1.5,1.4,0,12680,49.335,27.882,13755.6
2688984349,0.634767,2.223,95.6496,0.27703,-0.0936781,0.932461,-0.0934658,-4.32974,0.0251264,0.789228,2.27989,-0.0958711,-1.5,1.4,0,12680,49.335,27.882,13755.6
2689084711,0.634767,2.223,95.6422,0.395629,-0.175955,0.902645,-0.284293,-3.96978,-0.107623,1.90193,3.72137,0.667498,-1.5,1.4,0,12680,49.335,27.882,13755.6
2689185068,0.634767,2.223,95.6268,0.451809,-0.210157,0.88373,-0.533913,-3.4727,-0.146562,2.29077,4.37574,2.50247,-1.5,1.4,0,12680,49.335,27.882,13755.6
2689285436,0.634767,2.223,95.6174,0.467303,-0.215502,0.876831,-0.805322,-2.91562,-0.159932,2.5718,4.74689,2.75033,-1.5,1.4,0,12680,49.335,27.882,13755.6
2689385792,0.634767,2.223,95.5869,0.440529,-0.190732,0.883977,-1.06933,-2.34661,-0.15276,2.53984,4.64832,2.95374,-1.5,1.4,0,12680,49.335,27.882,13755.6
2689486134,0.634767,2.223,95.559,0.368123,-0.146211,0.900773,-1.32365,-1.82912,-0.124115,2.24327,4.24938,2.55455,-1.5,1.4,0,12680,49.335,27.882,13755.6
2689586478,0.634767,2.223,95.5407,0.279963,-0.104386,0.914578,-1.53266,-1.40825,-0.0853488,1.84468,3.4884,1.92343,-1.5,1.4,0,12680,49.335,27.882,13755.6
2689686838,0.634767,2.223,95.5294,0.198673,-0.0624007,0.925198,-1.68684,-1.0872,-0.0344097,1.35429,2.62892,1.07782,2.3,-1.6,0,12668,49.295,28.179,13890.8
2689787194,0.634767,2.223,95.5261,0.124607,-0.0423557,0.929653,-1.78278,-0.866906,-0.0310243,0.982173,1.74235,0.297845,2.3,-1.6,0,12668,49.295,28.179,13890.8
2689887561,0.634767,2.223,95.5246,-0.0385688,-0.155455,0.940516,-1.82588,-0.673114,0.0503329,1.16392,0.589668,0.516528,2.3,-1.6,0,12668,49.295,28.179,13890.8
2689987910,0.634767,2.223,95.5362,-0.186231,-0.267501,0.965176,-1.64992,-0.539621,0.0155128,2.47683,-1.03092,-0.0967681,2.3,-1.6,0,12668,49.295,28.179,13890.8
2690088303,0.634767,2.223,95.5455,-0.274865,-0.331959,0.984867,-1.30199,-0.371098,-0.0549215,3.11559,-1.98644,1.30413,2.3,-1.6,0,12668,49.295,28.179,13890.8
2690188669,0.634767,2.223,95.5365,-0.312184,-0.359814,0.994751,-0.730901,-0.150843,-0.068559,3.70026,-2.61371,2.27556,2.3,-1.6,0,12668,49.295,28.179,13890.8
2690288995,0.634767,2.223,95.5244,-0.317305,-0.364559,0.995768,-0.319966,-0.00488943,-0.0712377,3.77391,-2.69191,2.60907,2.3,-1.6,0,12668,49.295,28.179,13890.8
2690389260,0.634767,2.223,95.489,-0.307758,-0.359046,0.992611,0.302132,0.215691,-0.0515102,3.75916,-2.67255,2.69193,2.3,-1.6,0,12668,49.295,28.179,13890.8
2690489609,0.634767,2.223,95.4536,-0.291026,-0.340921,0.987038,0.792216,0.383781,-0.0345316,3.55006,-2.54026,2.49527,2.3,-1.6,0,12668,49.295,28.179,13890.8
2690589974,0.634767,2.223,95.4419,-0.252563,-0.290927,0.973808,1.2434,0.531848,-0.00758094,3.24751,-2.39803,1.91762,2.3,-1.6,0,12668,49.295,28.179,13890.8
2690690360,0.634767,2.223,95.4384,-0.204782,-0.23219,0.960909,1.61088,0.646049,0.0167329,2.62892,-1.94857,1.31628,0.1,-1.6,0,12668,49.263,27.716,13653.7
2690790659,0.634767,2.223,95.4318,-0.163238,-0.159542,0.950561,1.89781,0.73571,0.0378199,2.08114,-1.43021,1.27889,0.1,-1.6,0,12668,49.263,27.716,13653.7
2690891023,0.634767,2.223,95.4302,-0.123548,0.0663634,0.94025,2.08524,0.762132,0.125749,0.553928,-1.06897,0.0408717,0.1,-1.6,0,12668,49.263,27.716,13653.7
2690991345,0.634767,2.223,95.4551,-0.104159,0.223308,0.931172,2.05348,0.583067,0.0564295,-1.97213,-0.694898,-0.619997,0.1,-1.6,0,12668,49.263,27.716,13653.7
2691091633,0.634767,2.223,95.4673,-0.0986358,0.284133,0.92699,1.95484,0.328233,0.00485871,-2.63568,-0.53267,0.930725,0.1,-1.6,0,12668,49.263,27.716,13653.7
2691191983,0.634767,2.223,95.4897,-0.0887414,0.280205,0.926922,1.83247,0.0454623,0.0138504,-2.8766,-0.449253,0.883888,0.1,-1.6,0,12668,49.263,27.716,13653.7
2691292397,0.634767,2.223,95.5202,-0.0783946,0.23942,0.928739,1.71582,-0.200585,0.0125925,-2.55943,-0.376567,0.513459,0.1,-1.6,0,12668,49.263,27.716,13653.7
2691392753,0.634767,2.223,95.5244,-0.0677857,0.184889,0.931318,1.62221,-0.397073,0.00810954,-1.9936,-0.315159,0.318574,0.1,-1.6,0,12668,49.263,27.716,13653.7
2691493093,0.634767,2.223,95.5235,-0.0596757,0.143521,0.932941,1.54255,-0.546416,0.00936744,-1.50872,-0.222916,0.296729,0.1,-1.6,0,12668,49.263,27.716,13653.7
2691593428,0.634767,2.223,95.5363,-0.0523775,0.106912,0.934323,1.47722,-0.656767,0.0155652,-1.13241,-0.119878,-0.223332,0.1,-1.6,0,12668,49.263,27.716,13653.7
2691693784,0.634767,2.223,95.5484,-0.0472661,0.0812281,0.934934,1.43136,-0.743858,0.0113241,-0.790826,-0.193093,-0.194988,-1.7,4.3,0,12668,49.315,27.262,13444.3
2691794090,0.634767,2.223,95.5482,-0.0202838,0.0662799,0.934259,1.39071,-0.806718,0.0122126,-0.523665,-0.0662875,0.609924,-1.7,4.3,0,12668,49.315,27.262,13444.3
2691894444,0.634767,2.223,95.5472,0.14169,0.0917649,0.94496,1.31434,-0.834086,0.0702365,-0.553683,0.805205,-0.192058,-1.7,4.3,0,12668,49.315,27.262,13444.3
2691994786,0.634767,2.223,95.5515,0.310057,0.121731,0.957829,1.05819,-0.775809,-0.0188769,-0.933642,2.57979,0.0119473,-1.7,4.3,0,12668,49.315,27.262,13444.3
2692095143,0.634767,2.223,95.5433,0.391371,0.135882,0.964518,0.670767,-0.658455,-0.0621629,-1.07184,3.63046,1.38396,-1.7,4.3,0,12668,49.315,27.262,13444.3
2692195465,0.634767,2.223,95.5332,0.428164,0.142941,0.967976,0.207591,-0.498073,-0.0787028,-1.1674,4.17348,2.00968,-1.7,4.3,0,12668,49.315,27.262,13444.3
2692295824,0.634767,2.223,95.5132,0.429844,0.144176,0.967633,-0.294828,-0.331047,-0.079645,-1.25689,4.2815,2.49505,-1.7,4.3,0,12668,49.315,27.262,13444.3
2692396226,0.634767,2.223,95.475,0.421532,0.143249,0.966597,-0.786596,-0.157401,-0.0509576,-1.15128,4.21334,2.49246,-1.7,4.3,0,12668,49.315,27.262,13444.3
2692496572,0.634767,2.223,95.4454,0.415204,0.141648,0.966193,-1.25964,0.0114071,-0.0284962,-1.15719,4.10487,2.28882,-1.7,4.3,0,12668,49.315,27.262,13444.3
2692596916,0.634767,2.223,95.4429,0.406305,0.138758,0.965709,-1.7093,0.181298,-0.0163626,-1.03998,3.94407,2.07553,-1.7,4.3,0,12668,49.315,27.262,13444.3
2692697322,0.634767,2.223,95.4399,0.395639,0.13838,0.96575,-2.14383,0.348712,0.00284401,-0.943807,3.81906,1.92388,-3.5,-2.7,0,12636,49.244,28.833,14198.5
2692797608,0.634767,2.223,95.4451,0.359539,0.142216,0.964915,-2.56783,0.503354,0.0173278,-1.00016,3.62169,2.12472,-3.5,-2.7,0,12636,49.244,28.833,14198.5
2692897979,0.634767,2.223,95.4542,0.128879,0.160893,0.936125,-2.97171,0.626161,0.139386,-1.1801,3.17746,1.27079,-3.5,-2.7,0,12636,49.244,28.833,14198.5
2692998342,0.634767,2.223,95.4761,-0.206445,0.164629,0.911463,-3.08338,0.541666,0.157168,-1.24926,-0.251891,0.444281,-3.5,-2.7,0,12636,49.244,28.833,14198.5
2693100905,0.634767,2.223,95.499,-0.403989,0.166363,0.906519,-2.92324,0.25401,0.11115,-1.43463,-3.65423,-0.341908,-3.5,-2.7,0,12636,49.244,28.833,14198.5
2693205377,0.634767,2.223,95.5213,-0.475429,0.169204,0.907887,-2.67456,-0.0865471,-0.0528531,-1.24114,-4.05375,1.61028,-3.5,-2.7,0,12636,49.244,28.833,14198.5
2693305749,0.634767,2.223,95.5282,-0.482554,0.169258,0.911284,-2.36368,-0.509935,-0.0705492,-1.40157,-4.54189,2.46403,-3.5,-2.7,0,12636,49.244,28.833,14198.5
2693406101,0.634767,2.223,95.521,-0.463618,0.174998,0.911169,-2.03579,-0.933934,-0.0604744,-1.28558,-4.49906,2.52947,-3.5,-2.7,0,12636,49.244,28.833,14198.5
2693506449,0.634767,2.223,95.5031,-0.44441,0.180874,0.909656,-1.73133,-1.35092,-0.0541569,-1.3332,-4.2333,2.46903,-3.5,-2.7,0,12636,49.244,28.833,14198.5
2693606789,0.634767,2.223,95.4679,-0.424867,0.186371,0.908733,-1.44672,-1.76458,-0.0415204,-1.42449,-4.0446,2.34146,-3.5,-2.7,0,12636,49.244,28.833,14198.5
2693707136,0.634767,2.223,95.4369,-0.408911,0.191902,0.907815,-1.17652,-2.16202,-0.0352873,-1.37389,-3.85856,2.15306,-3,-1,0,12636,49.244,28.833,14198.5
2693807542,0.634767,2.223,95.4299,-0.380339,0.19656,0.907149,-0.920226,-2.54998,-0.0139608,-1.37751,-3.60975,2.09968,-3,-1,0,12636,49.384,26.511,13092.2
2693907939,0.634767,2.223,95.4266,-0.230519,0.170193,0.928582,-0.685291,-2.92916,0.0435216,-1.38927,-3.24473,1.73902,-3,-1,0,12636,49.384,26.511,13092.2
2694008360,0.634767,2.223,95.4304,-0.0811753,0.140481,0.938927,-0.593427,-3.16641,0.0630583,-1.03564,-1.13775,0.174082,-3,-1,0,12636,49.384,26.511,13092.2
2694108695,0.634767,2.223,95.4421,0.0156579,0.115028,0.941035,-0.623124,-3.23175,0.0355052,-0.671543,0.22182,0.080497,-3,-1,0,12636,49.384,26.511,13092.2
2694209047,0.634767,2.223,95.4575,0.0604338,0.0939013,0.939648,-0.689677,-3.25398,0.0339628,-0.550833,0.711752,0.0572725,-3,-1,0,12636,49.384,26.511,13092.2
2694309417,0.634767,2.223,95.479,0.0744594,0.0764008,0.937328,-0.767171,-3.22889,0.036817,-0.243947,1.01007,-0.0107398,-3,-1,0,12636,49.384,26.511,13092.2
2694409785,0.634767,2.223,95.4888,0.0662475,0.0668433,0.935941,-0.843292,-3.18941,0.0261162,-0.16255,1.01712,-0.0553991,-3,-1,0,12636,49.384,26.511,13092.2
2694510130,0.634767,2.223,95.4942,0.051958,0.0607023,0.935592,-0.898242,-3.14977,0.00923302,-0.0298303,0.764891,-0.156443,-3,-1,0,12636,49.384,26.511,13092.2
2694610431,0.634767,2.223,95.4978,0.0373318,0.0600181,0.935747,-0.952771,-3.11143,0.0130571,-0.0953876,0.716746,-0.206584,-3,-1,0,12636,49.384,26.511,13092.2
2694710840,0.634767,2.223,95.5004,0.0246405,0.0598189,0.936001,-0.996433,-3.0707,0.005383,-0.00532875,0.618391,0.0511233,-3.8,1.6,0,12636,49.384,26.511,13092.2
2694811248,0.634767,2.223,95.4988,0.0355261,0.0646563,0.935473,-1.03944,-3.04367,0.0232699,-0.0528754,0.408715,0.51742,-3.8,1.6,0,12592,49.379,28.207,13928.3
2694911589,0.634767,2.223,95.4938,0.170646,0.097081,0.947348,-1.12167,-2.99175,0.0444991,-0.201735,1.19129,-0.116359,-3.8,1.6,0,12592,49.379,28.207,13928.3
2695011949,0.634767,2.223,95.4965,0.297882,0.134373,0.958381,-1.34683,-2.88161,-0.0245284,-0.529647,2.49158,0.268591,-3.8,1.6,0,12592,49.379,28.207,13928.3
2695112287,0.634767,2.223,95.4903,0.369522,0.160357,0.963834,-1.71304,-2.72103,-0.0552438,-0.818007,3.50184,1.58541,-3.8,1.6,0,12592,49.379,28.207,13928.3
2695212696,0.634767,2.223,95.4747,0.36184,0.166316,0.96038,-2.1379,-2.54996,-0.0545258,-1.00445,3.75532,1.95907,-3.8,1.6,0,12592,49.379,28.207,13928.3
2695313094,0.634767,2.223,95.4617,0.304284,0.161355,0.954119,-2.5339,-2.39763,-0.0198004,-0.981971,3.37885,1.76071,-3.8,1.6,0,12592,49.379,28.207,13928.3
2695414934,0.634767,2.223,95.4431,0.231239,0.151607,0.949143,-2.83793,-2.28452,0.0040838,-0.877164,2.66136,1.10809,-3.8,1.6,0,12592,49.379,28.207,13928.3
2695515291,0.634767,2.223,95.4228,0.166983,0.14182,0.946125,-3.07347,-2.21196,0.0132581,-0.776721,1.93178,0.631948,-3.8,1.6,0,12592,49.379,28.207,13928.3
2695615655,0.634766,2.223,95.4231,0.119507,0.134587,0.945051,-3.25292,-2.17279,0.0222541,-0.73553,1.37853,0.527193,-3.8,1.6,0,12592,49.379,28.207,13928.3
2695716113,0.634766,2.223,95.4274,0.081261,0.12601,0.943569,-3.39268,-2.15454,0.030725,-0.695789,0.933529,0.288413,-4.3,-0.9,0,12592,49.379,28.207,13928.3
2695816464,0.634766,2.223,95.4345,0.0266118,0.121195,0.942173,-3.49568,-2.14502,0.0310607,-0.515765,0.696964,0.623638,-4.3,-0.9,0,12592,49.218,29.374,14457.3
2695916813,0.634766,2.223,95.4425,-0.155589,0.136336,0.923177,-3.54033,-2.18871,0.0841706,-0.665039,-0.444104,-0.111976,-4.3,-0.9,0,12592,49.218,29.374,14457.3
2696017152,0.634766,2.223,95.4571,-0.305379,0.153449,0.912193,-3.41909,-2.35496,0.0145213,-0.706039,-2.24913,0.177405,-4.3,-0.9,0,12592,49.218,29.374,14457.3
2696117501,0.634766,2.223,95.4729,-0.369055,0.160692,0.910147,-3.20561,-2.64301,-0.0187281,-1.01422,-3.33709,1.42986,-4.3,-0.9,0,12592,49.218,29.374,14457.3
2696217855,0.634766,2.223,95.4842,-0.360369,0.153872,0.915509,-2.94922,-2.95303,-0.00408627,-0.818088,-3.58186,1.65158,-4.3,-0.9,0,12592,49.218,29.374,14457.3
2696319470,0.634766,2.223,95.4923,-0.30819,0.142292,0.922921,-2.70608,-3.23175,-0.000148185,-0.755968,-3.28349,1.30556,-4.3,-0.9,0,12592,49.218,29.374,14457.3
2696425032,0.634766,2.223,95.4923,-0.242766,0.130117,0.928413,-2.50939,-3.45847,0.00672932,-0.650152,-2.67764,0.802066,-4.3,-0.9,0,12592,49.218,29.374,14457.3
2696526571,0.634766,2.223,95.4929,-0.184975,0.118849,0.930543,-2.36399,-3.62133,0.00880269,-0.427772,-1.90572,0.619545,-4.3,-0.9,0,12592,49.218,29.374,14457.3
2696626933,0.634766,2.223,95.5093,-0.138107,0.111261,0.931721,-2.26266,-3.74709,0.0117735,-0.367641,-1.33909,0.471878,-4.3,-0.9,0,12592,49.218,29.374,14457.3
2696727397,0.634766,2.223,95.5221,-0.102886,0.107222,0.93181,-2.20214,-3.83913,0.0052736,-0.372041,-0.874505,0.0669314,-1.8,3.5,0,12592,49.218,29.374,14457.3
2696827740,0.634766,2.223,95.5309,-0.0687655,0.0936982,0.933332,-2.16313,-3.90897,-0.00310606,-0.420379,-0.587333,0.0719599,-1.8,3.5,0,12592,49.332,25.072,12368.5
2696928088,0.634766,2.223,95.5302,0.108069,-0.0226019,0.938062,-2.14432,-3.96776,0.0379466,-0.198748,-0.120763,0.327039,-1.8,3.5,0,12592,49.332,25.072,12368.5
2697028446,0.634766,2.223,95.5278,0.276576,-0.114317,0.922183,-2.21425,-3.7588,0.0166387,1.34705,2.13677,0.145148,-1.8,3.5,0,12592,49.332,25.072,12368.5
2697128766,0.634766,2.223,95.515,0.377042,-0.165541,0.905165,-2.35968,-3.39743,-0.044782,2.01302,3.31749,1.15826,-1.8,3.5,0,12592,49.332,25.072,12368.5
2697229029,0.634766,2.223,95.495,0.427803,-0.189096,0.895333,-2.5576,-2.92926,-0.0743412,2.35308,3.99964,2.23887,-1.8,3.5,0,12592,49.332,25.072,12368.5
2697329293,0.634766,2.223,95.469,0.441798,-0.193079,0.89332,-2.78392,-2.40679,-0.0718271,2.53172,4.31236,2.71831,-1.8,3.5,0,12592,49.332,25.072,12368.5
2697429554,0.634766,2.223,95.4437,0.435937,-0.1895,0.894587,-3.06493,-1.76735,-0.0653827,2.49716,4.31327,2.76026,-1.8,3.5,0,12592,49.332,25.072,12368.5
2697529764,0.634766,2.223,95.4387,0.409103,-0.181386,0.897734,-3.24026,-1.34435,-0.0501545,2.53228,4.15219,2.83604,-1.8,3.5,0,12592,49.332,25.072,12368.5
2697630032,0.634766,2.223,95.4295,0.338278,-0.147505,0.909138,-3.46916,-0.767857,-0.00471687,2.31452,3.5656,2.20293,-1.8,3.5,0,12592,49.332,25.072,12368.5
2697730380,0.634765,2.223,95.4252,0.26245,-0.103231,0.921284,-3.61846,-0.409851,0.0270213,1.70266,2.81372,1.35018,4.3,3.2,0,12592,49.332,25.072,12368.5
2697830739,0.634765,2.223,95.4194,0.193113,-0.0784245,0.927151,-3.73479,-0.159496,0.029239,1.02187,2.09158,0.845841,4.3,3.2,0,12592,49.326,27.62,13623.8
2697931118,0.634765,2.223,95.4276,0.105126,-0.186622,0.932984,-3.77371,0.0605181,0.071508,1.56918,1.13552,0.813186,4.3,3.2,0,12592,49.326,27.62,13623.8
2698031451,0.634765,2.223,95.4353,0.0338594,-0.306951,0.937089,-3.64978,0.340219,0.0464145,2.88525,0.385556,0.495486,4.3,3.2,0,12592,49.326,27.62,13623.8
2698131730,0.634765,2.223,95.4292,-0.00116799,-0.378455,0.938231,-3.41644,0.676918,0.005009,3.82906,-0.126069,1.25621,4.3,3.2,0,12592,49.326,27.62,13623.8
2698232121,0.634765,2.223,95.4227,-0.0164279,-0.412831,0.937017,-3.11982,1.04798,-0.00825533,4.21641,-0.29075,1.894,4.3,3.2,0,12592,49.326,27.62,13623.8
2698332493,0.634765,2.223,95.412,-0.0169096,-0.423948,0.933471,-2.7998,1.43007,-0.00917572,4.44176,-0.37456,1.9364,4.3,3.2,0,12592,49.326,27.62,13623.8
2698432804,0.634765,2.223,95.3978,-0.0107555,-0.422119,0.930741,-2.4695,1.80677,-0.00334649,4.31223,-0.445565,2.25763,4.3,3.2,0,12592,49.326,27.62,13623.8
2698533049,0.634765,2.223,95.3888,0.000624236,-0.41694,0.928755,-2.14869,2.17369,-0.000641726,4.27915,-0.386348,1.91511,4.3,3.2,0,12592,49.326,27.62,13623.8
2698633339,0.634765,2.223,95.3833,0.0138279,-0.407938,0.927049,-1.85235,2.53416,0.00965374,4.09025,-0.204536,1.91766,4.3,3.2,0,12592,49.326,27.62,13623.8
2698733724,0.634765,2.223,95.3857,0.0270859,-0.39592,0.926065,-1.57573,2.88742,0.0157855,3.88219,-0.0978113,1.80475,0.4,-1.1,0,12592,49.326,27.62,13623.8
2698834094,0.634765,2.223,95.3885,0.0244524,-0.365728,0.92668,-1.32401,3.24028,0.0208149,3.88814,0.179972,1.7266,0.4,-1.1,0,12592,49.268,27.266,13433.4
2698934445,0.634765,2.223,95.4084,-0.114315,-0.184884,0.952082,-1.05642,3.56305,0.1642,3.33115,-0.227956,2.21336,0.4,-1.1,0,12592,49.268,27.266,13433.4
2699034842,0.634765,2.223,95.4384,-0.292605,0.0683144,0.930878,-0.831361,3.52099,0.195596,0.394956,-2.29391,-0.237914,0.4,-1.1,0,12592,49.268,27.266,13433.4
2699135118,0.634765,2.223,95.4568,-0.383348,0.191327,0.896475,-0.647235,3.20167,0.0824812,-1.76049,-3.55677,0.10354,0.4,-1.1,0,12592,49.268,27.266,13433.4
2699235992,0.634765,2.223,95.4743,-0.422025,0.243926,0.8761,-0.45675,2.76105,0.0110709,-2.23565,-3.6253,2.29964,0.4,-1.1,0,12592,49.268,27.266,13433.4
2699336403,0.634765,2.223,95.5286,-0.434945,0.256862,0.86765,-0.260433,2.24697,0.0113465,-2.62035,-4.1207,2.23258,0.4,-1.1,0,12592,49.268,27.266,13433.4
2699436731,0.634765,2.223,95.5783,-0.434672,0.248377,0.86785,-0.0804267,1.74309,-0.0106055,-2.58874,-3.96974,2.25043,0.4,-1.1,0,12592,49.268,27.266,13433.4
2699537063,0.634765,2.223,95.5911,-0.404752,0.217723,0.878352,0.112777,1.23862,-0.0174436,-2.42789,-4.00707,2.28399,0.4,-1.1,0,12592,49.268,27.266,13433.4
2699637429,0.634765,2.223,95.5932,-0.344006,0.171331,0.894918,0.285749,0.788903,-0.00349132,-2.12954,-3.50321,1.72055,0.4,-1.1,0,12592,49.268,27.266,13433.4
2699737829,0.634765,2.223,95.5935,-0.278807,0.121192,0.91014,0.431656,0.445695,-0.0186896,-1.49959,-2.87894,0.94875,-3.9,-2.9,0,12592,49.268,27.266,13433.4
2699838183,0.634765,2.223,95.5969,-0.220743,0.106426,0.919351,0.570938,0.191053,-0.00781377,-0.753878,-2.22917,1.0093,-3.9,-2.9,0,12592,49.268,27.266,13433.4
2699938557,0.634765,2.223,95.5887,-0.194908,0.200431,0.920864,0.648494,-0.0409176,0.00553467,-1.33499,-1.79574,0.33483,-3.9,-2.9,0,12592,49.196,29.125,14328.3
2700038922,0.634765,2.223,95.575,-0.193016,0.300178,0.909009,0.636549,-0.35345,-0.0380244,-2.44001,-1.56558,0.585863,-3.9,-2.9,0,12592,49.196,29.125,14328.3
2700139294,0.634765,2.223,95.5618,-0.196229,0.362751,0.898645,0.566984,-0.751795,-0.0605822,-3.08848,-1.48641,1.56483,-3.9,-2.9,0,12592,49.196,29.125,14328.3
2700239699,0.634765,2.223,95.5497,-0.201105,0.390742,0.891717,0.466456,-1.20354,-0.061657,-3.53094,-1.52849,1.87013,-3.9,-2.9,0,12592,49.196,29.125,14328.3
2700340058,0.634765,2.223,95.5419,-0.206399,0.396366,0.888662,0.347764,-1.66904,-0.0617404,-3.77583,-1.50889,1.9477,-3.9,-2.9,0,12592,49.196,29.125,14328.3
2700440405,0.634765,2.223,95.5393,-0.211739,0.388642,0.887709,0.235006,-2.13239,-0.0439859,-3.68965,-1.54377,1.97072,-3.9,-2.9,0,12592,49.196,29.125,14328.3
2700540765,0.634765,2.223,95.5431,-0.219988,0.376197,0.888161,0.136497,-2.56564,-0.0322702,-3.50135,-1.60479,1.62062,-3.9,-2.9,0,12592,49.196,29.125,14328.3
2700641087,0.634765,2.223,95.5487,-0.228148,0.360201,0.889195,0.0560946,-2.9888,-0.023642,-3.30502,-1.67874,1.72766,-3.9,-2.9,0,12592,49.196,29.125,14328.3
2700741498,0.634765,2.223,95.5523,-0.223262,0.326269,0.89534,-0.00771736,-3.39889,-0.0215536,-3.17964,-1.77478,1.49102,0.8,2.3,0,12592,49.196,29.125,14328.3
2700841861,0.634765,2.223,95.5585,-0.194243,0.269852,0.908817,-0.0470588,-3.75151,-0.00907693,-2.65114,-1.6678,1.05826,0.8,2.3,0,12592,49.196,29.125,14328.3
2700942214,0.634765,2.223,95.5699,-0.0301721,0.0773417,0.942215,-0.069909,-4.04014,0.0416842,-1.88337,-1.28173,0.858976,0.8,2.3,0,12547,49.068,30.743,15085
2701042522,0.634765,2.223,95.5863,0.183907,-0.135485,0.929267,-0.122331,-3.95877,0.0757575,0.851567,1.19819,-0.0985328,0.8,2.3,0,12547,49.068,30.743,15085
2701142844,0.634765,2.223,95.5957,0.302837,-0.241413,0.902807,-0.209091,-3.60656,0.000995357,2.54716,2.81759,0.474914,0.8,2.3,0,12547,49.068,30.743,15085
2701243180,0.634765,2.223,95.6013,0.367037,-0.292968,0.883891,-0.316944,-3.12447,-0.0495679,3.14439,3.46601,1.90356,0.8,2.3,0,12547,49.068,30.743,15085
2701343502,0.634765,2.223,95.5809,0.393765,-0.311952,0.876005,-0.45603,-2.56695,-0.0672551,3.35898,3.87532,2.56993,0.8,2.3,0,12547,49.068,30.743,15085
2701443848,0.634765,2.223,95.5534,0.399752,-0.31602,0.873905,-0.591654,-1.97435,-0.0818492,3.46863,3.94505,2.83527,0.8,2.3,0,12547,49.068,30.743,15085
2701544221,0.634765,2.223,95.5312,0.392586,-0.312108,0.875764,-0.732125,-1.37001,-0.084023,3.38596,3.90538,3.08821,0.8,2.3,0,12547,49.068,30.743,15085
2701644559,0.634765,2.223,95.5092,0.380489,-0.305244,0.87931,-0.866645,-0.772252,-0.07723,3.35265,3.78023,2.92194,0.8,2.3,0,12547,49.068,30.743,15085
2701745012,0.634765,2.223,95.4863,0.360131,-0.292868,0.884428,-0.995944,-0.18427,-0.0641623,3.2392,3.74532,2.77604,3.3,1.8,0,12547,49.068,30.743,15085
2701845376,0.634765,2.223,95.4667,0.298902,-0.262761,0.896196,-1.11515,0.375639,-0.0496405,3.02857,3.425,2.54194,3.3,1.8,0,12547,49.068,30.743,15085
2701945732,0.634765,2.223,95.4569,0.188768,-0.303325,0.912705,-1.18751,0.841077,-0.00699297,2.7479,2.55185,1.87363,3.3,1.8,0,12547,49.1,29.096,14286.1
2702046084,0.634765,2.223,95.4518,0.0907725,-0.357357,0.926538,-1.10837,1.2706,-3.08082e-05,3.40723,1.41815,1.43672,3.3,1.8,0,12547,49.1,29.096,14286.1
2702146434,0.634765,2.223,95.4489,0.0270906,-0.394388,0.93325,-0.927311,1.66596,-0.0162733,3.70306,0.488578,1.51888,3.3,1.8,0,12547,49.1,29.096,14286.1
2702246797,0.634765,2.223,95.4523,-0.00300489,-0.408312,0.935294,-0.682537,2.05759,-0.0110808,3.88249,0.0459574,1.89732,3.3,1.8,0,12547,49.1,29.096,14286.1
2702347162,0.634765,2.223,95.4494,-0.01568,-0.37353,0.934338,-0.413021,2.44437,0.00370011,3.99765,-0.0682798,1.84288,3.3,1.8,0,12547,49.1,29.096,14286.1
2702447518,0.634765,2.223,95.4495,-0.0167702,-0.316118,0.933036,-0.17437,2.77219,0.0194662,3.4383,-0.114036,1.32922,3.3,1.8,0,12547,49.1,29.096,14286.1
2702547852,0.634765,2.223,95.4525,-0.0126753,-0.255798,0.933091,0.061581,3.0736,0.0321681,2.6868,-0.239226,0.791435,3.3,1.8,0,12547,49.1,29.096,14286.1
2702648247,0.634765,2.223,95.4575,-0.00521884,-0.200715,0.933797,0.181996,3.22979,0.0401825,2.15555,-0.159078,0.538061,3.3,1.8,0,12547,49.1,29.096,14286.1
2702748647,0.634765,2.223,95.4625,4.70333e-05,-0.156042,0.935126,0.307923,3.40729,0.0327142,1.49289,0.0436625,0.113854,0.2,0.6,0,12547,49.1,29.096,14286.1
2702849000,0.634765,2.223,95.4754,-0.00310804,-0.105313,0.935005,0.382236,3.52072,0.0461351,1.18837,0.0965615,0.422141,0.2,0.6,0,12547,49.1,29.096,14286.1
2702949378,0.634765,2.223,95.4988,-0.0754451,0.129353,0.932729,0.425836,3.54815,0.128186,-0.131206,-0.271973,0.586751,0.2,0.6,0,12547,49.145,29.861,14675.2
2703049754,0.634765,2.223,95.5272,-0.138252,0.303211,0.91759,0.35772,3.29207,0.0713134,-2.83989,-1.03759,-0.383014,0.2,0.6,0,12547,49.145,29.861,14675.2
2703150120,0.634765,2.223,95.5385,-0.175282,0.398407,0.902969,0.259465,2.90165,0.00911733,-3.74812,-1.43473,1.35748,0.2,0.6,0,12547,49.145,29.861,14675.2
2703250449,0.634765,2.223,95.5539,-0.174214,0.40741,0.901795,0.126255,2.41753,-0.0137408,-4.16368,-1.53059,2.0208,0.2,0.6,0,12547,49.145,29.861,14675.2
2703350796,0.634765,2.223,95.5838,-0.149879,0.366175,0.909311,0.00613347,1.96618,-0.0109524,-3.95344,-1.50769,1.44371,0.2,0.6,0,12547,49.145,29.861,14675.2
2703451235,0.634765,2.223,95.6112,-0.11925,0.303209,0.919074,-0.101908,1.57816,-0.0123186,-3.47558,-1.15336,1.01129,0.2,0.6,0,12547,49.145,29.861,14675.2
2703551631,0.634765,2.223,95.6187,-0.091574,0.232474,0.926877,-0.198888,1.27507,-0.0102805,-2.66332,-0.8573,0.550414,0.2,0.6,0,12547,49.145,29.861,14675.2
2703652068,0.634765,2.223,95.6141,-0.0702577,0.166834,0.932161,-0.262508,1.04762,-0.0228525,-1.9305,-0.705049,0.0729944,0.2,0.6,0,12547,49.145,29.861,14675.2
2703752537,0.634765,2.223,95.6106,-0.0530114,0.115049,0.935616,-0.311626,0.879838,-0.0386419,-1.36095,-0.458069,0.0265436,0.5,0.4,0,12547,49.145,29.861,14675.2
2703852867,0.634765,2.223,95.609,-0.0488758,0.0600261,0.936701,-0.349127,0.752181,-0.0311707,-1.00518,-0.301202,0.135362,0.5,0.4,0,12547,49.145,29.861,14675.2
2703953283,0.634765,2.223,95.5929,-0.0566033,0.00413758,0.938264,-0.328797,0.682752,-0.0260551,-0.014418,-0.441631,-0.0775019,0.5,0.4,0,12547,48.993,31.939,15647.9
2704053632,0.634765,2.223,95.5717,-0.0560885,-0.0217832,0.939276,-0.280852,0.643864,-0.0515955,0.249098,-0.479638,-0.0415742,0.5,0.4,0,12547,48.993,31.939,15647.9
2704153996,0.634765,2.223,95.546,-0.05134,-0.0334653,0.939819,-0.231042,0.63356,-0.0642103,0.457535,-0.323136,0.155423,0.5,0.4,0,12547,48.993,31.939,15647.9
2704254366,0.634765,2.223,95.5289,-0.0448216,-0.0354387,0.939824,-0.178885,0.61937,-0.0521107,0.410746,-0.468279,0.0814666,0.5,0.4,0,12547,48.993,31.939,15647.9
2704354705,0.634765,2.223,95.5094,-0.0365397,-0.0320767,0.9394,-0.122175,0.626369,-0.0433051,0.519931,-0.329544,0.166023,0.5,0.4,0,12547,48.993,31.939,15647.9
2704455018,0.634765,2.223,95.4929,-0.0294001,-0.0250264,0.939377,-0.0806636,0.633239,-0.0346961,0.443221,-0.209111,0.333816,0.5,0.4,0,12547,48.993,31.939,15647.9
2704555946,0.634765,2.223,95.483,-0.023495,-0.0175009,0.938954,-0.0526866,0.644201,-0.0195012,0.300205,-0.117683,0.260337,0.5,0.4,0,12547,48.993,31.939,15647.9
2704661308,0.634765,2.223,95.4817,-0.0213681,-0.0114545,0.938848,-0.0302062,0.651766,-0.0137935,0.211577,-0.0771903,0.0413715,0.5,0.4,0,12547,48.993,31.939,15647.9
2704761670,0.634765,2.223,95.4846,-0.0184918,-0.00709408,0.938761,-0.0141651,0.65488,-0.00111309,0.134669,-0.0888362,0.139693,3.7,4.4,0,12547,48.993,31.939,15647.9
2704861997,0.634765,2.223,95.4888,-0.0086657,-0.0110676,0.939318,-0.00185909,0.666104,0.0140128,0.13346,-0.0163113,0.0632067,3.7,4.4,0,12547,48.993,31.939,15647.9
2704962357,0.634765,2.223,95.4917,0.110712,-0.10387,0.933257,-0.00546435,0.689572,0.0435563,0.344309,0.392464,-0.145918,3.7,4.4,0,12535,49.159,31.488,15479.2
2705062727,0.634765,2.223,95.4914,0.232912,-0.188127,0.916339,-0.0651498,0.907393,-0.00911709,1.50588,1.96729,-0.0273641,3.7,4.4,0,12535,49.159,31.488,15479.2
2705163089,0.634765,2.223,95.4836,0.309502,-0.24082,0.901107,-0.165063,1.26275,-0.0467668,2.15815,2.7094,1.39539,3.7,4.4,0,12535,49.159,31.488,15479.2
2705263404,0.634765,2.223,95.4753,0.34726,-0.265985,0.892301,-0.287957,1.70182,-0.0395073,2.50561,3.22532,1.89124,3.7,4.4,0,12535,49.159,31.488,15479.2
2705363752,0.634765,2.223,95.4544,0.358601,-0.273948,0.889664,-0.418098,2.17367,-0.0399103,2.66672,3.40004,2.04294,3.7,4.4,0,12535,49.159,31.488,15479.2
2705464089,0.634765,2.223,95.4282,0.354873,-0.274535,0.889537,-0.559761,2.65766,-0.0333929,2.63985,3.39144,2.36419,3.7,4.4,0,12535,49.159,31.488,15479.2
2705564456,0.634765,2.223,95.4128,0.346444,-0.271637,0.890575,-0.687835,3.13287,-0.0131296,2.60429,3.28006,2.2607,3.7,4.4,0,12535,49.159,31.488,15479.2
2705664809,0.634765,2.223,95.403,0.335039,-0.267382,0.892197,-0.811045,3.58578,0.000880074,2.51327,3.12976,1.97039,3.7,4.4,0,12535,49.159,31.488,15479.2
2705765182,0.634765,2.223,95.4027,0.301645,-0.246524,0.899188,-0.923056,4.0223,0.0126109,2.40249,2.94316,1.9002,3.8,-1.3,0,12535,49.159,31.488,15479.2
2705865469,0.634765,2.223,95.4099,0.235148,-0.214709,0.912785,-1.01855,4.40378,0.0414722,2.1614,2.59663,1.27661,3.8,-1.3,0,12535,49.159,31.488,15479.2
2705965835,0.634765,2.223,95.4184,-0.0150108,-0.164263,0.94697,-1.07951,4.71876,0.0940757,1.82345,1.7549,1.38718,3.8,-1.3,0,12535,49.159,31.488,15479.2
2706066194,0.634765,2.223,95.4341,-0.273859,-0.105796,0.956216,-0.910897,4.76965,0.15965,1.05075,-1.61684,0.423127,3.8,-1.3,0,12535,49.218,26.873,13226.4
2706166543,0.634765,2.223,95.4617,-0.40633,-0.0766865,0.952593,-0.608889,4.632,0.0699924,0.533547,-3.5253,0.66103,3.8,-1.3,0,12535,49.218,26.873,13226.4
2706266886,0.634765,2.223,95.4788,-0.465615,-0.0569345,0.945613,-0.214335,4.40277,0.0429702,0.323902,-4.28492,2.09252,3.8,-1.3,0,12535,49.218,26.873,13226.4
2706367253,0.634765,2.223,95.4981,-0.483401,-0.0463274,0.940111,0.225396,4.129,0.0216296,0.321787,-4.76445,2.15221,3.8,-1.3,0,12535,49.218,26.873,13226.4
2706467609,0.634765,2.223,95.5131,-0.478999,-0.0424662,0.935999,0.750449,3.77846,0.00856373,0.153882,-4.7176,2.2318,3.8,-1.3,0,12535,49.218,26.873,13226.4
2706567962,0.634765,2.223,95.5114,-0.464345,-0.0471539,0.935485,1.16781,3.47911,-8.54395e-05,0.11545,-4.52297,2.22372,3.8,-1.3,0,12535,49.218,26.873,13226.4
2706668382,0.634765,2.223,95.5152,-0.443449,-0.0588741,0.937668,1.57101,3.18952,8.56072e-06,0.0990402,-4.37157,2.02798,3.8,-1.3,0,12535,49.218,26.873,13226.4
2706768798,0.634765,2.223,95.5295,-0.388735,-0.069454,0.939357,1.95378,2.93341,-0.000800874,0.224383,-3.89442,1.78643,-2.2,-1.3,0,12535,49.218,26.873,13226.4
2706869141,0.634765,2.223,95.5397,-0.309301,-0.0547787,0.937836,2.28835,2.72977,0.00981216,0.407663,-3.3241,1.45539,-2.2,-1.3,0,12535,49.218,26.873,13226.4
2706969511,0.634765,2.223,95.544,-0.188626,0.14188,0.92632,2.53454,2.54225,0.118914,-0.363268,-2.39506,1.21261,-2.2,-1.3,0,12535,49.218,26.873,13226.4
2707069883,0.634765,2.223,95.5563,-0.100366,0.309533,0.926483,2.48216,2.24,0.0480136,-2.94996,-1.06885,-0.378893,-2.2,-1.3,0,12535,49.236,27.674,13625.6
2707170146,0.634765,2.223,95.5608,-0.0583025,0.399157,0.927106,2.31083,1.88792,-0.0424965,-3.71601,-0.409858,1.35124,-2.2,-1.3,0,12535,49.236,27.674,13625.6
2707270516,0.634765,2.223,95.5655,-0.0427694,0.444057,0.926128,2.07193,1.47065,-0.0519148,-4.41904,-0.26961,1.61853,-2.2,-1.3,0,12535,49.236,27.674,13625.6
2707370864,0.634765,2.223,95.5884,-0.0429858,0.460862,0.924023,1.8037,1.04798,-0.0699062,-4.54889,-0.138305,1.95767,-2.2,-1.3,0,12535,49.236,27.674,13625.6
2707471207,0.634765,2.223,95.6072,-0.049967,0.46184,0.921043,1.52251,0.622106,-0.0719715,-4.49742,-0.142371,2.12819,-2.2,-1.3,0,12535,49.236,27.674,13625.6
2707571537,0.634765,2.223,95.6077,-0.0596231,0.45118,0.918458,1.24306,0.200635,-0.0605892,-4.34412,-0.146162,2.16597,-2.2,-1.3,0,12535,49.236,27.674,13625.6
2707671879,0.634765,2.223,95.606,-0.0727215,0.434785,0.917022,0.979175,-0.211963,-0.048524,-4.30655,-0.308471,1.82768,-2.2,-1.3,0,12535,49.236,27.674,13625.6
2707772415,0.634765,2.223,95.6188,-0.0851267,0.415433,0.91652,0.74598,-0.608358,-0.0493688,-3.98059,-0.473871,1.70785,4.6,-0.7,0,12535,49.236,27.674,13625.6
2707872815,0.634765,2.223,95.6231,-0.0856028,0.355878,0.920746,0.520191,-0.996596,-0.0405105,-3.97875,-0.503841,1.53171,4.6,-0.7,0,12535,49.236,27.674,13625.6
2707973199,0.634765,2.223,95.6173,-0.0419675,0.0672905,0.931792,0.345275,-1.297,-0.00687807,-2.56681,-0.386202,0.922028,4.6,-0.7,0,12535,49.236,27.674,13625.6
2708073576,0.634765,2.223,95.6148,0.00663658,-0.248439,0.934892,0.370222,-1.22816,0.00712644,1.44443,0.194414,-0.0117524,4.6,-0.7,0,12535,49.236,29.057,14306.5
2708173937,0.634765,2.223,95.6129,0.0308985,-0.410607,0.934429,0.52163,-0.907111,-0.0741288,3.66596,0.558896,0.976696,4.6,-0.7,0,12535,49.236,29.057,14306.5
2708274302,0.634765,2.223,95.6023,0.0354306,-0.482542,0.935667,0.73921,-0.469058,-0.104256,4.51512,0.672621,2.41867,4.6,-0.7,0,12535,49.236,29.057,14306.5
2708374662,0.634765,2.223,95.5633,0.0267107,-0.500502,0.93907,0.995888,0.0239815,-0.101083,4.74719,0.624593,2.98419,4.6,-0.7,0,12535,49.236,29.057,14306.5
2708475058,0.634765,2.223,95.5272,0.0116623,-0.49324,0.942533,1.26811,0.524281,-0.0859834,4.85938,0.555647,2.96142,4.6,-0.7,0,12535,49.236,29.057,14306.5
2708575401,0.634765,2.223,95.5104,-0.00278901,-0.475199,0.945353,1.54179,0.998381,-0.0756411,4.57857,0.414549,2.78573,4.6,-0.7,0,12535,49.236,29.057,14306.5
2708677427,0.634765,2.223,95.4956,-0.0207644,-0.456533,0.947628,1.81685,1.45261,-0.0445364,4.40508,0.300989,2.54813,4.6,-0.7,0,12535,49.236,29.057,14306.5
2708783151,0.634765,2.223,95.4874,-0.0391727,-0.433772,0.949606,2.09883,1.86725,-0.0350478,4.12573,0.0709702,2.3944,-4,-3.4,0,12535,49.236,29.057,14306.5
2708883508,0.634765,2.223,95.4804,-0.0513892,-0.365033,0.94979,2.38086,2.24693,-0.00982714,3.79682,-0.133608,1.94014,-4,-3.4,0,12535,49.236,29.057,14306.5
2708983863,0.634765,2.223,95.4875,-0.0809136,-0.118502,0.953095,2.62842,2.55382,0.075591,2.97796,-0.239041,1.58331,-4,-3.4,0,12535,49.236,29.057,14306.5
2709084240,0.634765,2.223,95.5046,-0.126367,0.18992,0.932464,2.68798,2.53123,0.123525,-0.737585,-0.817481,-0.0883361,-4,-3.4,0,12535,49.236,29.057,14306.5
2709184586,0.634765,2.223,95.5415,-0.157422,0.346298,0.911521,2.60446,2.25538,0.0380415,-3.23034,-1.14742,0.184646,-4,-3.4,0,12535,49.236,29.057,14306.5
2709284931,0.634765,2.223,95.5738,-0.173592,0.426035,0.898084,2.4776,1.87286,-0.0209796,-4.02113,-1.24108,1.64653,-4,-3.4,0,12535,49.236,29.057,14306.5
2709385286,0.634766,2.223,95.622,-0.178658,0.455633,0.891672,2.31858,1.42146,-0.030801,-4.36167,-1.33761,2.05321,-4,-3.4,0,12535,49.236,29.057,14306.5
2709485612,0.634766,2.223,95.6691,-0.174616,0.457189,0.890117,2.14805,0.962881,-0.0485088,-4.42373,-1.33142,1.94588,-4,-3.4,0,12535,49.236,29.057,14306.5
2709585933,0.634766,2.223,95.663,-0.169802,0.445172,0.891859,1.97641,0.517667,-0.0547366,-4.20749,-1.15601,2.07081,-4,-3.4,0,12535,49.236,29.057,14306.5
2709686321,0.634766,2.223,95.6476,-0.170388,0.430933,0.893888,1.79395,0.0635191,-0.0517506,-4.17637,-1.11374,2.15049,-4,-3.4,0,12535,49.102,29.433,14452.2
2709786705,0.634766,2.223,95.6537,-0.172331,0.413702,0.897071,1.61828,-0.371145,-0.0559898,-4.07058,-1.05485,1.89227,3.3,-2.8,0,12535,49.102,29.433,14452.2
2709887048,0.634766,2.223,95.662,-0.171305,0.3806,0.901069,1.46213,-0.801673,-0.0545855,-3.85417,-1.16693,1.60664,3.3,-2.8,0,12535,49.102,29.433,14452.2
2709987406,0.634766,2.223,95.65,-0.154017,0.156884,0.912777,1.30593,-1.22579,-0.0134861,-3.72816,-1.23055,1.18734,3.3,-2.8,0,12535,49.102,29.433,14452.2
2710087764,0.634766,2.223,95.64,-0.122336,-0.173865,0.939294,1.32443,-1.37189,0.0145266,-0.188941,-0.976505,0.195712,3.3,-2.8,0,12535,49.102,29.433,14452.2
2710188137,0.634766,2.223,95.6345,-0.108337,-0.365117,0.96085,1.57543,-1.15848,-0.0810098,3.25427,-0.623202,0.401914,3.3,-2.8,0,12535,49.102,29.433,14452.2
2710288474,0.634766,2.223,95.616,-0.116668,-0.450065,0.973371,1.87187,-0.853438,-0.128778,4.10695,-0.481012,2.05997,3.3,-2.8,0,12535,49.102,29.433,14452.2
2710388837,0.634766,2.223,95.583,-0.126708,-0.469432,0.981209,2.22616,-0.487789,-0.12904,4.42134,-0.556434,2.74826,3.3,-2.8,0,12535,49.102,29.433,14452.2
2710489162,0.634766,2.223,95.5439,-0.148936,-0.452744,0.984391,2.58972,-0.125845,-0.106274,4.39997,-0.65193,2.66395,3.3,-2.8,0,12535,49.102,29.433,14452.2
2710590987,0.634766,2.223,95.4895,-0.15783,-0.39319,0.979474,2.96057,0.202259,-0.0882337,4.10097,-0.875278,2.61542,3.3,-2.8,0,12502,49.096,29.429,14448.5
2710691826,0.634766,2.223,95.4381,-0.15066,-0.323507,0.969779,3.27998,0.449097,-0.0475649,3.33987,-0.92646,1.79818,3.3,-2.8,0,12502,49.096,29.429,14448.5
2710792246,0.634766,2.223,95.4254,-0.13854,-0.242993,0.957555,3.53428,0.626731,-0.0132425,2.47285,-0.871639,1.22416,-0.2,0.7,0,12502,49.096,29.429,14448.5
2710892592,0.634766,2.223,95.4222,-0.112506,-0.166856,0.948195,3.74269,0.758662,0.0101281,1.89741,-0.781184,1.26038,-0.2,0.7,0,12502,49.096,29.429,14448.5
2710992913,0.634766,2.223,95.4353,0.0606877,0.0542662,0.937054,3.85444,0.838882,0.0846934,0.67095,-0.169695,0.674279,-0.2,0.7,0,12502,49.096,29.429,14448.5
2711093280,0.634766,2.223,95.4657,0.217744,0.212334,0.95928,3.60818,0.825925,0.0904397,-2.01345,2.1236,-0.0207939,-0.2,0.7,0,12502,49.096,29.429,14448.5
2711193632,0.634766,2.223,95.4899,0.31562,0.30058,0.985463,3.20843,0.799101,-0.0101264,-2.90389,3.07865,1.02595,-0.2,0.7,0,12502,49.096,29.429,14448.5
