timestamp,lat,log,alt,roll,pitch,yaw,vel_x,vel_y,vel_z,acc_x,acc_y,acc_z,act_vx,act_vy,act_yr,capacity,vol,cur,power
5259294287,0.63477,2.223,105.693,-0.0676495,0.0251141,0.866238,0.0935107,0.131099,-0.0107412,-0.0137159,0.0448495,0.0798417,-3.2,4,0,12115,49.904,23.097,11526.3
5259394895,0.63477,2.223,105.68,-0.0729595,0.0284772,0.865277,0.0883129,0.120015,-0.0156853,-0.0980505,-0.102903,-0.0528457,-3.2,4,0,12115,49.904,23.097,11526.3
5259495286,0.63477,2.223,105.672,-0.0637945,0.0399129,0.864806,0.0757935,0.102028,-0.0164071,-0.175139,0.00711528,0.234475,-3.2,4,0,12115,49.904,23.097,11526.3
5259595649,0.63477,2.223,105.665,0.0539308,0.132498,0.872358,0.0531433,0.0768944,0.0429772,-0.431356,0.203766,0.358655,-3.2,4,0,12115,49.904,23.097,11526.3
5259696040,0.63477,2.223,105.683,0.21423,0.23267,0.893905,-0.208824,0.0596871,0.0323112,-1.79034,1.99239,0.545269,-3.2,4,0,12115,49.904,23.097,11526.3
5259796374,0.63477,2.223,105.692,0.301018,0.283239,0.910206,-0.626976,0.0625081,-0.00818232,-2.55146,3.03412,1.35346,-3.2,4,0,12115,49.904,23.097,11526.3
5259896767,0.63477,2.223,105.685,0.353885,0.309385,0.921222,-1.13365,0.0780107,-0.0380766,-2.75092,3.54756,2.20068,-3.2,4,0,12115,49.904,23.097,11526.3
5259997118,0.63477,2.223,105.675,0.376578,0.322573,0.926179,-1.69689,0.0979706,-0.0617158,-3.0037,3.8264,2.45167,-3.2,4,0,12115,49.904,23.097,11526.3
5260097488,0.63477,2.223,105.661,0.375418,0.321774,0.923336,-2.28195,0.115397,-0.0809973,-3.04908,3.8548,2.93277,-3.2,4,0,12115,49.904,23.097,11526.3
5260197813,0.63477,2.223,105.626,0.35358,0.317234,0.919051,-2.86932,0.144937,-0.0623831,-2.96945,3.95438,2.80814,-3.2,4,0,12115,49.904,23.097,11526.3
5260298230,0.63477,2.223,105.609,0.313375,0.296886,0.909528,-3.42706,0.156482,-0.0397722,-2.95282,3.70475,2.54673,-4.1,-2.3,0,12115,49.904,23.097,11526.3
5260398592,0.63477,2.223,105.612,0.219694,0.251863,0.890165,-3.92248,0.176121,0.00665486,-2.42782,3.30651,2.18175,-4.1,-2.3,0,12115,49.883,22.912,11429.2
5260498953,0.63477,2.223,105.629,-0.0423272,0.187417,0.846659,-4.28816,0.163669,0.128596,-2.13826,2.08519,0.339176,-4.1,-2.3,0,12115,49.883,22.912,11429.2
5260599292,0.634769,2.223,105.648,-0.283853,0.131507,0.840064,-4.34075,0.0194034,0.0730968,-1.27996,-1.32421,-0.802069,-4.1,-2.3,0,12115,49.883,22.912,11429.2
5260699594,0.634769,2.223,105.653,-0.413221,0.108283,0.844638,-4.19332,-0.230125,-0.0153333,-0.686582,-2.92056,1.1471,-4.1,-2.3,0,12115,49.883,22.912,11429.2
5260799945,0.634769,2.223,105.651,-0.469956,0.102527,0.84817,-3.93473,-0.57333,-0.0336828,-0.65439,-3.87136,2.08448,-4.1,-2.3,0,12115,49.883,22.912,11429.2
5260900341,0.634769,2.223,105.637,-0.481939,0.105287,0.849387,-3.62939,-0.949818,-0.0371027,-0.604726,-4.10407,2.63712,-4.1,-2.3,0,12115,49.883,22.912,11429.2
5261000640,0.634769,2.223,105.618,-0.475983,0.110248,0.849322,-3.32347,-1.32864,-0.023016,-0.610473,-4.16496,2.45149,-4.1,-2.3,0,12115,49.883,22.912,11429.2
5261100956,0.634769,2.223,105.61,-0.467698,0.11305,0.848614,-3.02268,-1.68758,-0.0128807,-0.541634,-3.95384,2.32537,-4.1,-2.3,0,12115,49.883,22.912,11429.2
5261201270,0.634769,2.223,105.607,-0.455855,0.116059,0.847989,-2.73471,-2.06475,0.00344045,-0.795612,-4.03008,2.07103,-4.1,-2.3,0,12115,49.883,22.912,11429.2
5261301656,0.634769,2.223,105.606,-0.441535,0.120346,0.847495,-2.45442,-2.41727,0.00789321,-0.70838,-3.76174,1.84053,0.5,0.2,0,12115,49.883,22.912,11429.2
5261401998,0.634769,2.223,105.62,-0.41726,0.108365,0.853654,-2.17951,-2.75599,0.0239258,-0.702211,-3.55375,1.74899,0.5,0.2,0,12115,49.875,23.259,11600.4
5261502351,0.634769,2.223,105.637,-0.283467,-0.0572436,0.872138,-1.89861,-3.09338,0.12885,-0.571701,-3.20053,2.58501,0.5,0.2,0,12115,49.875,23.259,11600.4
5261602707,0.634769,2.223,105.671,-0.086201,-0.290107,0.869471,-1.63762,-3.09842,0.198742,1.81198,-1.27953,1.1889,0.5,0.2,0,12115,49.875,23.259,11600.4
5261703078,0.634769,2.223,105.705,0.0436071,-0.419293,0.852886,-1.37449,-2.76346,0.218583,4.15993,0.601195,1.11651,0.5,0.2,0,12115,49.875,23.259,11600.4
5261803427,0.634769,2.223,105.736,0.0881783,-0.466028,0.845009,-1.16909,-2.35683,0.0477765,4.77022,1.34966,0.221603,0.5,0.2,0,12115,49.875,23.259,11600.4
5261903829,0.634769,2.223,105.751,0.0995483,-0.477025,0.842889,-0.932875,-1.87591,-0.0416973,4.67674,1.42516,2.37146,0.5,0.2,0,12115,49.875,23.259,11600.4
5262004298,0.634769,2.223,105.751,0.0944095,-0.437116,0.849601,-0.68993,-1.3557,-0.0702398,4.90714,1.57758,2.1671,0.5,0.2,0,12115,49.875,23.259,11600.4
5262104615,0.634769,2.223,105.748,0.0763765,-0.360293,0.858355,-0.488256,-0.885133,-0.0774912,4.22653,1.52121,1.79619,0.5,0.2,0,12115,49.875,23.259,11600.4
5262204870,0.634769,2.223,105.738,0.052031,-0.279553,0.864179,-0.350174,-0.5087,-0.0826405,3.28251,1.35669,1.03095,0.5,0.2,0,12115,49.875,23.259,11600.4
5262305525,0.634769,2.223,105.727,0.0215595,-0.206472,0.867853,-0.248938,-0.206911,-0.0595843,2.48277,1.07143,0.98609,-4.8,1.4,0,12115,49.875,23.259,11600.4
5262406686,0.634769,2.223,105.731,0.000775037,-0.129553,0.869955,-0.178715,0.0162127,-0.0334735,1.83453,0.762524,0.574644,-4.8,1.4,0,12071,49.661,26.497,13158.7
5262506964,0.634769,2.223,105.728,0.0252565,0.125986,0.86952,-0.129306,0.175645,0.0337381,0.946069,0.585396,0.793086,-4.8,1.4,0,12071,49.661,26.497,13158.7
5262607214,0.634769,2.223,105.733,0.0544832,0.323999,0.875336,-0.332521,0.0976781,0.00510281,-2.36711,0.947727,-0.219379,-4.8,1.4,0,12071,49.661,26.497,13158.7
5262707498,0.634769,2.223,105.736,0.0717793,0.432393,0.882264,-0.662639,-0.0870431,-0.0763685,-3.63184,1.14578,1.22222,-4.8,1.4,0,12071,49.661,26.497,13158.7
5262807845,0.634769,2.223,105.74,0.0739335,0.481779,0.885784,-1.08864,-0.359272,-0.0793897,-4.38417,1.12036,2.42952,-4.8,1.4,0,12071,49.661,26.497,13158.7
5262908246,0.634769,2.223,105.747,0.0682777,0.493055,0.884693,-1.5415,-0.659781,-0.0729972,-4.52224,1.17724,2.72247,-4.8,1.4,0,12071,49.661,26.497,13158.7
5263008601,0.634769,2.223,105.758,0.0600872,0.488394,0.882411,-1.98293,-0.966708,-0.0506593,-4.52842,1.1672,2.46333,-4.8,1.4,0,12071,49.661,26.497,13158.7
5263108907,0.634769,2.223,105.78,0.0501182,0.478272,0.878978,-2.40972,-1.27794,-0.0316272,-4.4454,0.935577,2.29308,-4.8,1.4,0,12071,49.661,26.497,13158.7
5263209272,0.634769,2.223,105.785,0.0354125,0.448356,0.873883,-2.81672,-1.58541,-0.0199721,-4.3961,0.884082,1.92469,-4.8,1.4,0,12071,49.661,26.497,13158.7
5263309664,0.634769,2.223,105.791,0.01333,0.376137,0.868695,-3.17204,-1.87388,-0.0100848,-3.65719,0.636963,1.89523,1.4,0.4,0,12071,49.661,26.497,13158.7
5263410013,0.634769,2.223,105.786,-0.0116425,0.279242,0.863007,-3.45266,-2.10892,-0.0046278,-3.01299,0.468235,1.00039,1.4,0.4,0,12071,49.408,32.035,15827.9
5263510435,0.634769,2.223,105.781,-0.0607665,-0.0196165,0.862428,-3.65837,-2.29639,0.0326106,-1.96223,0.153954,0.66472,1.4,0.4,0,12071,49.408,32.035,15827.9
5263610758,0.634768,2.223,105.781,-0.088462,-0.298651,0.876587,-3.55731,-2.21031,0.0707353,2.08039,-0.348195,0.207215,1.4,0.4,0,12071,49.408,32.035,15827.9
5263711111,0.634768,2.223,105.779,-0.0973803,-0.424864,0.886361,-3.28976,-1.96096,-0.0473791,4.12873,-0.490951,0.483966,1.4,0.4,0,12071,49.408,32.035,15827.9
5263811453,0.634768,2.223,105.768,-0.0901387,-0.470989,0.888705,-2.86132,-1.54326,-0.0974689,4.74444,-0.318151,2.60003,1.4,0.4,0,12071,49.408,32.035,15827.9
5263911824,0.634768,2.223,105.749,-0.0878827,-0.476351,0.888443,-2.48114,-1.15546,-0.0932482,4.96209,-0.226724,2.63312,1.4,0.4,0,12071,49.408,32.035,15827.9
5264012205,0.634768,2.223,105.724,-0.0915195,-0.468229,0.889097,-2.1011,-0.779056,-0.074484,4.75781,-0.272904,2.76844,1.4,0.4,0,12071,49.408,32.035,15827.9
5264114090,0.634768,2.223,105.708,-0.0970745,-0.458881,0.8911,-1.72397,-0.411352,-0.0643434,4.70065,-0.332261,2.49168,1.4,0.4,0,12071,49.408,32.035,15827.9
5264216474,0.634768,2.223,105.702,-0.106742,-0.437959,0.892257,-1.3479,-0.054255,-0.0482584,4.46958,-0.394728,2.41554,1.4,0.4,0,12071,49.408,32.035,15827.9
5264317027,0.634768,2.223,105.706,-0.113378,-0.39269,0.889725,-0.982608,0.274626,-0.0301131,4.24898,-0.453445,1.93039,0.3,2.5,0,12071,49.408,32.035,15827.9
5264419934,0.634768,2.223,105.715,-0.0724622,-0.310222,0.874305,-0.649771,0.548508,-0.00721319,3.46016,-0.631942,2.18772,0.3,2.5,0,12071,49.515,28.859,14289.5
5264520421,0.634768,2.223,105.721,0.112506,-0.154154,0.848144,-0.412989,0.809875,0.0975294,2.81748,0.288997,1.0221,0.3,2.5,0,12071,49.515,28.859,14289.5
5264620814,0.634768,2.223,105.732,0.225576,-0.0285363,0.859191,-0.498293,1.03093,0.0610457,0.784832,2.38059,-0.516641,0.3,2.5,0,12071,49.515,28.859,14289.5
5264721181,0.634768,2.223,105.733,0.253931,0.0352943,0.87269,-0.701117,1.21427,-0.043599,-0.164896,2.77393,0.149134,0.3,2.5,0,12071,49.515,28.859,14289.5
5264821528,0.634768,2.223,105.732,0.234295,0.0592289,0.878366,-0.959978,1.38351,-0.0641871,-0.578066,3.00544,0.635777,0.3,2.5,0,12071,49.515,28.859,14289.5
5264921887,0.634768,2.223,105.725,0.186375,0.0584236,0.878466,-1.20335,1.51748,-0.071541,-0.643076,2.59057,0.427179,0.3,2.5,0,12071,49.515,28.859,14289.5
5265022283,0.634768,2.223,105.73,0.13826,0.0457711,0.876095,-1.39814,1.62102,-0.0532763,-0.515577,2.01842,0.538253,0.3,2.5,0,12071,49.515,28.859,14289.5
5265122651,0.634768,2.223,105.734,0.0975377,0.032315,0.873725,-1.54904,1.70164,-0.0380679,-0.374664,1.52966,0.180297,0.3,2.5,0,12071,49.515,28.859,14289.5
5265223028,0.634768,2.223,105.727,0.0662334,0.0186887,0.871731,-1.66434,1.75286,-0.0317905,-0.333412,1.10002,0.335091,0.3,2.5,0,12071,49.515,28.859,14289.5
5265323454,0.634768,2.223,105.71,0.0424388,0.00552558,0.870087,-1.7552,1.80552,-0.0269916,-0.11813,0.875917,0.0175899,-2.2,-2.2,0,12071,49.515,28.859,14289.5
5265423825,0.634768,2.223,105.709,0.0100214,0.0061496,0.86933,-1.82593,1.84746,-0.0225864,0.0253689,0.676411,0.207031,-2.2,-2.2,0,12071,49.515,28.859,14289.5
5265524222,0.634768,2.223,105.698,-0.144565,0.0838197,0.862957,-1.87262,1.86835,0.0261722,-0.181764,0.139482,0.461395,-2.2,-2.2,0,12071,49.483,29.013,14356.5
5265624543,0.634768,2.223,105.689,-0.287806,0.145798,0.846794,-1.84409,1.6828,-0.0184872,-1.14271,-1.74313,-0.0180099,-2.2,-2.2,0,12071,49.483,29.013,14356.5
5265724916,0.634768,2.223,105.671,-0.375164,0.183143,0.832635,-1.73983,1.36304,-0.0487914,-1.5066,-2.74478,1.42275,-2.2,-2.2,0,12071,49.483,29.013,14356.5
5265825264,0.634768,2.223,105.661,-0.415825,0.197999,0.825125,-1.6006,0.944754,-0.0343758,-1.88453,-3.44623,1.88797,-2.2,-2.2,0,12071,49.483,29.013,14356.5
5265925612,0.634768,2.223,105.658,-0.428046,0.199615,0.823389,-1.45051,0.504807,-0.0170589,-1.99359,-3.53262,2.09129,-2.2,-2.2,0,12071,49.483,29.013,14356.5
5266025991,0.634768,2.223,105.663,-0.425088,0.194059,0.824262,-1.29528,0.0633489,0.00715484,-1.87389,-3.38156,2.31523,-2.2,-2.2,0,12071,49.483,29.013,14356.5
5266126347,0.634768,2.223,105.677,-0.420119,0.185322,0.826265,-1.14094,-0.355815,0.0205792,-1.77742,-3.3966,1.75999,-2.2,-2.2,0,12071,49.483,29.013,14356.5
5266226640,0.634768,2.223,105.692,-0.414914,0.177268,0.82767,-0.992081,-0.765636,0.0285916,-1.75507,-3.37925,1.59429,-2.2,-2.2,0,12071,49.483,29.013,14356.5
5266327037,0.634768,2.223,105.702,-0.40973,0.173798,0.828369,-0.830335,-1.15138,-0.000812925,-1.55304,-3.32909,1.41953,1.7,1.8,0,12071,49.483,29.013,14356.5
5266427402,0.634768,2.223,105.713,-0.377715,0.151758,0.83508,-0.67342,-1.53826,-0.00664801,-1.5811,-3.21465,1.50514,1.7,1.8,0,12071,49.483,29.013,14356.5
5266527677,0.634768,2.223,105.729,-0.179558,0.00167271,0.854578,-0.52164,-1.89396,0.0569384,-1.20662,-2.72411,1.25786,1.7,1.8,0,12071,49.469,28.833,14263.4
5266628065,0.634768,2.223,105.742,0.0791791,-0.200631,0.850589,-0.441619,-1.89907,0.112078,0.983792,-0.0629307,0.347629,1.7,1.8,0,12071,49.469,28.833,14263.4
5266728415,0.634768,2.223,105.755,0.228259,-0.311321,0.82845,-0.424476,-1.57049,0.0685019,3.0143,2.43104,0.0195088,1.7,1.8,0,12071,49.469,28.833,14263.4
5266828750,0.634768,2.223,105.763,0.296722,-0.3577,0.813296,-0.419028,-1.12128,-0.0121225,3.4268,2.88788,1.72274,1.7,1.8,0,12071,49.469,28.833,14263.4
5266929113,0.634768,2.223,105.749,0.330031,-0.363781,0.811093,-0.428744,-0.572378,-0.0361563,3.68803,3.3921,2.53878,1.7,1.8,0,12071,49.469,28.833,14263.4
5267029456,0.634768,2.223,105.732,0.341292,-0.349016,0.818134,-0.465398,-0.00599551,-0.0623683,3.65174,3.58118,2.60786,1.7,1.8,0,12071,49.469,28.833,14263.4
5267129819,0.634768,2.223,105.704,0.324646,-0.32289,0.830204,-0.5355,0.557821,-0.0656265,3.34648,3.61574,2.8258,1.7,1.8,0,12071,49.469,28.833,14263.4
5267230213,0.634768,2.223,105.655,0.269039,-0.273913,0.848844,-0.617934,1.08466,-0.0359019,2.91879,3.45451,2.30985,1.7,1.8,0,12071,49.469,28.833,14263.4
5267330628,0.634768,2.223,105.653,0.194856,-0.225957,0.861232,-0.689583,1.51757,-0.013526,2.48443,2.87036,1.60545,-2.6,-4.1,0,12071,49.469,28.833,14263.4
5267430967,0.634768,2.223,105.659,0.115687,-0.179033,0.867507,-0.732224,1.8571,-0.00189799,2.0427,2.12632,0.619081,-2.6,-4.1,0,12071,49.469,28.833,14263.4
5267531332,0.634768,2.223,105.67,-0.0643284,-0.00720666,0.878559,-0.743896,2.11209,0.0509793,1.40908,1.30121,0.625406,-2.6,-4.1,0,12071,49.543,27.015,13384
5267631702,0.634768,2.223,105.676,-0.23711,0.136316,0.856599,-0.739922,2.04695,0.0269484,-0.95442,-1.14624,-1.02527,-2.6,-4.1,0,12071,49.543,27.015,13384
5267732081,0.634768,2.223,105.686,-0.33361,0.2021,0.833864,-0.70357,1.80762,-0.0457403,-1.68421,-2.07548,0.94467,-2.6,-4.1,0,12071,49.543,27.015,13384
5267832438,0.634768,2.223,105.702,-0.378635,0.225952,0.821843,-0.63379,1.4643,-0.0310977,-2.16307,-2.72478,1.50289,-2.6,-4.1,0,12071,49.543,27.015,13384
5267932765,0.634768,2.223,105.727,-0.393361,0.2274,0.819193,-0.531376,1.00665,-0.0136817,-2.23506,-2.84926,1.94857,-2.6,-4.1,0,12071,49.543,27.015,13384
5268033059,0.634768,2.223,105.749,-0.395642,0.221275,0.82135,-0.433205,0.61194,0.00114173,-2.19104,-3.03921,1.6793,-2.6,-4.1,0,12071,49.543,27.015,13384
5268133411,0.634768,2.223,105.755,-0.394405,0.213256,0.824387,-0.332771,0.227656,0.00551018,-2.04524,-2.92901,1.62008,-2.6,-4.1,0,12071,49.543,27.015,13384
5268233747,0.634768,2.223,105.759,-0.391801,0.205076,0.827445,-0.232708,-0.134712,-0.00814962,-1.87937,-2.8839,1.39815,-2.6,-4.1,0,12071,49.543,27.015,13384
5268334143,0.634768,2.223,105.766,-0.386177,0.195753,0.829787,-0.12881,-0.495696,-0.0143128,-1.81219,-2.81637,1.41195,0.3,-1.8,0,12071,49.543,27.015,13384
5268434447,0.634768,2.223,105.77,-0.379784,0.177402,0.836286,-0.0274923,-0.853475,-0.0192352,-1.8504,-2.74844,1.15031,0.3,-1.8,0,12071,49.543,27.015,13384
5268535882,0.634768,2.223,105.772,-0.307482,0.0147468,0.857137,0.10871,-1.19252,0.0494186,-1.06908,-2.55139,1.64948,0.3,-1.8,0,12071,49.518,28.536,14130.5
5268639662,0.634768,2.223,105.778,-0.228223,-0.136846,0.873605,0.303747,-1.27218,0.0488444,0.99146,-1.78614,0.0322601,0.3,-1.8,0,12071,49.518,28.536,14130.5
5268740071,0.634768,2.223,105.762,-0.193,-0.199036,0.88297,0.489855,-1.22834,-0.0133544,1.80103,-0.955681,0.256666,0.3,-1.8,0,12071,49.518,28.536,14130.5
5268840426,0.634768,2.223,105.741,-0.1689,-0.206481,0.8851,0.67447,-1.1576,-0.0598965,1.84287,-0.706594,0.120315,0.3,-1.8,0,12071,49.518,28.536,14130.5
5268940775,0.634768,2.223,105.726,-0.151337,-0.187665,0.883924,0.863151,-1.06238,-0.0575728,1.95287,-0.622063,0.948866,0.3,-1.8,0,12071,49.518,28.536,14130.5
5269041104,0.634768,2.223,105.712,-0.134262,-0.156455,0.881097,1.03115,-0.970801,-0.025856,1.76715,-0.496174,0.844322,0.3,-1.8,0,12071,49.518,28.536,14130.5
5269141385,0.634768,2.223,105.694,-0.124537,-0.123521,0.877836,1.15812,-0.898453,-0.00191658,1.41503,-0.456766,-0.0365478,0.3,-1.8,0,12071,49.518,28.536,14130.5
5269241769,0.634768,2.223,105.669,-0.122991,-0.0979045,0.874638,1.25673,-0.844122,-0.0185393,1.09091,-0.331947,0.437114,0.3,-1.8,0,12071,49.518,28.536,14130.5
5269342225,0.634768,2.223,105.655,-0.122214,-0.0771898,0.872111,1.35297,-0.808077,-0.0161348,0.881398,-0.478451,0.334736,-3.9,4.8,0,12071,49.518,28.536,14130.5
5269442607,0.634768,2.223,105.647,-0.108645,-0.0520436,0.869192,1.42378,-0.778287,-0.0340305,0.633171,-0.331852,0.120463,-3.9,4.8,0,12071,49.518,28.536,14130.5
5269543002,0.634768,2.223,105.646,0.068654,0.0633562,0.870628,1.47861,-0.752408,0.034461,0.379798,-0.0423888,0.830053,-3.9,4.8,0,12071,49.56,27.516,13636.9
5269643381,0.634768,2.223,105.666,0.248595,0.159576,0.88822,1.2318,-0.69174,0.081146,-1.22786,2.37649,0.475431,-3.9,4.8,0,12071,49.56,27.516,13636.9
5269743704,0.634768,2.223,105.662,0.341302,0.215088,0.903919,0.82306,-0.596598,0.0260623,-1.92334,3.50832,1.37524,-3.9,4.8,0,12071,49.56,27.516,13636.9
5269844095,0.634768,2.223,105.654,0.384184,0.244662,0.914087,0.31377,-0.482507,0.0030277,-2.25568,4.21524,1.85295,-3.9,4.8,0,12071,49.56,27.516,13636.9
5269944483,0.634768,2.223,105.637,0.398339,0.262076,0.918262,-0.213086,-0.372512,-0.0576858,-2.37429,4.28106,2.04786,-3.9,4.8,0,12071,49.56,27.516,13636.9
5270044834,0.634768,2.223,105.614,0.403543,0.272526,0.91964,-0.75761,-0.271243,-0.0938974,-2.47156,4.18494,2.47831,-3.9,4.8,0,12071,49.56,27.516,13636.9
5270145186,0.634768,2.223,105.588,0.397559,0.267842,0.915536,-1.33498,-0.176062,-0.0967589,-2.55252,4.25746,2.88174,-3.9,4.8,0,12071,49.56,27.516,13636.9
5270245456,0.634768,2.223,105.565,0.382069,0.255673,0.910833,-1.91076,-0.0655724,-0.0754655,-2.42065,4.26789,2.75491,-3.9,4.8,0,12071,49.56,27.516,13636.9
5270345798,0.634768,2.223,105.558,0.362445,0.244164,0.906927,-2.46205,0.0463307,-0.025941,-2.27994,4.12703,2.57123,0.8,-2.2,0,12071,49.56,27.516,13636.9
5270446156,0.634768,2.223,105.57,0.329943,0.230949,0.900036,-2.97378,0.153805,0.0239739,-2.07663,3.83859,2.11163,0.8,-2.2,0,12071,49.56,27.516,13636.9
5270546518,0.634768,2.223,105.587,0.136299,0.0949621,0.864796,-3.43794,0.242546,0.0610593,-1.88029,3.42733,1.424,0.8,-2.2,0,12027,49.53,27.58,13660.4
5270646850,0.634767,2.223,105.61,-0.155778,-0.0896173,0.870365,-3.56105,0.312084,0.115874,0.149623,0.631944,-0.12041,0.8,-2.2,0,12027,49.53,27.58,13660.4
5270747213,0.634767,2.223,105.628,-0.343948,-0.185583,0.900119,-3.33279,0.317784,0.0743078,1.72917,-2.14222,0.33802,0.8,-2.2,0,12027,49.53,27.58,13660.4
5270849464,0.634767,2.223,105.624,-0.43607,-0.230785,0.920697,-2.93382,0.276756,0.0268731,2.32108,-3.34355,1.76149,0.8,-2.2,0,12027,49.53,27.58,13660.4
5270954650,0.634767,2.223,105.614,-0.471264,-0.246331,0.929114,-2.30742,0.207806,0.0162693,2.72218,-3.87404,2.70011,0.8,-2.2,0,12027,49.53,27.58,13660.4
5271054998,0.634767,2.223,105.601,-0.470172,-0.245277,0.92878,-1.75523,0.140156,0.0226307,2.70097,-3.94255,2.87769,0.8,-2.2,0,12027,49.53,27.58,13660.4
5271155344,0.634767,2.223,105.583,-0.455033,-0.235785,0.92425,-1.22785,0.081946,0.0358311,2.57109,-3.63495,2.78511,0.8,-2.2,0,12027,49.53,27.58,13660.4
5271255671,0.634767,2.223,105.574,-0.443055,-0.221051,0.919413,-0.717637,0.0198967,0.0458215,2.50676,-3.67093,2.40794,0.8,-2.2,0,12027,49.53,27.58,13660.4
5271356089,0.634767,2.223,105.581,-0.433102,-0.203724,0.91376,-0.22438,-0.0565038,0.0537708,2.26105,-3.55299,2.29094,-1.7,-1.5,0,12027,49.53,27.58,13660.4
5271456431,0.634767,2.223,105.59,-0.407958,-0.157164,0.901982,0.242213,-0.134432,0.0702104,2.09315,-3.32644,2.21702,-1.7,-1.5,0,12027,49.53,27.58,13660.4
5271556772,0.634767,2.223,105.603,-0.322081,0.0637065,0.868761,0.668458,-0.251256,0.194129,1.28305,-3.05534,1.89432,-1.7,-1.5,0,12027,49.705,24.752,12303
5271657091,0.634767,2.223,105.626,-0.245874,0.237251,0.849866,0.761371,-0.509019,0.152254,-1.80219,-2.2,-0.333638,-1.7,-1.5,0,12027,49.705,24.752,12303
5271757378,0.634767,2.223,105.638,-0.192668,0.294194,0.845553,0.722644,-0.787807,0.0532771,-2.53744,-1.21353,0.420929,-1.7,-1.5,0,12027,49.705,24.752,12303
5271857720,0.634767,2.223,105.665,-0.154102,0.290967,0.848238,0.624768,-1.0766,0.0452782,-2.7617,-0.715867,1.00165,-1.7,-1.5,0,12027,49.705,24.752,12303
5271958084,0.634767,2.223,105.707,-0.123845,0.251936,0.852272,0.518891,-1.32713,0.0420048,-2.60058,-0.570414,0.285162,-1.7,-1.5,0,12027,49.705,24.752,12303
5272058474,0.634767,2.223,105.73,-0.105406,0.20629,0.855268,0.421188,-1.51534,0.043772,-1.95501,-0.277481,0.397244,-1.7,-1.5,0,12027,49.705,24.752,12303
5272158790,0.634767,2.223,105.716,-0.0988373,0.164003,0.857577,0.335375,-1.65674,0.0313668,-1.55837,-0.16944,-0.0226076,-1.7,-1.5,0,12027,49.705,24.752,12303
5272259158,0.634767,2.223,105.704,-0.0970353,0.13041,0.859458,0.281381,-1.76801,0.0215874,-1.09067,-0.200655,0.0977051,-1.7,-1.5,0,12027,49.705,24.752,12303
5272359560,0.634767,2.223,105.708,-0.0956667,0.107768,0.860794,0.234567,-1.8628,0.0202015,-0.890642,-0.200618,0.0483263,-4.7,-1.1,0,12027,49.705,24.752,12303
5272459899,0.634767,2.223,105.709,-0.0774365,0.116993,0.864136,0.196161,-1.94369,0.0249274,-0.541885,-0.20027,0.653607,-4.7,-1.1,0,12027,49.705,24.752,12303
5272560308,0.634767,2.223,105.703,-0.0328989,0.223738,0.867656,0.129612,-2.01577,0.0429242,-1.12805,0.192125,-0.327945,-4.7,-1.1,0,12027,49.705,24.752,12303
5272660683,0.634767,2.223,105.69,-0.00550061,0.331704,0.86704,-0.0591764,-2.15994,-0.0256531,-2.43775,0.491846,-0.0481144,-4.7,-1.1,0,12027,49.388,30.49,15058.4
5272761010,0.634767,2.223,105.672,0.00570043,0.396005,0.865521,-0.358672,-2.37662,-0.0520205,-3.27488,0.808086,1.49892,-4.7,-1.1,0,12027,49.388,30.49,15058.4
5272861354,0.634767,2.223,105.654,-0.00142145,0.418953,0.861639,-0.705352,-2.6346,-0.0409544,-3.55262,0.903897,1.89259,-4.7,-1.1,0,12027,49.388,30.49,15058.4
5272961701,0.634767,2.223,105.635,-0.0187128,0.409867,0.857064,-1.03662,-2.90593,-0.029484,-3.64085,0.71403,1.77995,-4.7,-1.1,0,12027,49.388,30.49,15058.4
5273062041,0.634767,2.223,105.62,-0.0366715,0.362681,0.854958,-1.34905,-3.17064,-0.0096061,-3.38901,0.556588,1.8454,-4.7,-1.1,0,12027,49.388,30.49,15058.4
5273162365,0.634767,2.223,105.61,-0.0590516,0.310932,0.855903,-1.60165,-3.39443,0.0109811,-2.88339,0.353039,1.12103,-4.7,-1.1,0,12027,49.388,30.49,15058.4
5273262688,0.634767,2.223,105.617,-0.0777117,0.265388,0.85819,-1.78493,-3.57128,0.0191796,-2.23529,0.111482,0.57353,-4.7,-1.1,0,12027,49.388,30.49,15058.4
5273362994,0.634767,2.223,105.617,-0.0909304,0.228584,0.860083,-1.9215,-3.72327,0.0362996,-1.76461,-0.0737663,0.693571,3.7,-3.9,0,12027,49.388,30.49,15058.4
5273463313,0.634767,2.223,105.62,-0.102895,0.185505,0.859921,-2.01809,-3.85374,0.0301478,-1.33985,-0.26642,0.443387,3.7,-3.9,0,12027,49.388,30.49,15058.4
5273563655,0.634767,2.223,105.632,-0.142506,-0.0379362,0.865347,-2.09877,-3.98052,0.0700881,-1.10725,-0.321846,0.982244,3.7,-3.9,0,12027,49.388,30.49,15058.4
5273663998,0.634767,2.223,105.645,-0.16196,-0.262603,0.886808,-1.92379,-3.89241,0.136596,2.16725,-0.850845,0.483076,3.7,-3.9,0,12027,49.492,30.593,15141.1
5273764389,0.634767,2.223,105.642,-0.182962,-0.373835,0.90296,-1.64214,-3.66851,0.0489407,3.80279,-0.907157,0.520351,3.7,-3.9,0,12027,49.492,30.593,15141.1
5273864733,0.634767,2.223,105.631,-0.193074,-0.419968,0.911155,-1.26571,-3.37349,0.0124194,4.36054,-0.914495,2.17542,3.7,-3.9,0,12027,49.492,30.593,15141.1
5273965076,0.634767,2.223,105.613,-0.191677,-0.429798,0.912949,-0.852391,-3.04197,-0.00522967,4.65085,-0.848384,2.25961,3.7,-3.9,0,12027,49.492,30.593,15141.1
5274065422,0.634767,2.223,105.601,-0.185585,-0.423679,0.912722,-0.439749,-2.70491,-0.00206721,4.53103,-0.841464,2.53386,3.7,-3.9,0,12027,49.492,30.593,15141.1
5274165777,0.634767,2.223,105.577,-0.179905,-0.413733,0.91189,-0.0308599,-2.38408,-0.00660591,4.42743,-0.910142,2.27692,3.7,-3.9,0,12027,49.492,30.593,15141.1
5274266138,0.634767,2.223,105.545,-0.176119,-0.402118,0.910732,0.352387,-2.06221,-0.018533,4.23832,-0.748353,2.17151,3.7,-3.9,0,12027,49.492,30.593,15141.1
5274366534,0.634767,2.223,105.533,-0.181955,-0.38953,0.909555,0.746365,-1.74471,-0.00905511,4.12568,-0.776807,2.41673,4.1,0.5,0,12027,49.492,30.593,15141.1
5274466889,0.634767,2.223,105.53,-0.180627,-0.376004,0.906013,1.12659,-1.44554,0.015309,3.99914,-0.830059,1.99218,4.1,0.5,0,12027,49.492,30.593,15141.1
5274567292,0.634767,2.223,105.526,-0.024237,-0.369736,0.868368,1.51209,-1.15447,0.0822632,3.81891,-0.778094,2.41439,4.1,0.5,0,12027,49.492,30.593,15141.1
5274667694,0.634767,2.223,105.544,0.124785,-0.355924,0.840105,1.70622,-0.735654,0.129675,3.76443,1.31576,1.47488,4.1,0.5,0,12027,49.644,26.81,13309.6
5274768045,0.634767,2.223,105.561,0.196627,-0.341112,0.835128,1.77786,-0.297047,0.089585,3.47285,2.29367,0.925147,4.1,0.5,0,12027,49.644,26.81,13309.6
5274868304,0.634767,2.223,105.573,0.226515,-0.323901,0.837751,1.79968,0.172292,0.0612256,3.15387,2.61349,1.74944,4.1,0.5,0,12027,49.644,26.81,13309.6
5274968597,0.634767,2.223,105.587,0.231851,-0.310426,0.843193,1.78433,0.637789,0.048569,2.97556,2.83301,1.5323,4.1,0.5,0,12027,49.644,26.81,13309.6
5275068908,0.634767,2.223,105.581,0.212526,-0.311127,0.84708,1.75973,1.08206,0.0260276,2.81872,2.79907,1.50119,4.1,0.5,0,12027,49.644,26.81,13309.6
5275169259,0.634767,2.223,105.554,0.180669,-0.315902,0.850067,1.75608,1.51383,0.021772,2.77217,2.44533,1.94699,4.1,0.5,0,12027,49.644,26.81,13309.6
5275269676,0.634767,2.223,105.557,0.14432,-0.292911,0.85804,1.7814,1.92,0.00905985,3.00776,2.25223,0.688659,4.1,0.5,0,12027,49.644,26.81,13309.6
5275370083,0.634767,2.223,105.567,0.101486,-0.264474,0.862629,1.7974,2.27616,0.0494752,2.4852,1.8791,1.28992,1.7,-0.1,0,12027,49.644,26.81,13309.6
5275470399,0.634767,2.223,105.579,0.0625437,-0.21632,0.866784,1.8329,2.56359,0.0605162,2.18106,1.38421,0.721096,1.7,-0.1,0,12027,49.644,26.81,13309.6
5275570781,0.634767,2.223,105.598,-0.0156034,-0.013081,0.871821,1.86651,2.8028,0.118795,1.71036,1.03478,0.666594,1.7,-0.1,0,12027,49.644,26.81,13309.6
5275671146,0.634767,2.223,105.616,-0.0843314,0.149692,0.862179,1.75948,2.71804,0.116608,-1.51553,-0.198862,-0.863542,1.7,-0.1,0,11988,49.59,25.222,12507.6
5275771492,0.634767,2.223,105.621,-0.120881,0.221878,0.851721,1.63775,2.50899,0.0471142,-2.34218,-0.535401,0.484792,1.7,-0.1,0,11988,49.59,25.222,12507.6
5275871871,0.634768,2.223,105.628,-0.133009,0.230376,0.848329,1.51415,2.25471,0.0295233,-2.58064,-0.768977,0.543838,1.7,-0.1,0,11988,49.59,25.222,12507.6
5275972206,0.634768,2.223,105.643,-0.126129,0.201874,0.850965,1.40056,2.0197,0.0171821,-2.31186,-0.714187,0.305191,1.7,-0.1,0,11988,49.59,25.222,12507.6
5276072556,0.634768,2.223,105.651,-0.115293,0.158909,0.855036,1.30225,1.82202,0.00236867,-1.91389,-0.607236,0.366665,1.7,-0.1,0,11988,49.59,25.222,12507.6
5276173188,0.634768,2.223,105.638,-0.101617,0.113331,0.858272,1.22889,1.65027,0.0095183,-1.49029,-0.535772,0.26081,1.7,-0.1,0,11988,49.59,25.222,12507.6
5276274539,0.634768,2.223,105.633,-0.0881145,0.0724225,0.860919,1.17094,1.53005,0.0168969,-1.04133,-0.280106,0.0100053,1.7,-0.1,0,11988,49.59,25.222,12507.6
5276374944,0.634768,2.223,105.639,-0.0846041,0.0440026,0.862784,1.12439,1.45023,0.02165,-0.664025,-0.181043,0.0965591,-0.2,-2.8,0,11988,49.59,25.222,12507.6
5276475302,0.634768,2.223,105.647,-0.0918529,0.0307769,0.862389,1.10002,1.38188,0.0254715,-0.359606,-0.199023,0.181964,-0.2,-2.8,0,11988,49.59,25.222,12507.6
5276575590,0.634768,2.223,105.649,-0.179262,0.099748,0.856687,1.09455,1.30299,0.0531591,-0.574588,-0.582566,-0.276446,-0.2,-2.8,0,11988,49.59,25.222,12507.6
5276675946,0.634768,2.223,105.652,-0.285941,0.168107,0.841316,1.10386,1.08523,-0.00262107,-1.42306,-1.5995,0.261198,-0.2,-2.8,0,11988,49.545,26.349,13054.6
5276776358,0.634768,2.223,105.652,-0.358013,0.207171,0.826609,1.16571,0.74164,-0.0172092,-1.90356,-2.50304,1.1084,-0.2,-2.8,0,11988,49.545,26.349,13054.6
5276876766,0.634768,2.223,105.656,-0.396326,0.221014,0.819046,1.25229,0.328782,-0.00684899,-2.20458,-2.95582,1.60281,-0.2,-2.8,0,11988,49.545,26.349,13054.6
5276977085,0.634768,2.223,105.661,-0.4076,0.213736,0.819531,1.35297,-0.102421,0.00951257,-2.14565,-2.95949,2.04876,-0.2,-2.8,0,11988,49.545,26.349,13054.6
5277077505,0.634768,2.223,105.674,-0.380694,0.186196,0.828798,1.4695,-0.525411,0.0310654,-2.05769,-3.10913,1.71571,-0.2,-2.8,0,11988,49.545,26.349,13054.6
5277177867,0.634768,2.223,105.677,-0.337393,0.147022,0.841929,1.571,-0.877841,0.0495894,-1.72676,-2.71004,1.0527,-0.2,-2.8,0,11988,49.545,26.349,13054.6
5277278216,0.634768,2.223,105.677,-0.296029,0.109191,0.852874,1.67589,-1.15002,0.0459145,-1.08871,-2.26541,0.86748,-0.2,-2.8,0,11988,49.545,26.349,13054.6
5277378574,0.634768,2.223,105.681,-0.256739,0.0802613,0.859429,1.77201,-1.36355,0.0409548,-0.745583,-1.81264,0.67605,-4.9,0.1,0,11988,49.545,26.349,13054.6
5277478870,0.634768,2.223,105.679,-0.206115,0.080797,0.862849,1.85573,-1.52293,0.0419143,-0.430192,-1.39978,0.602461,-4.9,0.1,0,11988,49.545,26.349,13054.6
5277579228,0.634768,2.223,105.678,-0.0443477,0.214717,0.873048,1.88566,-1.66994,0.11505,-0.977125,-0.694538,0.739878,-4.9,0.1,0,11988,49.545,26.349,13054.6
5277679569,0.634768,2.223,105.693,0.0931303,0.308417,0.887404,1.66265,-1.80196,0.0802043,-2.50715,1.15014,-0.282989,-4.9,0.1,0,11988,49.545,26.349,13054.6
5277779916,0.634768,2.223,105.696,0.169632,0.361848,0.896647,1.31866,-1.9231,0.00860482,-2.93866,1.95322,1.22972,-4.9,0.1,0,11988,49.666,24.606,12220.8
5277880360,0.634768,2.223,105.698,0.20652,0.382738,0.899451,0.880213,-2.03747,0.00696163,-3.31533,2.4942,1.67545,-4.9,0.1,0,11988,49.666,24.606,12220.8
5277980707,0.634768,2.223,105.706,0.213699,0.391515,0.89723,0.42258,-2.13674,-0.0165393,-3.37508,2.63386,1.72088,-4.9,0.1,0,11988,49.666,24.606,12220.8
5278081056,0.634768,2.223,105.694,0.20121,0.390385,0.892825,-0.0453229,-2.23666,-0.0342771,-3.29338,2.56251,2.04981,-4.9,0.1,0,11988,49.666,24.606,12220.8
5278181412,0.634768,2.223,105.66,0.18372,0.380618,0.887938,-0.500475,-2.3484,-0.0343085,-3.29074,2.38859,2.09747,-4.9,0.1,0,11988,49.666,24.606,12220.8
5278281713,0.634768,2.223,105.635,0.158315,0.376103,0.884261,-0.949836,-2.45311,-0.0344405,-3.25771,2.41495,1.83871,-4.9,0.1,0,11988,49.666,24.606,12220.8
5278382100,0.634768,2.223,105.619,0.129452,0.376356,0.88202,-1.3789,-2.5781,-0.0321912,-3.22124,2.06675,1.93073,3.6,-1.9,0,11988,49.666,24.606,12220.8
5278482466,0.634768,2.223,105.618,0.0943027,0.355723,0.876101,-1.77235,-2.71179,-0.012369,-3.22973,1.82926,1.29221,3.6,-1.9,0,11988,49.666,24.606,12220.8
5278582811,0.634768,2.223,105.614,0.0314614,0.120411,0.861055,-2.14789,-2.86124,0.0342118,-2.9149,1.58025,1.29214,3.6,-1.9,0,11988,49.666,24.606,12220.8
5278683161,0.634768,2.223,105.623,-0.0559777,-0.193242,0.870183,-2.23186,-2.80365,0.0669626,0.591568,0.653213,-0.211304,3.6,-1.9,0,11988,49.666,24.606,12220.8
5278785396,0.634768,2.223,105.639,-0.118085,-0.362606,0.890154,-2.03513,-2.55594,0.00680184,3.37999,-0.150953,0.492643,3.6,-1.9,0,11988,49.666,24.684,12259.6
5278889451,0.634768,2.223,105.638,-0.15424,-0.441836,0.904647,-1.70763,-2.22845,-0.0176858,4.3894,-0.496147,1.93891,3.6,-1.9,0,11988,49.666,24.684,12259.6
5278989817,0.634768,2.223,105.624,-0.165273,-0.466502,0.910133,-1.30091,-1.86854,-0.0187588,4.90298,-0.800365,2.37359,3.6,-1.9,0,11988,49.666,24.684,12259.6
5279090177,0.634768,2.223,105.605,-0.165841,-0.464232,0.909892,-0.873471,-1.49443,-0.0313468,4.94403,-0.806722,2.61104,3.6,-1.9,0,11988,49.666,24.684,12259.6
5279190498,0.634768,2.223,105.576,-0.166832,-0.449281,0.90744,-0.453569,-1.12462,-0.0171169,4.64154,-0.740413,2.80017,3.6,-1.9,0,11988,49.666,24.684,12259.6
5279290843,0.634768,2.223,105.555,-0.173801,-0.434124,0.905779,0.031733,-0.712856,-0.00509178,4.42789,-0.779861,2.35685,3.6,-1.9,0,11988,49.666,24.684,12259.6
5279391259,0.634768,2.223,105.546,-0.179274,-0.41458,0.903791,0.423778,-0.399521,-0.00555926,4.10967,-0.796824,2.29806,2.1,-1.2,0,11988,49.666,24.684,12259.6
5279491575,0.634768,2.223,105.533,-0.180391,-0.38285,0.900547,0.819312,-0.110142,0.00741442,4.00524,-0.978442,2.06447,2.1,-1.2,0,11988,49.666,24.684,12259.6
5279591943,0.634768,2.223,105.532,-0.157417,-0.310809,0.89012,1.17428,0.142071,0.0425779,3.31509,-0.822497,1.7179,2.1,-1.2,0,11988,49.666,24.684,12259.6
5279692354,0.634768,2.223,105.533,-0.141006,-0.23923,0.880348,1.44223,0.320894,0.0631719,2.55099,-0.755737,0.848666,2.1,-1.2,0,11988,49.666,24.684,12259.6
5279792734,0.634768,2.223,105.542,-0.125449,-0.179075,0.874305,1.62857,0.441509,0.0710432,1.69787,-0.538541,0.320382,2.1,-1.2,0,11988,49.666,24.684,12259.6
5279893095,0.634768,2.223,105.559,-0.113763,-0.137715,0.870859,1.76392,0.527095,0.073651,1.18968,-0.386277,0.137706,2.1,-1.2,0,11988,49.666,24.684,12259.6
5279993447,0.634768,2.223,105.585,-0.103023,-0.104565,0.868779,1.85607,0.585673,0.0719063,0.741184,-0.259038,-0.021889,2.1,-1.2,0,11988,49.666,24.684,12259.6
5280093809,0.634768,2.223,105.61,-0.0951358,-0.0861194,0.867981,1.93137,0.635475,0.0784518,0.687199,-0.131238,0.11058,2.1,-1.2,0,11988,49.666,24.684,12259.6
5280194178,0.634768,2.223,105.633,-0.0927772,-0.0754497,0.867002,1.98502,0.679689,0.0687979,0.549422,-0.0766323,0.0528983,2.1,-1.2,0,11988,49.666,24.684,12259.6
5280294543,0.634768,2.223,105.654,-0.0896232,-0.0684569,0.866985,2.03354,0.703485,0.061892,0.41583,-0.17159,-0.00457758,2.1,-1.2,0,11943,49.641,25.681,12748.3
5280394939,0.634768,2.223,105.678,-0.088815,-0.0644619,0.867172,2.0597,0.726231,0.054164,0.333033,-0.0430079,-0.352533,-4.4,4.9,0,11943,49.641,25.681,12748.3
5280495333,0.634768,2.223,105.691,-0.0660353,-0.0314339,0.867751,2.09462,0.747443,0.0484933,0.457525,-0.13385,0.29972,-4.4,4.9,0,11943,49.641,25.681,12748.3
5280595692,0.634768,2.223,105.702,0.0682203,0.128575,0.87195,2.06689,0.752011,0.12422,-0.564177,0.524315,0.369314,-4.4,4.9,0,11943,49.641,25.681,12748.3
5280696082,0.634768,2.223,105.715,0.208357,0.259188,0.895459,1.751,0.709805,0.0997477,-2.33414,2.19911,0.331133,-4.4,4.9,0,11943,49.641,25.681,12748.3
5280796416,0.634768,2.223,105.716,0.272504,0.316508,0.913773,1.31122,0.661838,0.0476182,-3.01931,2.97552,1.33503,-4.4,4.9,0,11943,49.641,25.681,12748.3
5280896753,0.634768,2.223,105.712,0.313671,0.349211,0.926419,0.791303,0.616317,0.0128927,-3.22207,3.27817,2.18868,-4.4,4.9,0,11943,49.641,25.681,12748.3
5280997052,0.634768,2.223,105.715,0.336793,0.364587,0.933378,0.228381,0.562123,-0.0120277,-3.56387,3.57728,2.1601,-4.4,4.9,0,11943,49.641,25.681,12748.3
5281097405,0.634768,2.223,105.707,0.351787,0.36555,0.933948,-0.36953,0.506122,-0.0405726,-3.42767,3.62263,2.84445,-4.4,4.9,0,11943,49.641,25.681,12748.3
5281197768,0.634768,2.223,105.683,0.358006,0.360477,0.932313,-0.975189,0.458406,-0.0578373,-3.53962,3.73068,2.74284,-4.4,4.9,0,11943,49.641,25.681,12748.3
5281298080,0.634768,2.223,105.664,0.355387,0.352052,0.92915,-1.58641,0.424879,-0.065488,-3.35754,3.73936,2.92088,-4.4,4.9,0,11943,49.448,29.034,14356.7
5281398493,0.634768,2.223,105.663,0.338991,0.341054,0.924797,-2.18337,0.397055,-0.0638974,-3.34091,3.7801,2.50001,-1.8,2.3,0,11943,49.448,29.034,14356.7
5281498745,0.634768,2.223,105.664,0.286719,0.304013,0.9076,-2.75861,0.363223,-0.0529164,-3.30713,3.64239,2.12439,-1.8,2.3,0,11943,49.448,29.034,14356.7
5281599106,0.634768,2.223,105.662,0.128564,0.16714,0.873601,-3.24313,0.328222,0.00843255,-2.49042,2.71361,1.85556,-1.8,2.3,0,11943,49.448,29.034,14356.7
5281699405,0.634768,2.223,105.67,-0.00496097,0.0613298,0.867223,-3.44002,0.308899,0.0305757,-1.05796,1.03638,-0.344497,-1.8,2.3,0,11943,49.448,29.034,14356.7
5281799760,0.634768,2.223,105.679,-0.0807699,0.00383828,0.869673,-3.48258,0.295272,0.0101128,-0.0605127,-0.0342432,0.0750487,-1.8,2.3,0,11943,49.448,29.034,14356.7
5281900117,0.634768,2.223,105.679,-0.11452,-0.0209393,0.871547,-3.44652,0.267934,0.0154751,0.309285,-0.621185,0.129824,-1.8,2.3,0,11943,49.448,29.034,14356.7
5282000467,0.634768,2.223,105.674,-0.118739,-0.0267122,0.871411,-3.38051,0.243389,0.0047202,0.419123,-0.776679,0.143156,-1.8,2.3,0,11943,49.448,29.034,14356.7
5282100818,0.634767,2.223,105.672,-0.10801,-0.0225587,0.870574,-3.30774,0.219865,5.86083e-05,0.45792,-0.753162,0.245881,-1.8,2.3,0,11943,49.448,29.034,14356.7
5282201162,0.634767,2.223,105.659,-0.0919435,-0.0145353,0.86947,-3.23463,0.199354,0.00579951,0.433274,-0.695974,-0.0189487,-1.8,2.3,0,11943,49.448,29.034,14356.7
5282301537,0.634767,2.223,105.646,-0.0746567,-0.00695273,0.868807,-3.18341,0.175499,-0.00360711,0.203589,-0.499061,0.206246,-1.8,2.3,0,11943,49.448,29.034,14356.7
5282401968,0.634767,2.223,105.644,-0.0599495,-2.86028e-05,0.86838,-3.1356,0.15663,0.0129047,0.181147,-0.423049,0.0954796,-1.8,0.7,0,11943,49.499,27.692,13707.3
5282502303,0.634767,2.223,105.634,-0.0635973,0.00790946,0.870295,-3.09316,0.156863,0.00363851,0.245988,-0.270115,-0.0548248,-1.8,0.7,0,11943,49.499,27.692,13707.3
5282602625,0.634767,2.223,105.621,-0.154934,0.0186374,0.867651,-3.0519,0.143644,0.0284128,0.095446,-0.528799,0.0558943,-1.8,0.7,0,11943,49.499,27.692,13707.3
5282702987,0.634767,2.223,105.614,-0.243582,0.0255383,0.865698,-2.9311,0.0414137,0.0101487,-0.0598687,-1.49359,0.289342,-1.8,0.7,0,11943,49.499,27.692,13707.3
5282803318,0.634767,2.223,105.622,-0.284022,0.0285759,0.86545,-2.75181,-0.119692,-0.00473173,-0.129616,-2.24569,0.611838,-1.8,0.7,0,11943,49.499,27.692,13707.3
5282903710,0.634767,2.223,105.621,-0.277883,0.0302216,0.866035,-2.54115,-0.298694,0.0339155,-0.121375,-2.42895,0.857025,-1.8,0.7,0,11943,49.499,27.692,13707.3
5283004097,0.634767,2.223,105.63,-0.248492,0.0308242,0.866601,-2.35296,-0.462411,0.0345098,-0.113033,-2.25114,0.652713,-1.8,0.7,0,11943,49.499,27.692,13707.3
5283104485,0.634767,2.223,105.642,-0.207461,0.0294696,0.867516,-2.19574,-0.606645,0.0492769,-0.181055,-1.82154,0.542371,-1.8,0.7,0,11943,49.499,27.692,13707.3
5283204835,0.634767,2.223,105.649,-0.169306,0.0276056,0.868418,-2.07991,-0.711258,0.0457185,-0.103269,-1.31011,0.354086,-1.8,0.7,0,11943,49.499,27.692,13707.3
5283305372,0.634767,2.223,105.662,-0.139966,0.0245548,0.868798,-1.99049,-0.801601,0.0459873,-0.147525,-1.06853,0.0460582,-1.8,0.7,0,11943,49.499,27.692,13707.3
5283407349,0.634767,2.223,105.673,-0.11707,0.0232438,0.86916,-1.92401,-0.853606,0.0360464,-0.0152755,-0.755161,-0.251497,-0.2,3.5,0,11943,49.491,26.098,12916.2
5283507731,0.634767,2.223,105.676,-0.0888683,0.0140857,0.870132,-1.87205,-0.89242,0.0191054,-0.0200193,-0.438492,0.0649404,-0.2,3.5,0,11943,49.491,26.098,12916.2
5283608084,0.634767,2.223,105.673,0.0831647,-0.0823309,0.865872,-1.83474,-0.917625,0.058057,0.212195,-0.0784872,0.165388,-0.2,3.5,0,11943,49.491,26.098,12916.2
5283708437,0.634767,2.223,105.682,0.240843,-0.162909,0.847754,-1.88476,-0.693739,0.0428052,1.4608,2.18012,-0.0867122,-0.2,3.5,0,11943,49.491,26.098,12916.2
5283808801,0.634767,2.223,105.682,0.3351,-0.210797,0.829868,-1.99655,-0.33037,-0.00875433,1.94753,3.17691,1.21603,-0.2,3.5,0,11943,49.491,26.098,12916.2
5283909143,0.634767,2.223,105.681,0.37231,-0.22309,0.822549,-2.14127,0.138061,-0.0322327,2.43178,3.89456,1.83487,-0.2,3.5,0,11943,49.491,26.098,12916.2
5284009502,0.634767,2.223,105.679,0.339909,-0.198238,0.830901,-2.30054,0.634636,-0.0250187,2.38313,3.93974,2.02932,-0.2,3.5,0,11943,49.491,26.098,12916.2
5284109856,0.634767,2.223,105.668,0.27403,-0.159951,0.843089,-2.4487,1.05601,-0.0191777,1.98058,3.45424,1.50568,-0.2,3.5,0,11943,49.491,26.098,12916.2
5284210229,0.634767,2.223,105.663,0.2028,-0.120543,0.852876,-2.56781,1.40283,-0.00654639,1.64938,2.80781,0.914199,-0.2,3.5,0,11943,49.491,26.098,12916.2
5284310583,0.634767,2.223,105.652,0.141857,-0.0878024,0.85844,-2.65679,1.6664,0.0123367,1.2615,2.0929,0.622818,-0.2,3.5,0,11943,49.491,26.098,12916.2
5284410994,0.634767,2.223,105.653,0.0924499,-0.0612219,0.862122,-2.73565,1.87721,0.0193735,0.729715,1.34653,0.308851,3.9,-2.5,0,11943,49.442,28.238,13961.4
5284511343,0.634767,2.223,105.65,0.0438194,-0.0490038,0.863963,-2.78658,2.0112,0.020441,0.568279,1.08064,0.419433,3.9,-2.5,0,11943,49.442,28.238,13961.4
5284611681,0.634767,2.223,105.645,-0.1151,-0.112414,0.873867,-2.77554,2.09384,0.0506889,0.788318,-0.105162,-0.0258356,3.9,-2.5,0,11943,49.442,28.238,13961.4
5284712066,0.634767,2.223,105.646,-0.263156,-0.17748,0.890558,-2.55864,2.11491,-0.00119065,1.57836,-1.79789,0.373065,3.9,-2.5,0,11943,49.442,28.238,13961.4
5284812507,0.634767,2.223,105.647,-0.357499,-0.220718,0.905314,-2.19114,2.10179,-0.0297075,2.08555,-2.83603,1.68163,3.9,-2.5,0,11943,49.442,28.238,13961.4
5284912828,0.634766,2.223,105.635,-0.400814,-0.240848,0.91311,-1.73598,2.06742,-0.0296919,2.37627,-3.30619,2.24674,3.9,-2.5,0,11943,49.442,28.238,13961.4
5285013190,0.634766,2.223,105.626,-0.414011,-0.249615,0.916277,-1.25098,2.02826,-0.0133157,2.4722,-3.37834,2.47328,3.9,-2.5,0,11943,49.442,28.238,13961.4
5285113537,0.634766,2.223,105.618,-0.409357,-0.248897,0.914888,-0.763839,1.98253,-0.0067395,2.48725,-3.51664,2.18798,3.9,-2.5,0,11943,49.442,28.238,13961.4
5285213854,0.634766,2.223,105.6,-0.397556,-0.244591,0.912808,-0.291938,1.93905,0.000760263,2.40867,-3.25499,2.27186,3.9,-2.5,0,11943,49.442,28.238,13961.4
5285314190,0.634766,2.223,105.6,-0.386816,-0.238619,0.910343,0.155607,1.89383,0.0167241,2.29954,-3.19083,1.91328,3.9,-2.5,0,11943,49.442,28.238,13961.4
5285415340,0.634766,2.223,105.622,-0.374878,-0.232519,0.907916,0.582583,1.83989,0.023608,2.14639,-3.10112,1.74521,3.2,-3.8,0,11943,49.437,27.175,13434.5
5285515881,0.634766,2.223,105.641,-0.37094,-0.207902,0.901799,0.998573,1.78995,0.0462859,2.04451,-2.7642,2.28611,3.2,-3.8,0,11943,49.437,27.175,13434.5
5285616308,0.634766,2.223,105.661,-0.380361,-0.158809,0.897438,1.38004,1.703,0.0604752,1.55529,-3.02579,1.18836,3.2,-3.8,0,11943,49.437,27.175,13434.5
5285716793,0.634767,2.223,105.682,-0.39188,-0.127125,0.891199,1.71692,1.57184,0.0396138,1.10374,-3.12939,0.925911,3.2,-3.8,0,11943,49.437,27.175,13434.5
5285817234,0.634767,2.223,105.7,-0.397055,-0.110751,0.886153,2.03317,1.41137,0.0221849,0.781702,-2.95652,1.31438,3.2,-3.8,0,11943,49.437,27.175,13434.5
5285919090,0.634767,2.223,105.718,-0.394306,-0.104193,0.882411,2.3492,1.24176,0.0321077,0.710045,-3.02586,1.19964,3.2,-3.8,0,11943,49.437,27.175,13434.5
5286019454,0.634767,2.223,105.736,-0.391415,-0.10616,0.88166,2.64266,1.07355,0.0190494,0.631492,-2.95741,1.02195,3.2,-3.8,0,11943,49.437,27.175,13434.5
5286119760,0.634767,2.223,105.749,-0.386311,-0.112558,0.882901,2.93009,0.918339,0.0022152,0.734078,-2.91508,0.970263,3.2,-3.8,0,11943,49.437,27.175,13434.5
5286220126,0.634767,2.223,105.752,-0.379735,-0.119273,0.884541,3.21912,0.777886,-0.00896398,0.879035,-2.83312,0.952988,3.2,-3.8,0,11943,49.437,27.175,13434.5
5286320453,0.634767,2.223,105.761,-0.371136,-0.121922,0.884879,3.50831,0.647977,-0.00698798,0.877594,-2.65589,1.28497,3.2,-3.8,0,11943,49.437,27.175,13434.5
5286420871,0.634767,2.223,105.768,-0.346108,-0.119239,0.883306,3.77179,0.51966,-0.00738404,0.84271,-2.65567,0.645519,-3,3.1,0,11899,49.38,28.26,13954.8
5286521221,0.634767,2.223,105.78,-0.282011,-0.0789069,0.875815,4.01801,0.41807,0.00272064,0.971383,-2.23708,1.09427,-3,3.1,0,11899,49.38,28.26,13954.8
5286621574,0.634767,2.223,105.792,-0.0533597,0.0917862,0.867294,4.17695,0.319202,0.102357,0.0946236,-1.32166,1.21633,-3,3.1,0,11899,49.38,28.26,13954.8
5286721919,0.634767,2.223,105.809,0.175784,0.222107,0.887719,3.95198,0.237762,0.168532,-1.99585,1.4903,0.675179,-3,3.1,0,11899,49.38,28.26,13954.8
5286822298,0.634767,2.223,105.825,0.283136,0.281937,0.906575,3.53325,0.21024,0.113032,-2.65514,2.95138,1.09533,-3,3.1,0,11899,49.38,28.26,13954.8
5286922659,0.634767,2.223,105.836,0.33763,0.310503,0.917607,3.0218,0.199713,0.0540533,-3.08829,3.61918,1.60146,-3,3.1,0,11899,49.38,28.26,13954.8
5287023018,0.634767,2.223,105.846,0.362391,0.32626,0.923452,2.46587,0.202134,-0.000399105,-3.20082,3.92697,1.9766,-3,3.1,0,11899,49.38,28.26,13954.8
5287123374,0.634767,2.223,105.84,0.374024,0.332491,0.925471,1.86563,0.206586,-0.0523953,-3.27608,3.99119,2.50768,-3,3.1,0,11899,49.38,28.26,13954.8
5287223725,0.634767,2.223,105.815,0.3794,0.341097,0.927256,1.25876,0.21288,-0.0906463,-3.23587,4.0259,2.62263,-3,3.1,0,11899,49.38,28.26,13954.8
5287324110,0.634767,2.223,105.795,0.383876,0.352373,0.930609,0.635605,0.218406,-0.114918,-3.31836,4.05589,2.87914,-3,3.1,0,11899,49.38,28.26,13954.8
5287424489,0.634767,2.223,105.777,0.381388,0.363301,0.9328,-0.00882626,0.214586,-0.136877,-3.53088,4.13608,2.6769,-0.2,-2.7,0,11899,49.253,30.913,15225.6
5287524808,0.634767,2.223,105.766,0.348102,0.355572,0.923314,-0.667993,0.190562,-0.148508,-3.5518,3.96801,3.16157,-0.2,-2.7,0,11899,49.253,30.913,15225.6
5287625109,0.634767,2.223,105.735,0.184606,0.260086,0.862577,-1.3222,0.158461,-0.068605,-3.57467,3.63204,2.79764,-0.2,-2.7,0,11899,49.253,30.913,15225.6
5287725422,0.634767,2.223,105.71,-0.0731851,0.0945152,0.836505,-1.66965,0.115414,-0.0571734,-2.1887,1.52673,-0.19615,-0.2,-2.7,0,11899,49.253,30.913,15225.6
5287825784,0.634767,2.223,105.693,-0.300721,-0.0201382,0.857144,-1.66262,0.0299302,-0.133137,-0.195347,-1.40367,-0.55299,-0.2,-2.7,0,11899,49.253,30.913,15225.6
5287926988,0.634767,2.223,105.672,-0.421857,-0.0804856,0.881325,-1.42605,-0.124311,-0.160204,0.567628,-2.90552,1.62089,-0.2,-2.7,0,11899,49.253,30.913,15225.6
5288032561,0.634767,2.223,105.629,-0.47181,-0.103896,0.893828,-1.04853,-0.324024,-0.118829,0.985082,-3.72563,2.63683,-0.2,-2.7,0,11899,49.253,30.913,15225.6
5288132912,0.634767,2.223,105.606,-0.482183,-0.108597,0.897912,-0.539324,-0.564269,-0.0713363,1.17919,-4.09916,2.54115,-0.2,-2.7,0,11899,49.253,30.913,15225.6
5288233275,0.634767,2.223,105.592,-0.478617,-0.103652,0.897024,-0.115823,-0.760531,-0.0361752,1.14617,-3.81913,2.78983,-0.2,-2.7,0,11899,49.253,30.913,15225.6
5288333638,0.634767,2.223,105.583,-0.471072,-0.0953561,0.894556,0.294607,-0.962579,-0.0110789,1.04903,-3.87237,2.36024,-0.2,-2.7,0,11899,49.253,30.913,15225.6
5288434081,0.634767,2.223,105.589,-0.437781,-0.0819975,0.889543,0.692396,-1.15255,0.0148276,0.97739,-3.59651,2.26928,-3.1,-1.6,0,11899,49.253,30.913,15225.6
5288534835,0.634767,2.223,105.609,-0.368368,-0.0408445,0.879616,1.03689,-1.31818,0.0509521,0.918301,-3.08431,1.92987,-3.1,-1.6,0,11899,49.576,29.239,14495.5
5288639795,0.634767,2.223,105.636,-0.196918,0.182925,0.863568,1.26046,-1.49351,0.165969,-0.290094,-2.07637,1.24543,-3.1,-1.6,0,11899,49.576,29.239,14495.5
5288743528,0.634767,2.223,105.661,-0.0836216,0.319109,0.863162,1.15101,-1.72491,0.154372,-2.71685,-0.353102,-0.0711942,-3.1,-1.6,0,11899,49.576,29.239,14495.5
5288843831,0.634767,2.223,105.691,-0.033774,0.387383,0.863857,0.9277,-1.95911,0.0858711,-3.33699,0.504998,0.832192,-3.1,-1.6,0,11899,49.576,29.239,14495.5
5288944228,0.634767,2.223,105.745,-0.0156473,0.387836,0.863506,0.631287,-2.2292,0.0711504,-3.77197,0.694201,1.35609,-3.1,-1.6,0,11899,49.576,29.239,14495.5
5289044581,0.634767,2.223,105.782,-0.0189663,0.347204,0.861422,0.350773,-2.46296,0.0442864,-3.46369,0.725227,0.786629,-3.1,-1.6,0,11899,49.576,29.239,14495.5
5289144941,0.634767,2.223,105.782,-0.0283937,0.292946,0.860488,0.110495,-2.65926,0.0148612,-2.93889,0.605284,0.391867,-3.1,-1.6,0,11899,49.576,29.239,14495.5
5289245274,0.634767,2.223,105.778,-0.0384772,0.242893,0.860938,-0.0889424,-2.81406,-0.00255742,-2.33158,0.592266,0.417233,-3.1,-1.6,0,11899,49.576,29.239,14495.5
5289345555,0.634767,2.223,105.784,-0.0509746,0.202951,0.862547,-0.250937,-2.93584,-0.0144036,-1.83082,0.383147,0.145469,-3.1,-1.6,0,11899,49.576,29.239,14495.5
5289445910,0.634767,2.223,105.781,-0.0612572,0.166084,0.863667,-0.386794,-3.03393,-0.0286389,-1.54134,0.304709,-0.209778,-5,-4.1,0,11899,49.576,29.239,14495.5
5289546268,0.634767,2.223,105.761,-0.08073,0.145827,0.86301,-0.486338,-3.09783,-0.0341269,-1.04796,0.282743,0.229758,-5,-4.1,0,11899,49.516,25.599,12675.6
5289646638,0.634767,2.223,105.748,-0.159643,0.173345,0.852568,-0.560337,-3.16312,-0.0268622,-1.02211,-0.125721,-0.472121,-5,-4.1,0,11899,49.516,25.599,12675.6
5289746990,0.634767,2.223,105.738,-0.242676,0.204815,0.841932,-0.602213,-3.31765,-0.0940867,-1.33283,-0.855135,0.475185,-5,-4.1,0,11899,49.516,25.599,12675.6
5289848348,0.634767,2.223,105.721,-0.295501,0.224634,0.834666,-0.605377,-3.57297,-0.0969433,-1.65156,-1.59042,1.21169,-5,-4.1,0,11899,49.516,25.599,12675.6
5289955364,0.634767,2.223,105.712,-0.327589,0.242235,0.829675,-0.57739,-3.93353,-0.0843184,-1.85978,-1.96829,1.38502,-5,-4.1,0,11899,49.516,25.599,12675.6
5290055732,0.634767,2.223,105.701,-0.337592,0.245011,0.82868,-0.556854,-4.25574,-0.0738451,-2.0002,-2.11375,1.42322,-5,-4.1,0,11899,49.516,25.599,12675.6
5290156077,0.634767,2.223,105.693,-0.343141,0.243191,0.828119,-0.525347,-4.58127,-0.0572084,-1.94611,-2.16276,1.42075,-5,-4.1,0,11899,49.516,25.599,12675.6
5290256428,0.634767,2.223,105.691,-0.346014,0.241339,0.828573,-0.487191,-4.9075,-0.0457693,-1.91657,-2.20388,1.50395,-5,-4.1,0,11899,49.516,25.599,12675.6
5290356768,0.634767,2.223,105.702,-0.331718,0.228092,0.832544,-0.456466,-5.21573,-0.0312571,-1.97907,-2.1372,0.975729,-5,-4.1,0,11899,49.516,25.599,12675.6
5290457154,0.634767,2.223,105.716,-0.306098,0.203722,0.839869,-0.413199,-5.48993,-0.0135739,-1.55121,-1.83829,1.28176,0.5,1.8,0,11899,49.516,25.599,12675.6
5290557479,0.634767,2.223,105.729,-0.259024,0.15984,0.85163,-0.385353,-5.72153,0.00731814,-1.4157,-1.57676,0.987641,0.5,1.8,0,11899,49.312,33.007,16276.4
5290657826,0.634767,2.223,105.741,-0.0619471,-0.0180265,0.868892,-0.357245,-5.87928,0.0795745,-0.645131,-0.816373,1.35232,0.5,1.8,0,11899,49.312,33.007,16276.4
5290758173,0.634767,2.223,105.759,0.143025,-0.189071,0.851294,-0.37485,-5.6547,0.181307,1.72352,1.73689,1.21137,0.5,1.8,0,11899,49.312,33.007,16276.4
5290858493,0.634767,2.223,105.771,0.240211,-0.2653,0.830224,-0.428072,-5.22813,0.138121,2.87519,3.13355,0.508701,0.5,1.8,0,11899,49.312,33.007,16276.4
5290958863,0.634767,2.223,105.77,0.291511,-0.300915,0.816814,-0.489391,-4.74532,0.0572527,3.13036,3.45051,1.48188,0.5,1.8,0,11899,49.312,33.007,16276.4
5291059166,0.634767,2.223,105.759,0.324364,-0.315141,0.810191,-0.557435,-4.20082,0.00474679,3.40123,3.73439,1.97026,0.5,1.8,0,11899,49.312,33.007,16276.4
5291159628,0.634767,2.223,105.743,0.342291,-0.316921,0.809032,-0.637784,-3.63823,-0.0378884,3.34107,3.87793,2.22829,0.5,1.8,0,11899,49.312,33.007,16276.4
5291260106,0.634767,2.223,105.717,0.357466,-0.318522,0.80824,-0.719131,-3.05645,-0.0800797,3.3138,3.84377,2.66901,0.5,1.8,0,11899,49.312,33.007,16276.4
5291360465,0.634767,2.223,105.674,0.367423,-0.317279,0.809686,-0.812762,-2.45445,-0.119492,3.36692,4.08053,2.5812,0.5,1.8,0,11899,49.312,33.007,16276.4
5291460871,0.634767,2.223,105.63,0.365498,-0.319411,0.811191,-0.92113,-1.82771,-0.124017,3.37201,4.15474,3.00095,-2.5,2,0,11899,49.312,33.007,16276.4
5291561218,0.634767,2.223,105.599,0.355657,-0.287331,0.819926,-1.02149,-1.20511,-0.132836,3.4275,4.02386,2.8295,-2.5,2,0,11899,49.384,28.301,13976.2
5291662295,0.634767,2.223,105.581,0.345291,-0.0675753,0.852547,-1.15213,-0.583239,-0.0365128,3.01087,3.91617,3.39398,-2.5,2,0,11899,49.384,28.301,13976.2
5291766478,0.634767,2.223,105.585,0.296314,0.167982,0.886503,-1.48515,-0.251251,0.0272166,-0.179047,4.07162,1.32449,-2.5,2,0,11899,49.384,28.301,13976.2
5291866744,0.634767,2.223,105.598,0.212784,0.282155,0.89583,-1.88124,-0.177658,-0.0321473,-2.19965,3.17438,0.848652,-2.5,2,0,11899,49.384,28.301,13976.2
5291967021,0.634767,2.223,105.631,0.129025,0.306508,0.889439,-2.26908,-0.221172,-0.0488276,-2.77328,2.30968,1.32919,-2.5,2,0,11899,49.384,28.301,13976.2
5292067341,0.634767,2.223,105.66,0.0605274,0.271178,0.881248,-2.60582,-0.32017,-0.0132109,-2.76866,1.5411,1.17649,-2.5,2,0,11899,49.384,28.301,13976.2
5292167706,0.634767,2.223,105.688,0.0124028,0.214812,0.876024,-2.84144,-0.419171,0.0324417,-2.20105,0.899326,0.601442,-2.5,2,0,11899,49.384,28.301,13976.2
5292268088,0.634767,2.223,105.718,-0.0156168,0.168294,0.873482,-3.00488,-0.499981,0.0433858,-1.66135,0.496483,0.187666,-2.5,2,0,11899,49.384,28.301,13976.2
5292368444,0.634767,2.223,105.745,-0.0330917,0.130681,0.871736,-3.11899,-0.570233,0.0509874,-1.24655,0.212087,-0.176072,-2.5,2,0,11899,49.384,28.301,13976.2
5292468782,0.634767,2.223,105.76,-0.0412654,0.0992919,0.870562,-3.19215,-0.62871,0.043927,-0.78366,0.0809522,-0.0475291,4,4.3,0,11899,49.384,28.301,13976.2
5292569090,0.634766,2.223,105.763,-0.0365692,0.0570204,0.871457,-3.23303,-0.67129,0.0249294,-0.45954,0.016887,-0.206686,4,4.3,0,11860,49.39,26.504,13090.3
5292671553,0.634766,2.223,105.759,0.0245492,-0.141001,0.867321,-3.25492,-0.66269,0.0467453,0.732486,0.454462,0.2194,4,4.3,0,11860,49.39,26.504,13090.3
5292775096,0.634766,2.223,105.748,0.0727403,-0.302794,0.854415,-3.16133,-0.404742,-0.00864493,2.79116,1.08734,0.244288,4,4.3,0,11860,49.39,26.504,13090.3
5292875496,0.634766,2.223,105.729,0.103789,-0.388629,0.842034,-3.0154,-0.0515597,-0.0528217,3.66862,1.284,1.42755,4,4.3,0,11860,49.39,26.504,13090.3
5292975889,0.634766,2.223,105.697,0.121959,-0.421398,0.834864,-2.83064,0.380039,-0.0741297,4.06904,1.4185,2.19343,4,4.3,0,11860,49.39,26.504,13090.3
5293076316,0.634766,2.223,105.665,0.13107,-0.425033,0.832314,-2.63701,0.848471,-0.0669441,4.2607,1.53834,2.45783,4,4.3,0,11860,49.39,26.504,13090.3
5293176707,0.634766,2.223,105.636,0.136802,-0.418319,0.8323,-2.45265,1.31894,-0.0535214,4.3039,1.61945,2.27625,4,4.3,0,11860,49.39,26.504,13090.3
5293277099,0.634766,2.223,105.614,0.138503,-0.409968,0.833044,-2.27381,1.78725,-0.0396978,4.16769,1.61224,2.36613,4,4.3,0,11860,49.39,26.504,13090.3
5293378532,0.634766,2.223,105.605,0.136628,-0.399118,0.834496,-2.1128,2.241,-0.0210646,3.97521,1.66003,2.10913,4,4.3,0,11860,49.39,26.504,13090.3
5293478958,0.634766,2.223,105.602,0.134328,-0.38652,0.836315,-1.95556,2.69235,-0.00895414,3.76258,1.62858,2.28337,-3,-0.9,0,11860,49.39,26.504,13090.3
5293579322,0.634766,2.223,105.61,0.106373,-0.337354,0.844556,-1.8088,3.13371,0.0156974,3.74057,1.68096,2.05619,-3,-0.9,0,11860,49.533,25.504,12632.9
5293679677,0.634766,2.223,105.614,-0.040538,-0.0996739,0.873501,-1.67005,3.50386,0.114754,2.95526,1.18047,1.23079,-3,-0.9,0,11860,49.533,25.504,12632.9
5293780062,0.634766,2.223,105.623,-0.214919,0.167476,0.84984,-1.61412,3.47354,0.136111,-0.539424,-0.907683,-0.377688,-3,-0.9,0,11860,49.533,25.504,12632.9
5293881316,0.634766,2.223,105.64,-0.313945,0.297018,0.81744,-1.60216,3.14508,0.0490369,-2.60727,-2.18684,0.844162,-3,-0.9,0,11860,49.533,25.504,12632.9
5293986311,0.634766,2.223,105.663,-0.363503,0.360543,0.797735,-1.60363,2.6711,0.0210341,-3.45319,-2.6893,2.15308,-3,-0.9,0,11860,49.533,25.504,12632.9
5294086665,0.634766,2.223,105.694,-0.376328,0.380753,0.790821,-1.61631,2.11833,0.0115402,-3.87987,-3.01861,2.59365,-3,-0.9,0,11860,49.533,25.504,12632.9
5294187024,0.634766,2.223,105.731,-0.373222,0.38112,0.790837,-1.63661,1.56417,0.0188169,-3.91195,-2.98391,2.44912,-3,-0.9,0,11860,49.533,25.504,12632.9
5294287343,0.634766,2.223,105.758,-0.365156,0.372306,0.795059,-1.66047,1.01577,0.0126072,-3.80272,-2.88974,2.38646,-3,-0.9,0,11860,49.533,25.504,12632.9
5294387676,0.634766,2.223,105.772,-0.357625,0.35781,0.800425,-1.68124,0.478844,0.00950973,-3.63102,-2.78709,2.22471,-3,-0.9,0,11860,49.533,25.504,12632.9
5294488072,0.634766,2.223,105.779,-0.349358,0.33872,0.805806,-1.69427,-0.0314847,0.000366323,-3.29996,-2.64025,2.20776,-2.7,4.1,0,11860,49.533,25.504,12632.9
5294588430,0.634766,2.223,105.784,-0.330393,0.318827,0.810998,-1.70922,-0.515454,-0.00905938,-3.13407,-2.48033,1.96571,-2.7,4.1,0,11860,49.254,30.738,15139.7
5294690270,0.634766,2.223,105.782,-0.1429,0.27845,0.856474,-1.71444,-1.01705,0.0703631,-2.91009,-2.3797,2.86957,-2.7,4.1,0,11860,49.254,30.738,15139.7
5294795276,0.634766,2.223,105.792,0.181969,0.183868,0.899989,-1.90874,-1.29111,0.111705,-2.04634,0.785602,0.31956,-2.7,4.1,0,11860,49.254,30.738,15139.7
5294895640,0.634766,2.223,105.796,0.391743,0.108735,0.893969,-2.24358,-1.19573,0.064959,-1.03365,3.71671,0.098904,-2.7,4.1,0,11860,49.254,30.738,15139.7
5294995980,0.634766,2.223,105.797,0.450222,0.0783498,0.883808,-2.63658,-0.984447,-0.0818345,-0.552829,4.41923,1.52757,-2.7,4.1,0,11860,49.254,30.738,15139.7
5295096395,0.634766,2.223,105.789,0.467531,0.0589664,0.873768,-3.08788,-0.693437,-0.100411,-0.380256,5.00241,2.09006,-2.7,4.1,0,11860,49.254,30.738,15139.7
5295196746,0.634766,2.223,105.778,0.428835,0.0550354,0.870529,-3.52943,-0.391954,-0.12175,-0.308872,4.86812,2.23129,-2.7,4.1,0,11860,49.254,30.738,15139.7
5295297059,0.634766,2.223,105.761,0.353167,0.0543012,0.86894,-3.92826,-0.116011,-0.0982012,-0.245402,4.33252,1.8595,-2.7,4.1,0,11860,49.254,30.738,15139.7
5295397425,0.634766,2.223,105.735,0.272662,0.0552261,0.869234,-4.25155,0.0996774,-0.0885059,-0.303627,3.46251,1.27458,-2.7,4.1,0,11860,49.254,30.738,15139.7
5295497836,0.634765,2.223,105.712,0.192033,0.0532493,0.869597,-4.5049,0.262027,-0.0657908,-0.297174,2.6566,0.87145,3,-2.1,0,11860,49.254,30.738,15139.7
5295598229,0.634765,2.223,105.698,0.104984,0.0260668,0.866426,-4.69325,0.38273,-0.0396903,-0.334727,1.88474,0.762613,3,-2.1,0,11860,49.254,30.738,15139.7
5295698546,0.634765,2.223,105.683,-0.102482,-0.116759,0.874294,-4.77212,0.459457,0.00792206,0.429358,0.504789,0.135879,3,-2.1,0,11815,49.116,30.361,14912.1
5295798861,0.634765,2.223,105.674,-0.257988,-0.220023,0.898166,-4.5356,0.533559,-0.00913363,2.15793,-1.71386,0.285263,3,-2.1,0,11815,49.116,30.361,14912.1
5295899217,0.634765,2.223,105.663,-0.350291,-0.280338,0.918894,-4.15474,0.588246,-0.05286,2.72389,-2.65289,1.58705,3,-2.1,0,11815,49.116,30.361,14912.1
5295999543,0.634765,2.223,105.651,-0.387241,-0.302675,0.927538,-3.65025,0.637013,-0.0506454,3.14484,-3.27655,2.33848,3,-2.1,0,11815,49.116,30.361,14912.1
5296099841,0.634765,2.223,105.641,-0.39001,-0.306717,0.927881,-3.12071,0.682446,-0.0393242,3.31898,-3.4067,2.43798,3,-2.1,0,11815,49.116,30.361,14912.1
5296204298,0.634765,2.223,105.618,-0.381494,-0.30185,0.925425,-2.59209,0.721616,-0.0268107,3.11087,-3.23983,2.82132,3,-2.1,0,11815,49.116,30.361,14912.1
5296310471,0.634765,2.223,105.6,-0.370003,-0.296636,0.922422,-2.07895,0.762645,-0.00138965,3.13861,-3.19345,2.31169,3,-2.1,0,11815,49.116,30.361,14912.1
5296410823,0.634765,2.223,105.594,-0.357284,-0.287101,0.918372,-1.59088,0.800397,0.0145836,2.87007,-2.90491,2.31894,3,-2.1,0,11815,49.116,30.361,14912.1
5296511258,0.634765,2.223,105.595,-0.345247,-0.276854,0.914614,-1.03762,0.84754,0.0365205,2.74089,-2.72242,1.98737,0.5,2.8,0,11815,49.116,30.361,14912.1
5296611608,0.634765,2.223,105.604,-0.31532,-0.265323,0.907538,-0.597295,0.875477,0.0437592,2.54624,-2.67265,2.00041,0.5,2.8,0,11815,49.116,30.361,14912.1
5296712278,0.634765,2.223,105.612,-0.0928794,-0.189014,0.865764,-0.206982,0.924272,0.115188,2.29953,-1.91745,1.65194,0.5,2.8,0,11815,49.173,30.181,14840.9
5296815333,0.634765,2.223,105.636,0.224404,-0.0389452,0.858084,-0.188394,1.08247,0.171425,0.895564,1.47393,0.0460925,0.5,2.8,0,11815,49.173,30.181,14840.9
5296915651,0.634765,2.223,105.66,0.333567,0.0313649,0.872866,-0.443854,1.28519,0.0929088,-0.301735,3.54523,0.152293,0.5,2.8,0,11815,49.173,30.181,14840.9
5297015938,0.634765,2.223,105.679,0.344385,0.0593225,0.881614,-0.769816,1.48791,0.0349924,-0.653267,3.78843,1.09742,0.5,2.8,0,11815,49.173,30.181,14840.9
5297116318,0.634765,2.223,105.699,0.299408,0.0653886,0.883469,-1.10029,1.66267,0.0231583,-0.825005,3.53528,0.853151,0.5,2.8,0,11815,49.173,30.181,14840.9
5297216677,0.634765,2.223,105.732,0.23602,0.0574854,0.880976,-1.38409,1.81476,0.00557971,-0.725911,3.04306,0.521666,0.5,2.8,0,11815,49.173,30.181,14840.9
5297317031,0.634765,2.223,105.754,0.17437,0.0449581,0.877098,-1.61987,1.92811,0.00474247,-0.628967,2.43443,0.127189,0.5,2.8,0,11815,49.173,30.181,14840.9
5297417371,0.634765,2.223,105.752,0.122591,0.0289191,0.872831,-1.79658,2.01542,-0.0118142,-0.448235,1.76778,0.0439628,0.5,2.8,0,11815,49.173,30.181,14840.9
5297517803,0.634765,2.223,105.746,0.0837523,0.0131189,0.87017,-1.94029,2.07999,-0.0159437,-0.361875,1.32614,0.166213,1.8,3.7,0,11815,49.173,30.181,14840.9
5297618180,0.634765,2.223,105.739,0.0699468,-0.0340647,0.869061,-2.05796,2.12848,-0.0237425,-0.299278,0.90551,0.468759,1.8,3.7,0,11815,49.173,30.181,14840.9
5297718587,0.634765,2.223,105.723,0.108602,-0.135493,0.86194,-2.1285,2.24243,0.00308777,0.830585,1.21565,-0.0938051,1.8,3.7,0,11815,49.102,30.862,15153.9
5297818962,0.634765,2.223,105.7,0.132347,-0.201569,0.854846,-2.15846,2.45956,-0.0455282,1.62913,1.43522,0.410405,1.8,3.7,0,11815,49.102,30.862,15153.9
5297919307,0.634765,2.223,105.676,0.135155,-0.227104,0.852418,-2.17442,2.73845,-0.0413816,2.00068,1.62336,0.930718,1.8,3.7,0,11815,49.102,30.862,15153.9
5298019618,0.634765,2.223,105.654,0.116433,-0.216038,0.85505,-2.17331,3.01638,-0.0346184,2.0788,1.48146,0.926881,1.8,3.7,0,11815,49.102,30.862,15153.9
