timestamp,lat,log,alt,roll,pitch,yaw,vel_x,vel_y,vel_z,acc_x,acc_y,acc_z,act_vx,act_vy,act_yr,capacity,vol,cur,power
1891650002,0.634768,2.223,122.147,-0.0502728,0.00378372,0.955175,0.0204191,-0.00501866,-0.0218944,-0.0307863,-0.0306012,0.0452562,0,-0.4,0,12773,49.885,25.358,12649.8
1891750453,0.634768,2.223,122.133,-0.0525149,0.0031262,0.955354,0.0221635,-0.0140584,-0.0221807,0.013348,-0.0912411,0.151819,0,-0.4,0,12773,49.885,25.358,12649.8
1891850825,0.634768,2.223,122.118,-0.0514342,0.0032668,0.95617,0.027969,-0.0219661,-0.0190923,0.0134541,-0.125482,0.0158195,0,-0.4,0,12773,49.885,25.358,12649.8
1891951184,0.634768,2.223,122.113,-0.0887049,0.0087709,0.955775,0.0404526,-0.0302967,2.63546e-05,0.0439993,-0.258097,0.160953,0,-0.4,0,12773,49.885,25.358,12649.8
1892051552,0.634768,2.223,122.105,-0.107065,0.0112012,0.955127,0.0677231,-0.0731897,-0.0166454,-0.180244,-0.445663,0.08125,0,-0.4,0,12773,49.885,25.358,12649.8
1892151924,0.634768,2.223,122.107,-0.115777,0.00973542,0.955141,0.10848,-0.124967,-0.017529,-0.121682,-0.625087,0.115968,0,-0.4,0,12773,49.885,25.358,12649.8
1892252371,0.634768,2.223,122.113,-0.114028,0.00353812,0.955715,0.161682,-0.182955,-0.0108339,-0.100398,-0.764279,-0.00915044,0,-0.4,0,12713,49.897,24.871,12409.9
1892354252,0.634768,2.223,122.115,-0.104123,-0.00165317,0.95561,0.218151,-0.218186,-0.00260975,0.111905,-0.58227,0.103015,0,-0.4,0,12713,49.897,24.871,12409.9
1892455218,0.634768,2.223,122.122,-0.0910545,-0.00331427,0.955538,0.25842,-0.24926,-0.00106349,0.0390744,-0.488769,0.0144414,0,-0.4,0,12713,49.897,24.871,12409.9
1892555632,0.634768,2.223,122.121,-0.0795425,-0.00274841,0.955639,0.294278,-0.272226,-0.000164432,0.0703691,-0.420006,-0.0522234,0,-0.4,0,12713,49.897,24.871,12409.9
1892656144,0.634768,2.223,122.12,-0.071404,-0.00141478,0.95554,0.322487,-0.290825,0.000700866,0.0638881,-0.351043,0.00475325,0,-0.4,0,12713,49.897,24.871,12409.9
1892756518,0.634768,2.223,122.115,-0.0644623,-0.00013989,0.955784,0.34403,-0.303757,0.000369167,0.0533514,-0.23175,-0.219413,0,-0.4,0,12713,49.897,24.871,12409.9
1892856895,0.634768,2.223,122.115,-0.0588695,0.000604956,0.955562,0.35528,-0.315563,-0.000595319,0.00806836,-0.135511,0.0309038,0,-0.4,0,12713,49.897,24.871,12409.9
1892957243,0.634768,2.223,122.119,-0.0549313,0.0020934,0.955456,0.361584,-0.332068,0.00505879,-0.0862658,-0.117939,-0.0172831,0,-0.4,0,12713,49.897,24.871,12409.9
1893057595,0.634768,2.223,122.121,-0.0544766,0.000995785,0.955007,0.359997,-0.339809,0.00789183,-0.0300908,-0.0716265,-0.061349,0,-0.4,0,12713,49.897,24.871,12409.9
1893157942,0.634768,2.223,122.124,-0.05348,0.000655524,0.954889,0.367823,-0.346151,-0.00249306,0.000899382,-0.0676248,0.173103,0,-0.4,0,12713,49.897,24.871,12409.9
1893258286,0.634768,2.223,122.123,-0.052201,-0.00188219,0.954678,0.362941,-0.355398,-0.0025091,-0.035193,-0.00547587,-0.0329883,0,-0.4,0,12640,49.87,25.321,12627.6
1893358625,0.634768,2.223,122.12,-0.050379,-0.00492453,0.954945,0.36699,-0.362167,0.000686897,0.00505412,-0.0542616,0.00750985,0,-0.4,0,12640,49.87,25.321,12627.6
1893458969,0.634768,2.223,122.108,-0.0484742,-0.00777867,0.95494,0.369132,-0.362326,-0.0111976,0.0598451,-0.0634887,0.231843,0,-0.4,0,12640,49.87,25.321,12627.6
1893559354,0.634768,2.223,122.102,-0.0463837,-0.00784756,0.955592,0.366737,-0.348995,0.00354186,0.103667,0.0722976,0.289615,0,-0.4,0,12640,49.87,25.321,12627.6
1893661517,0.634768,2.223,122.101,-0.0463208,-0.00951624,0.955941,0.367347,-0.337868,-0.0029894,0.132867,0.0135849,0.00546815,0,1.6,0,12640,49.87,25.321,12627.6
1893767517,0.634768,2.223,122.103,-0.0297833,-0.00835551,0.95391,0.374777,-0.326655,-0.00122997,0.161867,-0.0810558,0.37841,0,1.6,0,12640,49.87,25.321,12627.6
1893867879,0.634768,2.223,122.102,0.134388,-0.00405638,0.953943,0.322664,-0.282418,0.0569666,0.0753175,0.955914,0.513395,0,1.6,0,12640,49.87,25.321,12627.6
1893968282,0.634768,2.223,122.108,0.248123,-0.00142618,0.955818,0.115077,-0.127912,0.0139387,0.080402,2.67213,-0.123223,0,1.6,0,12640,49.87,25.321,12627.6
1894068594,0.634768,2.223,122.112,0.289852,-0.00125901,0.955778,-0.145768,0.0641822,-0.0212378,0.0841331,3.01864,1.04943,0,1.6,0,12640,49.87,25.321,12627.6
1894168998,0.634768,2.223,122.117,0.278899,0.00254285,0.956961,-0.434138,0.275208,-0.0201753,0.0512285,3.31218,0.881858,0,1.6,0,12640,49.87,25.321,12627.6
1894269360,0.634768,2.223,122.124,0.230169,0.00556622,0.957506,-0.692899,0.458597,-0.0124942,0.0110362,2.82989,0.8115,0,1.6,0,12640,49.822,25.903,12905.4
1894369679,0.634768,2.223,122.125,0.167326,0.00540472,0.957421,-0.906783,0.596762,-0.011025,-0.0927613,2.29142,0.501351,0,1.6,0,12640,49.822,25.903,12905.4
1894470030,0.634768,2.223,122.12,0.118079,0.00267044,0.956904,-1.06068,0.704762,-0.00496854,-0.014162,1.70114,0.197694,0,1.6,0,12640,49.822,25.903,12905.4
1894570385,0.634768,2.223,122.124,0.0747867,0.000584411,0.95645,-1.1756,0.784041,0.00250606,-0.0127092,1.22411,0.00447492,0,1.6,0,12640,49.822,25.903,12905.4
1894671486,0.634768,2.223,122.133,0.044429,0.000484049,0.95641,-1.25482,0.843485,0.00208716,0.0640783,0.868106,-0.0351722,0,1.6,0,12640,49.822,25.903,12905.4
1894771901,0.634768,2.223,122.133,0.0233308,0.00102392,0.956126,-1.3147,0.890728,-0.00538861,0.0798739,0.554509,0.125773,0,1.6,0,12640,49.822,25.903,12905.4
1894872294,0.634768,2.223,122.131,0.00946994,0.000644815,0.956041,-1.35649,0.921363,-0.0029559,0.0434379,0.367275,0.0845027,0,1.6,0,12640,49.822,25.903,12905.4
1894972647,0.634768,2.223,122.119,0.000193163,-0.00141784,0.956134,-1.39188,0.944895,-0.00845834,0.0110481,0.298911,0.0574893,0,1.6,0,12640,49.822,25.903,12905.4
1895073056,0.634768,2.223,122.107,-0.00775717,-0.00317503,0.956374,-1.41052,0.962566,-0.00501847,0.0561359,0.150578,0.0952943,0,1.6,0,12640,49.822,25.903,12905.4
1895173474,0.634768,2.223,122.093,-0.0136947,-0.00393128,0.956338,-1.41907,0.983693,-0.00640113,0.124027,0.110932,0.116088,0,1.6,0,12640,49.822,25.903,12905.4
1895273875,0.634768,2.223,122.085,-0.0168559,-0.00214967,0.95632,-1.43344,0.991791,-0.00759875,-0.00883462,0.13705,0.170847,0,1.6,0,12640,49.811,26.325,13112.7
1895374170,0.634768,2.223,122.081,-0.0201109,-0.0013558,0.956367,-1.43333,1.00333,0.00825029,0.0868378,0.080709,0.0266277,0,1.6,0,12640,49.811,26.325,13112.7
1895474521,0.634767,2.223,122.082,-0.018501,-0.000706696,0.956281,-1.42858,1.00505,0.0113856,0.0592814,0.0414549,0.064282,0,1.6,0,12640,49.811,26.325,13112.7
1895574883,0.634767,2.223,122.089,-0.0164054,0.00095894,0.95639,-1.42835,1.00678,0.0161499,0.0288673,0.0639849,-0.0623838,0,1.6,0,12640,49.811,26.325,13112.7
1895675297,0.634767,2.223,122.095,-0.0165614,0.000460492,0.956408,-1.43262,1.01057,0.0110017,0.0241849,0.081164,-0.0606932,0,0.5,0,12640,49.811,26.325,13112.7
1895775649,0.634767,2.223,122.099,-0.0422663,0.000907807,0.958099,-1.42157,1.01478,0.021793,0.0630599,0.0660553,0.207766,0,0.5,0,12640,49.811,26.325,13112.7
1895876000,0.634767,2.223,122.112,-0.114458,0.00185106,0.956729,-1.38996,0.985652,0.0409242,-0.0334089,-0.519525,-0.241425,0,0.5,0,12640,49.811,26.325,13112.7
1895976385,0.634767,2.223,122.125,-0.175014,-0.000454694,0.95653,-1.29291,0.919356,0.00462428,0.0466898,-1.19953,-0.0361228,0,0.5,0,12640,49.811,26.325,13112.7
1896076743,0.634767,2.223,122.135,-0.200018,-0.000445947,0.956482,-1.14525,0.819989,0.00213791,0.0320144,-1.72377,0.125284,0,0.5,0,12640,49.811,26.325,13112.7
1896177099,0.634767,2.223,122.134,-0.194198,-0.000279538,0.956654,-0.997523,0.709304,7.69068e-05,-0.0297247,-1.72203,0.304677,0,0.5,0,12640,49.811,26.325,13112.7
1896277450,0.634767,2.223,122.139,-0.170259,-3.21418e-05,0.956632,-0.856095,0.607581,0.00533825,0.0238508,-1.63882,0.126635,0,0.5,0,12640,49.811,26.325,13112.7
1896377850,0.634767,2.223,122.144,-0.140333,0.000708066,0.956311,-0.739881,0.52298,0.000890136,0.015893,-1.36163,0.0724517,0,0.5,0,12640,49.776,26.723,13301.6
1896478215,0.634767,2.223,122.134,-0.113085,0.00141762,0.95631,-0.646281,0.455682,0.0040512,0.0298361,-1.0017,0.299872,0,0.5,0,12640,49.776,26.723,13301.6
1896578577,0.634767,2.223,122.124,-0.0911759,0.00196584,0.956338,-0.581441,0.413967,0.00158449,0.0426496,-0.659461,-0.162144,0,0.5,0,12640,49.776,26.723,13301.6
1896678921,0.634767,2.223,122.116,-0.0747475,0.00259376,0.956214,-0.532979,0.375311,-0.00933553,-0.0152425,-0.524765,0.0510021,0,0.5,0,12640,49.776,26.723,13301.6
1896779385,0.634767,2.223,122.109,-0.0620604,0.00216801,0.955984,-0.495603,0.351288,-0.00577168,0.0449551,-0.353008,0.173219,0,0.5,0,12640,49.776,26.723,13301.6
1896879742,0.634767,2.223,122.098,-0.0528982,0.000906883,0.955958,-0.474237,0.335741,-0.00328462,0.0650679,-0.199064,0.087492,0,0.5,0,12640,49.776,26.723,13301.6
1896980106,0.634767,2.223,122.094,-0.0474499,0.00121162,0.955992,-0.458018,0.327347,0.00277454,0.0314534,-0.135681,0.0359155,0,0.5,0,12640,49.776,26.723,13301.6
1897080460,0.634767,2.223,122.098,-0.0428586,0.0012021,0.955703,-0.449023,0.317542,0.00842543,-0.00272901,-0.0707282,0.0635628,0,0.5,0,12640,49.776,26.723,13301.6
1897180838,0.634767,2.223,122.099,-0.0401577,0.00133487,0.955747,-0.447155,0.316373,0.00824572,0.0412881,-0.0236118,0.0462306,0,0.5,0,12640,49.776,26.723,13301.6
1897281425,0.634767,2.223,122.093,-0.0398328,0.00116922,0.955627,-0.450723,0.312615,0.00273331,-0.00514688,-0.00455697,-0.0291344,0,0.5,0,12640,49.776,26.723,13301.6
1897383632,0.634767,2.223,122.09,-0.0403802,0.00138142,0.955546,-0.446125,0.311394,0.0105074,0.0620352,-0.000595301,0.107759,0,0.5,0,12640,49.8,26.006,12951
1897484039,0.634767,2.223,122.096,-0.0416203,0.00254505,0.955355,-0.454488,0.310028,0.0125721,-0.028086,0.00978707,-0.324925,0,0.5,0,12640,49.8,26.006,12951
1897584439,0.634767,2.223,122.096,-0.0428171,0.00158667,0.955558,-0.455677,0.302495,0.016286,-0.0480351,-0.0905219,0.142218,0,0.5,0,12640,49.8,26.006,12951
1897684877,0.634767,2.223,122.088,-0.0431155,0.00108311,0.955353,-0.462083,0.304985,0.012136,0.00873954,-0.0285869,-0.0172505,0,2.7,0,12640,49.8,26.006,12951
1897785311,0.634767,2.223,122.086,-0.0286132,0.00190936,0.953472,-0.465982,0.310317,0.0223906,0.0579747,0.0116996,0.210622,0,2.7,0,12640,49.8,26.006,12951
1897885737,0.634767,2.223,122.085,0.142886,0.00429463,0.953924,-0.475967,0.319713,0.0875442,0.0305551,0.364977,0.304419,0,2.7,0,12640,49.8,26.006,12951
1897986090,0.634767,2.223,122.092,0.272329,0.00199969,0.955671,-0.671771,0.450655,0.0346369,0.00798564,2.60303,-0.369895,0,2.7,0,12640,49.8,26.006,12951
1898086476,0.634767,2.223,122.094,0.320586,0.000765532,0.956132,-0.944636,0.645024,-0.0115766,0.0151427,3.18204,1.16785,0,2.7,0,12640,49.8,26.006,12951
1898186831,0.634767,2.223,122.116,0.306826,0.00034523,0.956237,-1.25624,0.861176,-0.00760236,0.0198693,3.48348,1.06761,0,2.7,0,12640,49.8,26.006,12951
1898287150,0.634767,2.223,122.115,0.254892,0.000381686,0.956301,-1.53888,1.0579,-0.0051634,0.0206942,3.18479,0.759467,0,2.7,0,12640,49.8,26.006,12951
1898387547,0.634767,2.223,122.1,0.195857,0.00203364,0.956964,-1.76502,1.224,-0.000738598,0.0877416,2.49697,0.767545,0,2.7,0,12640,49.788,26.05,12969.8
1898487900,0.634767,2.223,122.1,0.147131,0.00183783,0.956735,-1.93812,1.34096,-0.00148952,0.014239,1.90238,0.309774,0,2.7,0,12640,49.788,26.05,12969.8
1898588306,0.634767,2.223,122.102,0.107753,0.000739642,0.956589,-2.07263,1.44122,0.00857762,0.126909,1.47682,0.57228,0,2.7,0,12640,49.788,26.05,12969.8
1898688649,0.634767,2.223,122.094,0.0738207,0.00150078,0.956426,-2.17707,1.51393,0.00692069,0.0380606,1.09606,0.0739556,0,2.7,0,12640,49.788,26.05,12969.8
1898789024,0.634767,2.223,122.077,0.0487842,0.000690691,0.956301,-2.25474,1.56898,0.00418349,0.0299833,0.765642,0.226927,0,2.7,0,12640,49.788,26.05,12969.8
1898889388,0.634767,2.223,122.068,0.0290425,0.00102193,0.956258,-2.31072,1.61515,0.00709962,0.0443473,0.571993,-0.0746858,0,2.7,0,12640,49.788,26.05,12969.8
1898989753,0.634767,2.223,122.067,0.0140022,0.00138778,0.956183,-2.35195,1.64618,0.00302055,0.0398714,0.38404,0.126777,0,2.7,0,12640,49.788,26.05,12969.8
1899090108,0.634767,2.223,122.07,0.00485869,0.000745424,0.956227,-2.37447,1.65962,0.0121735,0.0554699,0.112274,0.0346349,0,2.7,0,12640,49.788,26.05,12969.8
1899190469,0.634767,2.223,122.076,-0.000827933,0.000820866,0.956023,-2.39084,1.66857,0.018846,-0.0185446,0.0931111,0.0343494,0,2.7,0,12640,49.788,26.05,12969.8
1899290845,0.634767,2.223,122.082,-0.00521639,-0.000248827,0.956083,-2.39437,1.67606,0.0218531,0.118122,0.0517988,0.228112,0,2.7,0,12640,49.788,26.05,12969.8
1899391247,0.634767,2.223,122.096,-0.00604708,0.000154583,0.956059,-2.4007,1.68052,0.0217539,0.00289682,0.110904,-0.0359924,0,2.7,0,12640,49.787,26.177,13032.7
1899491622,0.634767,2.223,122.103,-0.00772515,-0.000488664,0.956029,-2.40418,1.67987,0.0197771,0.00981081,0.0528792,-0.0462342,0,2.7,0,12640,49.787,26.177,13032.7
1899591980,0.634767,2.223,122.107,-0.00929568,-0.000579977,0.956103,-2.40523,1.68966,0.0180327,0.0642424,0.0728573,-0.0835226,0,2.7,0,12640,49.787,26.177,13032.7
1899692351,0.634767,2.223,122.109,-0.00973576,-0.000521515,0.956279,-2.39822,1.6909,0.0177314,0.0639656,0.0322955,0.144921,0,2.8,0,12640,49.787,26.177,13032.7
1899794020,0.634767,2.223,122.111,-0.00243034,-3.40041e-05,0.956281,-2.39293,1.69194,0.00949333,0.0639615,0.0647625,-0.150092,0,2.8,0,12640,49.787,26.177,13032.7
1899897343,0.634767,2.223,122.104,0.00797837,0.00148619,0.956104,-2.39557,1.70535,-0.000357999,0.115622,0.212533,0.142684,0,2.8,0,12640,49.787,26.177,13032.7
1899999497,0.634767,2.223,122.095,0.00916916,0.00367197,0.956422,-2.40354,1.7154,0.00498696,0.0240005,0.211755,0.0640577,0,2.8,0,12640,49.787,26.177,13032.7
1900099839,0.634766,2.223,122.095,0.00805633,0.00518343,0.956521,-2.42224,1.72953,-0.000919169,0.0313466,0.306977,-0.158587,0,2.8,0,12640,49.787,26.177,13032.7
1900200129,0.634766,2.223,122.087,0.00489817,0.00550344,0.956466,-2.43664,1.72926,0.00153876,-0.0394103,0.17399,0.0569398,0,2.8,0,12640,49.787,26.177,13032.7
1900300485,0.634766,2.223,122.082,0.00213891,0.00450197,0.956469,-2.44916,1.73448,-0.000858465,0.0468833,0.203263,0.158111,0,2.8,0,12640,49.787,26.177,13032.7
1900400863,0.634766,2.223,122.082,0.000364626,0.00522455,0.956525,-2.44636,1.7335,0.0126833,0.0260413,0.0296638,0.0847454,0,2.8,0,12640,49.779,26.49,13186.5
1900501223,0.634766,2.223,122.083,0.0015056,0.00433321,0.956318,-2.44705,1.73169,0.0123895,0.0180427,0.036368,-0.0523491,0,2.8,0,12640,49.779,26.49,13186.5
1900601590,0.634766,2.223,122.095,0.00110586,0.00294453,0.956181,-2.44703,1.73344,0.0187369,0.0837044,0.0468468,0.0820907,0,2.8,0,12640,49.779,26.49,13186.5
1900701967,0.634766,2.223,122.113,-5.66849e-05,0.0017002,0.956121,-2.45314,1.73055,0.0229779,-0.0230043,0.0845429,-0.19677,0,2.8,0,12640,49.779,26.49,13186.5
1900802361,0.634766,2.223,122.129,-0.00233602,-3.23243e-05,0.956269,-2.4558,1.73273,0.0192925,0.0395139,0.0711185,-0.115946,0,2.8,0,12640,49.779,26.49,13186.5
1900902731,0.634766,2.223,122.14,-0.0036004,-0.000732738,0.956416,-2.46107,1.74054,0.0186203,0.0565691,0.0986971,-0.0881102,0,2.8,0,12640,49.779,26.49,13186.5
1901003064,0.634766,2.223,122.149,-0.00481259,-0.000688473,0.956697,-2.4666,1.74517,0.0126775,0.0386015,0.112305,-0.197581,0,2.8,0,12640,49.779,26.49,13186.5
1901103443,0.634766,2.223,122.148,-0.00587782,-0.000216198,0.956816,-2.46421,1.747,0.0116984,0.0682431,-0.00743081,-0.306084,0,2.8,0,12640,49.779,26.49,13186.5
1901203769,0.634766,2.223,122.14,-0.00569123,0.000538153,0.956537,-2.46476,1.74005,-0.00490028,-3.53268e-05,0.00598626,0.0430454,0,2.8,0,12640,49.779,26.49,13186.5
1901304108,0.634766,2.223,122.129,-0.00599857,0.00028592,0.956392,-2.46938,1.74277,-0.00952829,0.050512,0.0187973,-0.012334,0,2.8,0,12640,49.779,26.49,13186.5
1901404465,0.634766,2.223,122.116,-0.00669992,0.000297439,0.956197,-2.46947,1.74048,-0.0196774,0.0321088,-0.0473368,-0.00294698,0,2.8,0,12640,49.779,26.49,13186.5
1901504822,0.634766,2.223,122.109,-0.00587719,9.82727e-05,0.956123,-2.46671,1.73791,-0.0133655,0.0298257,-0.0620749,0.123662,0,2.8,0,12640,49.777,25.657,12771.3
1901605239,0.634766,2.223,122.104,-0.00481842,0.000210615,0.956169,-2.46514,1.73643,-0.0114997,0.0283472,0.0235742,0.0679065,0,2.8,0,12640,49.777,25.657,12771.3
1901705666,0.634766,2.223,122.105,-0.00657103,-0.000818327,0.956028,-2.48004,1.73826,-0.00142428,0.0338528,0.170171,0.162471,0,1,0,12640,49.777,25.657,12771.3
1901807107,0.634766,2.223,122.106,-0.0233228,-0.00137693,0.95753,-2.47893,1.73796,-0.000482673,0.060809,0.019818,-0.0456697,0,1,0,12640,49.777,25.657,12771.3
1901913204,0.634766,2.223,122.113,-0.175979,0.000652723,0.956638,-2.43541,1.71129,0.0424796,0.0666811,-0.866071,0.0704597,0,1,0,12640,49.777,25.657,12771.3
1902013712,0.634766,2.223,122.118,-0.266947,-0.00172704,0.95663,-2.26834,1.59564,0.00300305,0.0769427,-2.1309,0.0779605,0,1,0,12640,49.777,25.657,12771.3
1902114111,0.634766,2.223,122.122,-0.305162,-0.00216479,0.95641,-2.03729,1.43887,-0.0179703,0.079142,-2.71087,0.666208,0,1,0,12640,49.777,25.657,12771.3
1902214442,0.634766,2.223,122.123,-0.293761,-0.00228124,0.95635,-1.77786,1.26017,-0.0158964,0.0593911,-2.92508,0.982132,0,1,0,12640,49.777,25.657,12771.3
1902314838,0.634766,2.223,122.127,-0.250979,-0.00261901,0.956728,-1.54903,1.09904,-0.00389861,0.017914,-2.57376,0.717826,0,1,0,12640,49.777,25.657,12771.3
1902415231,0.634766,2.223,122.125,-0.204867,-0.00276257,0.956759,-1.35822,0.972085,-0.00156286,0.0562573,-2.11149,0.450319,0,1,0,12640,49.776,25.527,12706.3
1902517142,0.634766,2.223,122.121,-0.163753,-0.00122625,0.956475,-1.21811,0.868285,-0.00148807,0.0610878,-1.64049,0.150459,0,1,0,12640,49.776,25.527,12706.3
1902617543,0.634766,2.223,122.125,-0.129188,-1.23084e-05,0.956122,-1.10884,0.786778,-0.00517492,-0.00942597,-1.2499,0.193713,0,1,0,12640,49.776,25.527,12706.3
1902718303,0.634766,2.223,122.137,-0.100369,-0.000382312,0.956219,-1.02407,0.718827,-0.000118364,0.00749785,-0.986402,0.0491485,0,1,0,12640,49.776,25.527,12706.3
1902821326,0.634766,2.223,122.147,-0.0795312,-0.000625629,0.956179,-0.961945,0.679462,0.0108434,0.0718578,-0.664893,0.111449,0,1,0,12640,49.776,25.527,12706.3
1902921703,0.634766,2.223,122.161,-0.0642146,-0.00053411,0.956141,-0.914043,0.640142,0.00176096,-0.0244392,-0.539152,-0.1701,0,1,0,12640,49.776,25.527,12706.3
1903022053,0.634766,2.223,122.171,-0.0538593,-0.000491237,0.956229,-0.88238,0.613367,-0.00219829,0.017527,-0.379788,-0.250118,0,1,0,12640,49.776,25.527,12706.3
1903122405,0.634766,2.223,122.175,-0.0465164,-0.000854982,0.956245,-0.8601,0.592443,-0.00779462,0.0152418,-0.26268,0.0689899,0,1,0,12640,49.776,25.527,12706.3
1903222759,0.634766,2.223,122.175,-0.0414038,-0.000520851,0.956478,-0.849185,0.590151,-0.00489935,0.0814497,-0.130113,-0.0866139,0,1,0,12640,49.776,25.527,12706.3
1903323132,0.634766,2.223,122.179,-0.0389808,0.00128927,0.956399,-0.8308,0.588601,-0.00678822,0.0898479,-0.186545,-0.229027,0,1,0,12640,49.776,25.527,12706.3
1903423467,0.634766,2.223,122.183,-0.0373697,0.00207747,0.956441,-0.829235,0.587561,-0.0100885,0.0607645,-0.0762719,-0.0383639,0,1,0,12640,49.776,25.527,12706.3
1903524432,0.634766,2.223,122.19,-0.0377725,0.00223901,0.956323,-0.830375,0.581635,-0.0132695,-0.0548945,-0.067778,-0.123655,0,1,0,12640,49.773,25.036,12461.2
1903626218,0.634765,2.223,122.195,-0.0386605,0.000797617,0.956382,-0.830381,0.58231,-0.0183389,0.0700387,-0.079466,0.0190588,0,1,0,12640,49.773,25.036,12461.2
1903726628,0.634765,2.223,122.185,-0.0385134,0.000685121,0.956189,-0.823915,0.583866,-0.025174,0.103485,-0.124374,-0.188055,0,-3.2,0,12640,49.773,25.036,12461.2
1903827007,0.634765,2.223,122.179,-0.0525781,0.00202917,0.95785,-0.821738,0.587653,-0.0293164,0.0667305,-0.110809,-0.0594472,0,-3.2,0,12640,49.773,25.036,12461.2
1903927350,0.634765,2.223,122.175,-0.181582,0.00348694,0.956581,-0.809604,0.570753,9.92976e-06,-0.0380333,-0.517891,0.0991308,0,-3.2,0,12640,49.773,25.036,12461.2
1904027722,0.634765,2.223,122.168,-0.30787,0.00122324,0.955926,-0.673606,0.465521,-0.050455,0.00527906,-2.05056,0.140554,0,-3.2,0,12640,49.773,25.036,12461.2
1904128105,0.634765,2.223,122.147,-0.390198,0.00193414,0.955489,-0.4207,0.292559,-0.0720829,0.0908919,-3.04114,1.2133,0,-3.2,0,12640,49.773,25.036,12461.2
1904228456,0.634765,2.223,122.125,-0.429507,0.00438185,0.954346,-0.0978808,0.0610732,-0.065841,0.0172431,-3.61266,1.88037,0,-3.2,0,12640,49.773,25.036,12461.2
1904328796,0.634765,2.223,122.098,-0.440715,0.00515109,0.95428,0.253541,-0.184147,-0.0470159,0.0868733,-3.89647,1.94495,0,-3.2,0,12640,49.773,25.036,12461.2
1904429158,0.634765,2.223,122.072,-0.43813,0.00608618,0.954057,0.592579,-0.43505,-0.0363206,-0.0025514,-3.70756,2.07586,0,-3.2,0,12640,49.773,25.036,12461.2
1904529550,0.634765,2.223,122.064,-0.434208,0.00624172,0.954278,0.99397,-0.731588,-0.0185817,-0.0356348,-3.61222,1.99429,0,-3.2,0,12640,49.761,25.749,12813
1904629963,0.634765,2.223,122.066,-0.424549,0.00421023,0.954687,1.316,-0.967703,0.00182583,-0.0694602,-3.55506,1.61334,0,-3.2,0,12640,49.761,25.749,12813
1904730330,0.634765,2.223,122.069,-0.389062,0.00166249,0.955777,1.62927,-1.19543,0.0157481,-0.0185956,-3.30872,1.73991,0,-3.2,0,12640,49.761,25.749,12813
1904830688,0.634765,2.223,122.073,-0.33734,-8.71122e-05,0.955904,1.90014,-1.38508,0.0445162,0.0756684,-2.85657,1.35907,0,-3.2,0,12640,49.761,25.749,12813
1904931036,0.634766,2.223,122.093,-0.283368,-0.00386374,0.956148,2.10755,-1.54102,0.0509769,-0.0229585,-2.3455,0.562708,0,-3.2,0,12640,49.761,25.749,12813
1905031379,0.634766,2.223,122.11,-0.238205,-0.00652193,0.956277,2.27058,-1.65485,0.044001,0.0553913,-1.77621,0.384845,0,-3.2,0,12640,49.761,25.749,12813
1905131725,0.634766,2.223,122.12,-0.203714,-0.00752183,0.956676,2.40057,-1.73809,0.0390173,0.117554,-1.41947,0.0667193,0,-3.2,0,12640,49.761,25.749,12813
1905232080,0.634766,2.223,122.127,-0.174927,-0.00808886,0.95704,2.50602,-1.8037,0.0309267,0.111389,-1.13236,-0.00728939,0,-3.2,0,12640,49.761,25.749,12813
1905332426,0.634766,2.223,122.136,-0.152611,-0.00810283,0.957226,2.58662,-1.85088,0.0197269,0.10883,-0.833166,-0.0293553,0,-3.2,0,12640,49.761,25.749,12813
1905432793,0.634766,2.223,122.142,-0.136284,-0.00775408,0.95703,2.64446,-1.89259,0.0111582,0.0703244,-0.647118,-0.0866556,0,-3.2,0,12640,49.761,25.749,12813
1905533109,0.634766,2.223,122.14,-0.125457,-0.00831412,0.956818,2.6847,-1.91929,0.000604654,0.0818532,-0.464112,0.0597701,0,-3.2,0,12640,49.761,25.749,12813
1905633382,0.634766,2.223,122.134,-0.118884,-0.0074924,0.956603,2.71837,-1.93581,0.00139279,0.0748009,-0.389778,0.00633232,0,-3.2,0,12640,49.761,25.749,12813
1905733778,0.634766,2.223,122.128,-0.113785,-0.00611198,0.956502,2.74305,-1.95216,-0.0107368,0.0662656,-0.379427,0.0694192,0,-1.8,0,12640,49.761,25.749,12813
1905834140,0.634766,2.223,122.12,-0.0801701,-0.00452563,0.953985,2.77083,-1.96972,-0.00775966,0.0620806,-0.481554,0.570101,0,-1.8,0,12640,49.761,25.749,12813
1905934510,0.634766,2.223,122.113,0.0190932,-0.00294792,0.954806,2.74661,-1.95417,0.0303831,0.0469493,0.404367,0.0903584,0,-1.8,0,12640,49.761,25.749,12813
1906034849,0.634766,2.223,122.109,0.0917462,-0.00510312,0.955061,2.62661,-1.87644,0.0080533,0.00972022,1.3812,0.106574,0,-1.8,0,12640,49.739,26.106,12984.9
1906135184,0.634766,2.223,122.101,0.123185,-0.00938836,0.954875,2.46189,-1.7551,0.0080652,0.111097,1.90587,0.30654,0,-1.8,0,12640,49.739,26.106,12984.9
1906235592,0.634766,2.223,122.098,0.116192,-0.011557,0.954897,2.28502,-1.61997,-0.0116253,0.120283,2.05689,0.0208243,0,-1.8,0,12640,49.739,26.106,12984.9
1906335942,0.634766,2.223,122.095,0.092722,-0.00975489,0.955254,2.13175,-1.50136,-0.0210497,0.17146,1.70695,0.207816,0,-1.8,0,12640,49.739,26.106,12984.9
1906437602,0.634766,2.223,122.091,0.0612426,-0.00531323,0.955076,1.99562,-1.39363,-0.0223713,0.102559,1.44792,0.212568,0,-1.8,0,12640,49.739,26.106,12984.9
1906538015,0.634766,2.223,122.093,0.0287024,-0.00219617,0.955314,1.8793,-1.31351,-0.0226857,-0.00987676,1.15277,-0.0800987,0,-1.8,0,12640,49.739,26.106,12984.9
1906638329,0.634766,2.223,122.096,0.00276312,0.00072533,0.955091,1.79014,-1.25815,-0.0180942,-0.0282153,0.831248,0.0561283,0,-1.8,0,12640,49.739,26.106,12984.9
1906739050,0.634766,2.223,122.09,-0.0246624,0.0023905,0.955752,1.7112,-1.20843,-0.0202048,-0.0445295,0.667741,-0.138127,0,-1.8,0,12640,49.739,26.106,12984.9
1906846018,0.634766,2.223,122.083,-0.0448942,0.00190139,0.956433,1.65775,-1.17882,-0.0217125,-0.0292351,0.353712,0.130704,0,-1.8,0,12640,49.739,26.106,12984.9
1906946365,0.634766,2.223,122.081,-0.0568628,0.00283425,0.956032,1.6322,-1.15824,-0.0077964,0.0292212,0.124894,0.081473,0,-1.8,0,12640,49.739,26.106,12984.9
1907046733,0.634766,2.223,122.084,-0.0642064,0.00363409,0.956079,1.60472,-1.14735,0.00431716,-0.0805056,0.0987961,0.128821,0,-1.8,0,12640,49.701,27.544,13689.6
1907147093,0.634766,2.223,122.086,-0.0656265,0.00173177,0.956317,1.5923,-1.13887,0.0183854,-0.0455743,0.0267026,0.0491817,0,-1.8,0,12640,49.701,27.544,13689.6
1907247504,0.634766,2.223,122.088,-0.0704563,-0.00231649,0.956173,1.58381,-1.13456,0.0179968,-0.0250309,-0.0558569,0.0232298,0,-1.8,0,12640,49.701,27.544,13689.6
1907347850,0.634766,2.223,122.081,-0.07662,-0.00354585,0.956217,1.58365,-1.1348,0.0145036,-0.0173512,-0.0914331,0.068326,0,-1.8,0,12640,49.701,27.544,13689.6
1907448230,0.634766,2.223,122.075,-0.0803108,-0.00264431,0.955613,1.58747,-1.13983,0.00746895,-0.042108,-0.0871651,0.0223896,0,-1.8,0,12640,49.701,27.544,13689.6
1907548587,0.634766,2.223,122.07,-0.0824724,-0.00149441,0.955466,1.60364,-1.14627,-0.000375904,0.0668468,-0.23217,-0.0430386,0,-1.8,0,12640,49.701,27.544,13689.6
1907648963,0.634766,2.223,122.07,-0.0792387,0.000780914,0.955633,1.61286,-1.15572,0.00181695,-0.014111,-0.143095,0.0596056,0,-1.8,0,12640,49.701,27.544,13689.6
1907749352,0.634766,2.223,122.077,-0.069715,0.00342517,0.955308,1.62624,-1.16898,0.0185968,-0.0325069,-0.0485162,0.208322,0,-3.5,0,12640,49.701,27.544,13689.6
1907849704,0.634766,2.223,122.082,-0.077664,0.00476294,0.956742,1.62346,-1.17221,0.0245905,-0.0163409,0.111134,0.49816,0,-3.5,0,12640,49.701,27.544,13689.6
1907950065,0.634766,2.223,122.089,-0.183465,0.00643016,0.955547,1.65701,-1.19944,0.0407602,-0.0285363,-0.716501,-0.457244,0,-3.5,0,12640,49.701,27.544,13689.6
1908050461,0.634766,2.223,122.097,-0.274173,0.00429509,0.95489,1.78171,-1.30819,-0.0184698,-0.148349,-1.77179,-0.043233,0,-3.5,0,12640,49.701,27.544,13689.6
1908150830,0.634767,2.223,122.094,-0.323093,0.000277638,0.95565,1.98478,-1.44757,-0.0265837,-0.00203964,-2.32093,0.988535,0,-3.5,0,12640,49.76,26.498,13185.4
1908251159,0.634767,2.223,122.1,-0.322273,-0.00266072,0.956814,2.2135,-1.60213,0.0044104,0.115952,-2.37426,1.34831,0,-3.5,0,12640,49.76,26.498,13185.4
1908351460,0.634767,2.223,122.098,-0.290942,-0.00551369,0.958147,2.41853,-1.7384,0.0192065,0.0913021,-2.19076,0.761319,0,-3.5,0,12640,49.76,26.498,13185.4
1908451830,0.634767,2.223,122.094,-0.253265,-0.00815256,0.958589,2.58609,-1.84761,0.0191312,0.0928348,-1.79557,0.745846,0,-3.5,0,12640,49.76,26.498,13185.4
1908552195,0.634767,2.223,122.095,-0.222477,-0.00873214,0.958148,2.72751,-1.93195,0.026879,0.0970398,-1.4734,0.542455,0,-3.5,0,12640,49.76,26.498,13185.4
1908653411,0.634767,2.223,122.107,-0.189886,-0.00972417,0.958323,2.84507,-2.0037,0.0335571,0.14781,-1.26636,0.166443,0,-3.5,0,12640,49.76,26.498,13185.4
1908754625,0.634767,2.223,122.119,-0.166286,-0.00918806,0.958047,2.93846,-2.05048,0.0337507,0.178282,-0.921171,0.137372,0,-3.5,0,12640,49.76,26.498,13185.4
1908854983,0.634767,2.223,122.134,-0.142453,-0.0102241,0.958203,3.0049,-2.08766,0.0250835,0.127555,-0.595416,0.13973,0,-3.5,0,12640,49.76,26.498,13185.4
1908955303,0.634767,2.223,122.15,-0.125518,-0.00925698,0.957823,3.06141,-2.11376,0.0315763,0.151014,-0.518921,-0.0822976,0,-3.5,0,12640,49.76,26.498,13185.4
1909055672,0.634767,2.223,122.168,-0.110601,-0.0107842,0.957708,3.09531,-2.1233,0.0231684,0.13798,-0.218776,-0.0384,0,-3.5,0,12640,49.76,26.498,13185.4
1909156068,0.634767,2.223,122.174,-0.103209,-0.00899977,0.957521,3.13125,-2.12752,0.0124458,0.222099,-0.238134,0.0373127,0,-3.5,0,12640,49.73,24.92,12392.7
1909256417,0.634767,2.223,122.175,-0.0982419,-0.00359795,0.955976,3.16387,-2.12728,0.00711004,0.188022,-0.245899,-0.138999,0,-3.5,0,12640,49.73,24.92,12392.7
1909356752,0.634767,2.223,122.175,-0.0934398,0.00131298,0.955296,3.1873,-2.13654,-0.00908566,0.0806772,-0.223326,-0.0198512,0,-3.5,0,12640,49.73,24.92,12392.7
1909457104,0.634767,2.223,122.169,-0.0874532,0.0055127,0.955063,3.20441,-2.145,-0.0158481,0.0747577,-0.148181,-0.0285622,0,-3.5,0,12640,49.73,24.92,12392.7
1909557464,0.634767,2.223,122.163,-0.0836979,0.00749061,0.95496,3.21004,-2.15055,-0.0204477,0.0693619,-0.11069,-0.0757712,0,-3.5,0,12640,49.73,24.92,12392.7
1909657818,0.634767,2.223,122.147,-0.0810133,0.0110013,0.954536,3.21126,-2.15693,-0.0237399,-0.0624351,-0.0471909,0.198325,0,-3.5,0,12640,49.73,24.92,12392.7
1909758221,0.634767,2.223,122.135,-0.0778894,0.0127198,0.954424,3.21032,-2.16738,-0.0146334,-0.0766701,-0.0599714,0.22317,0,3,0,12640,49.73,24.92,12392.7
1909858639,0.634767,2.223,122.132,-0.0396146,0.0114646,0.95124,3.21218,-2.17914,-0.0127622,-0.0451098,-0.156194,0.485063,0,3,0,12640,49.73,24.92,12392.7
1909959059,0.634767,2.223,122.125,0.168791,0.00849958,0.95474,3.16226,-2.15135,0.0716497,-0.0085122,0.903559,0.654828,0,3,0,12640,49.73,24.92,12392.7
1910059434,0.634767,2.223,122.133,0.32542,0.0175624,0.959545,2.90854,-1.98079,0.0598472,-0.0455684,3.19317,-0.0173975,0,3,0,12640,49.73,24.92,12392.7
1910159797,0.634767,2.223,122.137,0.41661,0.0324304,0.966431,2.54482,-1.75283,-0.0338249,-0.146444,3.95374,1.84281,0,3,0,12624,49.726,25.533,12696.5
1910260128,0.634767,2.223,122.129,0.46074,0.0446896,0.973019,2.07789,-1.46696,-0.0241428,-0.317669,4.97292,1.95936,0,3,0,12624,49.726,25.533,12696.5
1910360492,0.634768,2.223,122.127,0.478606,0.0498235,0.975547,1.59666,-1.18927,-0.0750357,-0.384743,5.04346,2.24196,0,3,0,12624,49.726,25.533,12696.5
1910462744,0.634768,2.223,122.123,0.486045,0.0500344,0.976649,1.08942,-0.893839,-0.100417,-0.406961,5.21274,2.39501,0,3,0,12624,49.726,25.533,12696.5
1910569363,0.634768,2.223,122.089,0.483486,0.0365764,0.973135,0.564863,-0.596731,-0.103755,-0.397371,4.75861,3.70727,0,3,0,12624,49.726,25.533,12696.5
1910670710,0.634768,2.223,122.056,0.460783,0.0177362,0.967474,-0.0514481,-0.224253,-0.0885387,-0.255089,4.93967,2.57464,0,3,0,12624,49.726,25.533,12696.5
1910771028,0.634768,2.223,122.03,0.432927,-0.00414279,0.959502,-0.525714,0.0977187,-0.0579495,-0.0510262,4.66348,2.94165,0,3,0,12624,49.726,25.533,12696.5
1910871377,0.634768,2.223,122.007,0.388597,-0.0235819,0.952479,-0.957677,0.425605,-0.0066609,0.234055,4.51488,2.32905,0,3,0,12624,49.726,25.533,12696.5
1910971779,0.634767,2.223,121.998,0.306497,-0.0312413,0.950054,-1.31292,0.717363,0.0346926,0.312686,3.76478,1.63127,0,3,0,12624,49.726,25.533,12696.5
1911072109,0.634767,2.223,121.992,0.230744,-0.0344137,0.949931,-1.56694,0.943407,0.0483067,0.358483,2.85699,0.781053,0,3,0,12624,49.726,25.533,12696.5
1911172448,0.634767,2.223,122.001,0.169604,-0.034356,0.950581,-1.75238,1.12069,0.0690619,0.353892,2.12668,0.576122,0,3,0,12508,49.802,24.975,12438
1911272799,0.634767,2.223,122.011,0.124246,-0.027684,0.951953,-1.88011,1.26103,0.0760057,0.331551,1.54293,0.0828532,0,3,0,12508,49.802,24.975,12438
1911373134,0.634767,2.223,122.025,0.0931964,-0.020293,0.953368,-1.96749,1.36563,0.0715498,0.302705,1.08755,0.0328614,0,3,0,12508,49.802,24.975,12438
1911473489,0.634767,2.223,122.045,0.0720493,-0.0141794,0.954041,-2.03748,1.44916,0.0743144,0.239293,0.912335,-0.327852,0,3,0,12508,49.802,24.975,12438
1911573809,0.634767,2.223,122.066,0.0565969,-0.00852523,0.955021,-2.09193,1.51461,0.0690309,0.175674,0.739133,-0.172068,0,3,0,12508,49.802,24.975,12438
1911674159,0.634767,2.223,122.09,0.0478841,-0.00461224,0.955541,-2.14101,1.56779,0.0670074,0.0807123,0.6963,-0.373709,0,3,0,12508,49.802,24.975,12438
1911774589,0.634767,2.223,122.1,0.0414675,-0.00133496,0.955794,-2.16849,1.60315,0.0474896,0.0613498,0.467219,-0.221719,0,1.6,0,12508,49.802,24.975,12438
1911874951,0.634767,2.223,122.099,0.0143437,0.00240433,0.958001,-2.19988,1.63627,0.0435098,-0.0102527,0.549304,0.0887608,0,1.6,0,12508,49.802,24.975,12438
1911975340,0.634767,2.223,122.097,-0.0783353,0.00730895,0.956574,-2.18828,1.63857,0.0619782,-0.0738823,-0.157857,-0.0656025,0,1.6,0,12508,49.802,24.975,12438
1912075749,0.634767,2.223,122.101,-0.156556,0.00826661,0.955847,-2.0903,1.57725,0.0268616,0.0428524,-1.09101,-0.0413481,0,1.6,0,12508,49.802,24.975,12438
1912176119,0.634767,2.223,122.093,-0.191265,0.00827773,0.955812,-1.93549,1.47427,0.0131055,-0.0225961,-1.62788,0.343033,0,1.6,0,12508,49.87,23.945,11941.4
1912276443,0.634767,2.223,122.084,-0.185431,0.00859549,0.956109,-1.76249,1.35063,0.00668862,-0.0816638,-1.85416,0.380066,0,1.6,0,12508,49.87,23.945,11941.4
1912376801,0.634767,2.223,122.076,-0.155577,0.00924337,0.956526,-1.601,1.23936,0.0070359,0.03915,-1.5999,0.488017,0,1.6,0,12508,49.87,23.945,11941.4
1912477144,0.634767,2.223,122.068,-0.119462,0.00958247,0.956475,-1.47723,1.14929,0.0130543,-0.0327667,-1.23987,0.180743,0,1.6,0,12508,49.87,23.945,11941.4
1912577536,0.634767,2.223,122.062,-0.0893152,0.0105746,0.956301,-1.38353,1.0726,0.0104589,-0.09198,-0.961411,0.15733,0,1.6,0,12508,49.87,23.945,11941.4
1912677894,0.634767,2.223,122.051,-0.0627915,0.0106541,0.956331,-1.31383,1.02034,0.0192605,-0.0643492,-0.611849,0.0820895,0,1.6,0,12508,49.87,23.945,11941.4
1912778243,0.634767,2.223,122.054,-0.0422511,0.0110518,0.956397,-1.26552,0.97129,0.0194102,-0.108463,-0.424325,-0.130173,0,1.6,0,12508,49.87,23.945,11941.4
1912878595,0.634767,2.223,122.064,-0.0276349,0.0101523,0.956467,-1.23652,0.944057,0.0268665,-0.0306985,-0.161399,0.173295,0,1.6,0,12508,49.87,23.945,11941.4
1912978882,0.634767,2.223,122.067,-0.0163993,0.00919542,0.956497,-1.22141,0.928212,0.0293175,-0.0698794,0.0354166,-0.0625719,0,1.6,0,12508,49.87,23.945,11941.4
1913079178,0.634767,2.223,122.07,-0.00929784,0.00757079,0.956533,-1.21678,0.909242,0.0290229,-0.0749263,0.061491,0.184262,0,1.6,0,12508,49.87,23.945,11941.4
1913179532,0.634767,2.223,122.071,-0.00496637,0.0078577,0.956484,-1.21209,0.903118,0.02791,-0.00200823,0.120306,-0.296977,0,1.6,0,12508,49.675,27.361,13591.6
1913279941,0.634767,2.223,122.077,-0.00321262,0.0078133,0.95668,-1.22158,0.899057,0.0262779,-0.0396601,0.224924,0.0451277,0,1.6,0,12508,49.675,27.361,13591.6
1913380275,0.634767,2.223,122.082,-0.00253242,0.00593871,0.956739,-1.23255,0.89723,0.0328844,-0.00437272,0.159126,-0.17934,0,1.6,0,12508,49.675,27.361,13591.6
1913480624,0.634767,2.223,122.084,-0.00287122,0.00424662,0.956957,-1.23446,0.901915,0.0282683,0.0806646,0.0668673,0.0263345,0,1.6,0,12508,49.675,27.361,13591.6
1913580984,0.634767,2.223,122.083,-0.0029308,0.00522114,0.957286,-1.23173,0.90935,0.0240931,0.0834309,0.0466204,-0.213526,0,1.6,0,12508,49.675,27.361,13591.6
1913681335,0.634767,2.223,122.09,-0.0039432,0.00538526,0.957344,-1.23677,0.911735,0.011626,0.00777588,0.133936,-0.076188,0,1.6,0,12508,49.675,27.361,13591.6
1913781706,0.634767,2.223,122.086,-0.00550864,0.004132,0.957663,-1.23934,0.914208,0.0177449,0.032731,0.0408458,0.152223,0,-1.1,0,12508,49.675,27.361,13591.6
1913882090,0.634767,2.223,122.078,-0.0151738,0.00354313,0.959466,-1.24366,0.915809,0.015562,0.0274867,0.0477472,0.0642753,0,-1.1,0,12508,49.675,27.361,13591.6
1913982457,0.634767,2.223,122.078,-0.160109,0.00659005,0.958195,-1.24806,0.916346,0.0579037,0.00697231,-0.141635,0.17998,0,-1.1,0,12508,49.675,27.361,13591.6
1914082781,0.634767,2.223,122.083,-0.313455,0.00408299,0.957311,-1.09496,0.808752,0.0286509,0.0250329,-2.13578,-0.149029,0,-1.1,0,12508,49.675,27.361,13591.6
1914183151,0.634767,2.223,122.083,-0.408492,0.000601679,0.958331,-0.83625,0.615766,-0.0163801,-0.0784348,-3.12876,1.21915,0,-1.1,0,12508,49.675,27.361,13591.6
1914285389,0.634767,2.223,122.078,-0.426153,-5.20796e-05,0.959069,-0.494481,0.378134,-0.014721,-0.00276705,-3.71404,1.85109,0,-1.1,0,12508,49.751,24.783,12329.8
1914391401,0.634767,2.223,122.074,-0.385854,0.000966281,0.958705,-0.151224,0.129947,0.00733675,-0.064401,-3.69738,1.82562,0,-1.1,0,12508,49.751,24.783,12329.8
1914497634,0.634767,2.223,122.073,-0.317212,-1.15186e-05,0.958924,0.196068,-0.105054,0.0297827,0.139396,-3.06353,1.07355,0,-1.1,0,12508,49.751,24.783,12329.8
1914598004,0.634767,2.223,122.067,-0.257009,0.00126112,0.958263,0.407851,-0.248789,0.0366792,0.085101,-2.39911,0.387044,0,-1.1,0,12508,49.751,24.783,12329.8
1914698333,0.634767,2.223,122.08,-0.210594,-0.000509612,0.958413,0.576203,-0.356272,0.036326,0.170875,-1.81934,0.494547,0,-1.1,0,12508,49.751,24.783,12329.8
1914798696,0.634767,2.223,122.1,-0.167365,0.00205291,0.957394,0.70208,-0.438298,0.0476014,0.0831967,-1.33855,0.0441178,0,-1.1,0,12508,49.751,24.783,12329.8
1914899052,0.634767,2.223,122.113,-0.133247,0.00256942,0.956739,0.794902,-0.495827,0.0357515,0.116763,-0.945036,-0.0668663,0,-1.1,0,12508,49.751,24.783,12329.8
1914999361,0.634767,2.223,122.116,-0.110289,0.0038564,0.956874,0.866942,-0.539672,0.0211044,0.0590417,-0.714612,0.0104078,0,-1.1,0,12508,49.751,24.783,12329.8
1915099712,0.634767,2.223,122.122,-0.09206,0.00358173,0.956713,0.915584,-0.568854,0.0218578,0.083183,-0.427453,-0.029891,0,-1.1,0,12508,49.751,24.783,12329.8
1915200117,0.634767,2.223,122.132,-0.0786125,0.0051822,0.956398,0.946889,-0.592795,0.0199106,0.0395614,-0.331545,-0.240239,0,-1.1,0,12508,49.751,24.783,12329.8
1915300468,0.634767,2.223,122.135,-0.0699188,0.00590465,0.955943,0.969343,-0.60899,0.0137872,0.0387885,-0.224471,-0.0196871,0,-1.1,0,12508,49.757,23.978,11930.7
1915400829,0.634767,2.223,122.131,-0.0633062,0.00552874,0.955579,0.982851,-0.620381,0.00661378,0.0384157,-0.194724,-0.0513359,0,-1.1,0,12508,49.757,23.978,11930.7
1915501188,0.634767,2.223,122.134,-0.0607614,0.00332362,0.95572,0.986218,-0.631138,0.0112878,0.0157193,-0.0974677,-0.0149746,0,-1.1,0,12508,49.757,23.978,11930.7
1915601546,0.634767,2.223,122.133,-0.0623312,0.00199122,0.956316,0.990984,-0.630972,-0.00485771,0.0832602,-0.0958685,-0.147515,0,-1.1,0,12508,49.757,23.978,11930.7
1915701880,0.634767,2.223,122.127,-0.0619817,0.00089778,0.956431,0.993257,-0.635988,-0.00991084,0.0454705,-0.0587148,-0.0235341,0,-1.1,0,12508,49.757,23.978,11930.7
1915802299,0.634767,2.223,122.12,-0.0629589,0.00282069,0.956705,1.00332,-0.634055,-0.0116136,0.141344,-0.106227,-0.0596994,0,2.6,0,12508,49.757,23.978,11930.7
1915902669,0.634767,2.223,122.115,-0.0496156,0.00639131,0.9546,0.997366,-0.634046,-0.00669715,0.0409019,-0.0457365,0.276304,0,2.6,0,12508,49.757,23.978,11930.7
1916003026,0.634767,2.223,122.12,0.130977,0.00906256,0.955638,0.986728,-0.624071,0.0583066,0.105726,0.295939,0.370918,0,2.6,0,12508,49.757,23.978,11930.7
1916103337,0.634767,2.223,122.128,0.302415,0.00921968,0.958295,0.781428,-0.488622,0.0263577,0.00144004,2.61309,-0.0639992,0,2.6,0,12508,49.757,23.978,11930.7
1916203669,0.634767,2.223,122.127,0.404462,0.00880552,0.958849,0.455418,-0.263462,-0.0437134,0.0461577,3.81688,0.989357,0,2.6,0,12508,49.757,23.978,11930.7
1916304060,0.634767,2.223,122.127,0.457155,0.00943885,0.959834,0.0345193,0.0180561,-0.0743908,-0.0355774,4.51563,2.10507,0,2.6,0,12508,49.705,26.404,13124.1
1916404386,0.634767,2.223,122.136,0.4489,0.0117106,0.96026,-0.436813,0.336837,-0.0815209,-0.0724586,4.87821,2.48664,0,2.6,0,12508,49.705,26.404,13124.1
1916504720,0.634767,2.223,122.129,0.376973,0.0141263,0.960658,-0.88652,0.637439,-0.0423042,-0.048186,4.56107,2.32191,0,2.6,0,12508,49.705,26.404,13124.1
1916605071,0.634767,2.223,122.116,0.283219,0.0138642,0.959589,-1.24345,0.877111,-0.0236146,-0.0149171,3.66153,1.40785,0,2.6,0,12508,49.705,26.404,13124.1
1916705392,0.634767,2.223,122.109,0.197498,0.0112949,0.958702,-1.51523,1.05114,-0.000288081,-0.101476,2.72268,0.898857,0,2.6,0,12508,49.705,26.404,13124.1
1916805751,0.634767,2.223,122.107,0.131945,0.00780186,0.957908,-1.70651,1.1759,0.00706601,-0.0321562,1.8995,0.46533,0,2.6,0,12508,49.705,26.404,13124.1
1916906110,0.634767,2.223,122.101,0.0862335,0.00311373,0.957384,-1.83107,1.25934,0.0123358,0.032104,1.22189,0.134626,0,2.6,0,12508,49.705,26.404,13124.1
1917006442,0.634767,2.223,122.091,0.0563273,0.00050245,0.957111,-1.91822,1.32488,0.00754569,0.0419429,0.770008,-0.0367143,0,2.6,0,12508,49.705,26.404,13124.1
1917107879,0.634767,2.223,122.084,0.0358421,4.55007e-05,0.956798,-1.97121,1.37613,0.00652033,0.0852102,0.483586,0.219748,0,2.6,0,12508,49.705,26.404,13124.1
1917213074,0.634767,2.223,122.078,0.0242987,0.00149492,0.956723,-2.02371,1.42133,0.00380474,-0.00748469,0.388676,0.0341576,0,2.6,0,12508,49.705,26.404,13124.1
1917313407,0.634767,2.223,122.068,0.0181377,0.00111421,0.95677,-2.05575,1.4479,0.00419168,0.0546116,0.273265,0.165505,0,2.6,0,12508,49.764,23.293,11591.5
1917413782,0.634767,2.223,122.06,0.0133153,0.00238223,0.956951,-2.07781,1.46867,0.0155699,0.0191435,0.244428,0.0904549,0,2.6,0,12508,49.764,23.293,11591.5
1917514135,0.634767,2.223,122.062,0.0108836,0.00316043,0.95703,-2.09933,1.48142,0.0157569,-0.0248763,0.217045,-0.109597,0,2.6,0,12508,49.764,23.293,11591.5
1917614477,0.634766,2.223,122.066,0.0092385,0.00383163,0.957147,-2.11404,1.49254,0.0225212,0.00373811,0.149205,0.217248,0,2.6,0,12508,49.764,23.293,11591.5
1917714825,0.634766,2.223,122.068,0.00839976,0.00431786,0.95753,-2.12542,1.50496,0.0195644,0.0627576,0.192425,0.0378982,0,2.6,0,12508,49.764,23.293,11591.5
1917815252,0.634766,2.223,122.067,0.00774498,0.00516852,0.957541,-2.1262,1.51551,0.0288634,0.0790589,0.155536,0.022777,0,2.1,0,12508,49.764,23.293,11591.5
1917915595,0.634766,2.223,122.062,-0.00804612,0.00644873,0.95787,-2.12987,1.52665,0.0255815,0.0538889,0.239133,0.342226,0,2.1,0,12508,49.764,23.293,11591.5
1918015950,0.634766,2.223,122.062,-0.0510053,0.00793026,0.957293,-2.11181,1.51541,0.0404745,0.0298937,-0.255801,-0.0582512,0,2.1,0,12508,49.764,23.293,11591.5
1918116363,0.634766,2.223,122.058,-0.0685591,0.00789927,0.956821,-2.06373,1.48259,0.0209678,0.00956567,-0.476557,-0.0993484,0,2.1,0,12508,49.764,23.293,11591.5
1918216695,0.634766,2.223,122.057,-0.0724536,0.00905935,0.956638,-1.99971,1.43625,0.0239586,-0.0329256,-0.645603,0.136627,0,2.1,0,12508,49.764,23.293,11591.5
1918317022,0.634766,2.223,122.048,-0.0637511,0.0082723,0.95668,-1.94692,1.39606,0.0194713,0.00471393,-0.552699,-0.111399,0,2.1,0,12508,49.67,27.82,13818.2
1918417378,0.634766,2.223,122.042,-0.0520209,0.00799129,0.956535,-1.89823,1.36185,0.0152088,0.0328851,-0.481083,0.200786,0,2.1,0,12508,49.67,27.82,13818.2
1918517673,0.634766,2.223,122.044,-0.040887,0.00748258,0.956428,-1.86009,1.32772,0.0359398,-0.0246385,-0.372442,-0.0992161,0,2.1,0,12508,49.67,27.82,13818.2
1918618091,0.634766,2.223,122.045,-0.0301411,0.00614902,0.956342,-1.83204,1.31006,0.0315361,0.0674856,-0.203333,-0.0344625,0,2.1,0,12508,49.67,27.82,13818.2
1918719985,0.634766,2.223,122.05,-0.0216853,0.00653203,0.956074,-1.81562,1.29427,0.0270688,-0.0106439,-0.115159,-0.128939,0,2.1,0,12508,49.67,27.82,13818.2
1918820396,0.634766,2.223,122.06,-0.0172009,0.00649042,0.956122,-1.8035,1.28096,0.0321086,0.00739883,-0.0729583,0.0339124,0,2.1,0,12508,49.67,27.82,13818.2
1918920750,0.634766,2.223,122.064,-0.0128342,0.00673706,0.95604,-1.79083,1.27327,0.0368667,0.0453498,-0.0682113,0.0118258,0,2.1,0,12508,49.67,27.82,13818.2
1919021072,0.634766,2.223,122.06,-0.0101506,0.00674007,0.955883,-1.78698,1.26394,0.0306917,-0.0219758,-0.00785379,-0.0589838,0,2.1,0,12508,49.67,27.82,13818.2
1919121362,0.634766,2.223,122.059,-0.00715226,0.0059324,0.955841,-1.77892,1.2611,0.0317973,0.0584465,0.00264364,0.0339704,0,2.1,0,12508,49.67,27.82,13818.2
1919221711,0.634766,2.223,122.062,-0.00556018,0.00575024,0.955873,-1.77905,1.25944,0.0250507,0.0467085,0.0484974,0.0628268,0,2.1,0,12508,49.67,27.82,13818.2
1919322081,0.634766,2.223,122.062,-0.00562495,0.00456617,0.9558,-1.78116,1.2501,0.025919,-0.0163351,0.00343621,-0.033191,0,2.1,0,12508,49.645,26.142,12978.2
1919422455,0.634766,2.223,122.057,-0.00519841,0.00335652,0.955811,-1.78778,1.24713,0.0285939,-0.0282178,0.0985156,-0.331764,0,2.1,0,12508,49.645,26.142,12978.2
1919522802,0.634766,2.223,122.056,-0.0069502,0.00235435,0.955846,-1.80254,1.25106,0.0185876,-0.00841527,0.121098,0.0136685,0,2.1,0,12508,49.645,26.142,12978.2
1919623157,0.634766,2.223,122.057,-0.00964225,0.00178242,0.955928,-1.80422,1.24594,0.0215337,-0.00931223,0.0118642,0.0181206,0,2.1,0,12508,49.645,26.142,12978.2
1919723498,0.634766,2.223,122.046,-0.00974328,0.000935424,0.956001,-1.80608,1.24465,0.0191474,0.00865314,-0.0260812,0.0633911,0,2.1,0,12508,49.645,26.142,12978.2
1919823875,0.634766,2.223,122.03,-0.00811363,0.000377717,0.956184,-1.80461,1.24686,0.0187566,0.067064,0.0509526,0.0563907,0,-2.6,0,12508,49.645,26.142,12978.2
1919924278,0.634766,2.223,122.026,-0.0223328,0.000806708,0.957819,-1.80236,1.24398,0.0181776,-0.0165885,-0.0565532,0.106703,0,-2.6,0,12508,49.645,26.142,12978.2
1920024627,0.634766,2.223,122.034,-0.175108,0.00413779,0.956844,-1.78482,1.23001,0.0747258,0.0398529,-0.444766,0.308677,0,-2.6,0,12508,49.645,26.142,12978.2
1920124938,0.634766,2.223,122.047,-0.316672,0.00298191,0.955829,-1.61703,1.1096,0.0407515,0.0316944,-2.27307,0.0917304,0,-2.6,0,12508,49.645,26.142,12978.2
1920225316,0.634766,2.223,122.052,-0.403247,0.000927702,0.956113,-1.34056,0.914181,0.0159311,0.0633589,-3.25406,1.32929,0,-2.6,0,12508,49.645,26.142,12978.2
1920325661,0.634766,2.223,122.061,-0.445445,0.000787303,0.956033,-0.994902,0.684064,0.0120917,0.16253,-3.78895,1.67236,0,-2.6,0,12508,49.678,24.996,12417.5
1920426065,0.634766,2.223,122.072,-0.457764,0.00204139,0.955876,-0.611783,0.424868,0.0153787,0.121905,-4.08155,2.06654,0,-2.6,0,12508,49.678,24.996,12417.5
1920526413,0.634766,2.223,122.073,-0.453136,0.00334895,0.955537,-0.230478,0.158754,0.0246895,0.05566,-4.01724,2.08236,0,-2.6,0,12508,49.678,24.996,12417.5
1920626770,0.634766,2.223,122.071,-0.444645,0.00403837,0.95545,0.142587,-0.106883,0.0269883,0.0133369,-4.095,1.74039,0,-2.6,0,12508,49.678,24.996,12417.5
1920727148,0.634766,2.223,122.076,-0.438011,0.00340434,0.95577,0.502436,-0.359767,0.0313943,0.0601271,-3.87365,1.79679,0,-2.6,0,12508,49.678,24.996,12417.5
1920827506,0.634766,2.223,122.083,-0.410957,0.000652984,0.956978,0.848889,-0.598177,0.0319059,0.104394,-3.73987,1.64508,0,-2.6,0,12508,49.678,24.996,12417.5
1920927857,0.634766,2.223,122.087,-0.356173,-0.000371888,0.957107,1.16149,-0.811551,0.0323286,0.132156,-3.32706,1.25896,0,-2.6,0,12508,49.678,24.996,12417.5
1921028198,0.634766,2.223,122.1,-0.299424,0.000598282,0.956477,1.42862,-0.979701,0.0451029,0.18712,-2.77638,0.777068,0,-2.6,0,12508,49.678,24.996,12417.5
1921128606,0.634766,2.223,122.114,-0.246641,-0.000851303,0.956506,1.62315,-1.11552,0.045062,0.0951327,-2.14634,0.522029,0,-2.6,0,12508,49.678,24.996,12417.5
1921228929,0.634766,2.223,122.123,-0.203364,-0.00273685,0.956476,1.7755,-1.21695,0.0380069,0.130864,-1.66078,0.191123,0,-2.6,0,12508,49.678,24.996,12417.5
1921329293,0.634766,2.223,122.126,-0.168948,-0.00276877,0.956101,1.89215,-1.29358,0.0276514,0.122955,-1.22465,0.162955,0,-2.6,0,12508,49.678,24.996,12417.5
1921429605,0.634766,2.223,122.133,-0.141247,-0.00220771,0.955691,1.9744,-1.35109,0.0301431,0.107971,-0.836115,0.253888,0,-2.6,0,12508,49.696,24.792,12320.6
1921529966,0.634766,2.223,122.142,-0.123948,0.000569291,0.955891,2.0337,-1.3854,0.0223291,0.13123,-0.575467,-0.0896367,0,-2.6,0,12508,49.696,24.792,12320.6
1921630310,0.634766,2.223,122.146,-0.110005,0.00373249,0.955685,2.08406,-1.40424,0.00775893,0.153498,-0.482056,0.045096,0,-2.6,0,12508,49.696,24.792,12320.6
1921730666,0.634766,2.223,122.148,-0.099298,0.00235677,0.955092,2.10597,-1.41948,0.0111013,0.10717,-0.26275,-0.162633,0,-2.6,0,12508,49.696,24.792,12320.6
1921831091,0.634766,2.223,122.148,-0.0944543,-0.00076735,0.955361,2.12557,-1.42978,-0.000187516,0.083222,-0.206662,0.0604782,0,3.3,0,12508,49.696,24.792,12320.6
1921931461,0.634766,2.223,122.145,-0.0782384,0.000539228,0.952703,2.13724,-1.43178,-0.000413332,0.108241,-0.171585,-0.0115832,0,3.3,0,12508,49.696,24.792,12320.6
1922032713,0.634766,2.223,122.146,0.125189,0.00443057,0.954398,2.12419,-1.39269,0.0572262,0.344722,0.647101,0.315236,0,3.3,0,12508,49.696,24.792,12320.6
1922137018,0.634766,2.223,122.162,0.344555,0.00840517,0.956727,1.86326,-1.20548,0.0279918,0.169995,3.28583,0.306286,0,3.3,0,12508,49.696,24.792,12320.6
1922237454,0.634766,2.223,122.166,0.449712,0.0120321,0.958095,1.48059,-0.935187,-0.0399536,0.109732,4.36087,1.5559,0,3.3,0,12508,49.696,24.792,12320.6
1922337785,0.634766,2.223,122.166,0.500899,0.0173061,0.959556,1.01344,-0.598227,-0.0744384,0.113922,5.14963,2.11195,0,3.3,0,12508,49.696,24.792,12320.6
1922438202,0.634766,2.223,122.164,0.515947,0.0202667,0.95968,0.502741,-0.247051,-0.119566,-0.0268257,5.34395,2.54911,0,3.3,0,12508,49.656,25.624,12723.9
1922538563,0.634766,2.223,122.136,0.499523,0.0176324,0.957518,-0.0388279,0.107845,-0.117534,-0.132822,5.13329,3.30941,0,3.3,0,12508,49.656,25.624,12723.9
1922638900,0.634766,2.223,122.098,0.475042,0.0121608,0.95567,-0.571143,0.440981,-0.0965729,-0.11172,5.01421,3.18633,0,3.3,0,12508,49.656,25.624,12723.9
1922740742,0.634766,2.223,122.079,0.423171,0.00909547,0.955831,-1.06431,0.792284,-0.0577446,0.0905399,4.93354,2.79942,0,3.3,0,12508,49.656,25.624,12723.9
1922841155,0.634766,2.223,122.072,0.338367,0.0047075,0.954676,-1.49513,1.09436,-0.0100704,0.0432052,4.21789,2.06726,0,3.3,0,12508,49.656,25.624,12723.9
1922941824,0.634766,2.223,122.07,0.251502,0.00164459,0.954575,-1.80934,1.33507,0.0254121,0.172225,3.2192,1.18047,0,3.3,0,12508,49.656,25.624,12723.9
1923046032,0.634766,2.223,122.074,0.179122,0.00406115,0.955531,-2.03404,1.51372,0.0289097,0.193044,2.33021,0.410745,0,3.3,0,12508,49.656,25.624,12723.9
1923146390,0.634766,2.223,122.088,0.123974,0.00787226,0.956587,-2.19382,1.6381,0.0341701,0.100446,1.5844,0.338645,0,3.3,0,12508,49.656,25.624,12723.9
1923246700,0.634766,2.223,122.107,0.0847722,0.0113317,0.95758,-2.3102,1.73007,0.0354516,0.0810812,1.1111,-0.00194173,0,3.3,0,12508,49.656,25.624,12723.9
1923347069,0.634766,2.223,122.114,0.0567019,0.0137511,0.958502,-2.39141,1.79539,0.0273054,0.0473212,0.740318,-0.221482,0,3.3,0,12508,49.656,25.624,12723.9
1923447930,0.634766,2.223,122.122,0.0399273,0.0153529,0.959316,-2.45712,1.83801,0.0217852,-0.0716336,0.58978,-0.14681,0,3.3,0,12508,49.621,26.086,12944.1
1923550414,0.634766,2.223,122.129,0.0268722,0.0152148,0.959813,-2.50011,1.87246,0.0251431,0.0363474,0.397904,0.10019,0,3.3,0,12508,49.621,26.086,12944.1
1923650769,0.634766,2.223,122.137,0.0197413,0.0167351,0.959841,-2.52308,1.89618,0.0251187,0.0434309,0.224974,-0.158245,0,3.3,0,12508,49.621,26.086,12944.1
1923751088,0.634766,2.223,122.142,0.0170074,0.0170084,0.959485,-2.54119,1.90838,0.0105798,-0.0112329,0.20484,-0.0938577,0,3.3,0,12508,49.621,26.086,12944.1
1923855734,0.634766,2.223,122.14,0.0172417,0.0177282,0.959111,-2.5681,1.92801,0.00688113,0.0201303,0.346761,0.0699009,0,3.5,0,12508,49.621,26.086,12944.1
1923957225,0.634766,2.223,122.134,0.0267155,0.0198832,0.958837,-2.5703,1.93477,-0.00360276,-0.00828006,0.136917,0.00344331,0,3.5,0,12508,49.621,26.086,12944.1
1924057583,0.634766,2.223,122.126,0.0503294,0.022149,0.958916,-2.59817,1.94573,-0.00420659,-0.100122,0.443475,-0.0778385,0,3.5,0,12508,49.621,26.086,12944.1
1924157948,0.634766,2.223,122.119,0.0547516,0.0218175,0.958572,-2.6333,1.95922,-0.00824273,-0.0964758,0.489657,0.156376,0,3.5,0,12508,49.621,26.086,12944.1
1924258265,0.634766,2.223,122.11,0.0556506,0.0224283,0.958243,-2.67015,1.97376,-0.00885775,-0.147254,0.514298,-0.0419178,0,3.5,0,12508,49.621,26.086,12944.1
1924358633,0.634766,2.223,122.109,0.0544148,0.0215967,0.958152,-2.70952,1.99204,-0.0117147,-0.0761128,0.586217,-0.0959602,0,3.5,0,12508,49.621,26.086,12944.1
1924458987,0.634765,2.223,122.106,0.0498461,0.0210669,0.957313,-2.74711,2.01129,-0.00898023,-0.112618,0.535578,0.210919,0,3.5,0,12508,49.689,26.538,13186.5
1924559345,0.634765,2.223,122.098,0.0452245,0.0185252,0.957201,-2.7779,2.024,4.50108e-06,-0.0916238,0.435694,0.0589712,0,3.5,0,12508,49.689,26.538,13186.5
1924659742,0.634765,2.223,122.1,0.0405214,0.0178506,0.956546,-2.80542,2.03119,0.00417349,-0.100474,0.395899,0.0962429,0,3.5,0,12508,49.689,26.538,13186.5
1924760106,0.634765,2.223,122.107,0.0358015,0.0171487,0.956373,-2.82164,2.03807,0.016346,-0.06412,0.294768,0.0152489,0,3.5,0,12508,49.689,26.538,13186.5
1924860432,0.634765,2.223,122.116,0.0334874,0.0168566,0.956153,-2.84512,2.04071,0.0102364,-0.156693,0.340997,-0.158354,0,3.5,0,12508,49.689,26.538,13186.5
1924960723,0.634765,2.223,122.124,0.0310557,0.0147044,0.955586,-2.86266,2.04446,0.0100555,-0.0533916,0.288165,-0.0856382,0,3.5,0,12508,49.689,26.538,13186.5
1925061062,0.634765,2.223,122.137,0.0258987,0.0145612,0.955481,-2.87826,2.05642,0.0143178,-0.0374557,0.329629,-0.0318452,0,3.5,0,12508,49.689,26.538,13186.5
1925161362,0.634765,2.223,122.142,0.0239294,0.0130921,0.955164,-2.88825,2.05939,0.00772233,-0.00879654,0.2127,0.0221881,0,3.5,0,12508,49.689,26.538,13186.5
1925261716,0.634765,2.223,122.141,0.0242554,0.0116477,0.95531,-2.90406,2.06405,0.00510165,-0.0199004,0.25365,-0.0465765,0,3.5,0,12508,49.689,26.538,13186.5
1925362066,0.634765,2.223,122.143,0.0229268,0.010256,0.955412,-2.91281,2.07587,0.00617445,0.0794308,0.191873,0.0828565,0,3.5,0,12508,49.689,26.538,13186.5
1925462423,0.634765,2.223,122.15,0.0218647,0.011174,0.955473,-2.9188,2.09005,0.00700073,0.0941835,0.187871,0.00811248,0,3.5,0,12508,49.563,27.526,13642.7
1925562763,0.634765,2.223,122.145,0.0201052,0.0118356,0.955392,-2.9241,2.0973,-0.00715341,0.0528222,0.151079,-0.0842477,0,3.5,0,12508,49.563,27.526,13642.7
1925663112,0.634765,2.223,122.141,0.0197126,0.0132033,0.955435,-2.93505,2.10379,-0.00369442,0.0149804,0.170719,0.00473048,0,3.5,0,12508,49.563,27.526,13642.7
1925763488,0.634765,2.223,122.134,0.0157846,0.0135205,0.955801,-2.94075,2.10713,-0.01963,0.0138467,0.107267,-0.0727322,0,3.5,0,12508,49.563,27.526,13642.7
1925863911,0.634765,2.223,122.126,0.0131533,0.0132792,0.956288,-2.9447,2.10957,-0.0162053,0.00279237,0.0545881,-0.0144501,0,-5,0,12508,49.563,27.526,13642.7
1925964320,0.634765,2.223,122.111,-0.00308914,0.0114701,0.958259,-2.9467,2.10987,-0.0221922,0.030907,0.04761,0.100747,0,-5,0,12508,49.563,27.526,13642.7
1926064678,0.634765,2.223,122.099,-0.168558,0.00902829,0.956468,-2.92801,2.09985,0.0362053,0.0716819,-0.419113,0.490114,0,-5,0,12508,49.563,27.526,13642.7
1926165368,0.634765,2.223,122.099,-0.321384,0.005624,0.955255,-2.735,1.96924,0.0192375,0.0493487,-2.42331,0.303625,0,-5,0,12508,49.563,27.526,13642.7
1926271371,0.634765,2.223,122.096,-0.413123,0.00365228,0.955455,-2.43475,1.77101,-0.0238747,0.128591,-3.51877,1.14292,0,-5,0,12508,49.563,27.526,13642.7
1926377016,0.634765,2.223,122.099,-0.458493,0.00439304,0.955041,-1.96525,1.45051,-0.0284355,0.124003,-4.28277,2.03102,0,-5,0,12508,49.563,27.526,13642.7
1926477339,0.634765,2.223,122.103,-0.463934,0.00565133,0.954583,-1.54562,1.16103,-0.0226213,0.123337,-4.38068,2.21146,0,-5,0,12491,49.657,24.614,12222.6
1926577700,0.634765,2.223,122.097,-0.454134,0.00842931,0.95366,-1.14006,0.875465,-0.0189233,0.0558676,-4.30356,2.16051,0,-5,0,12491,49.657,24.614,12222.6
1926678082,0.634765,2.223,122.087,-0.448244,0.0105086,0.953025,-0.756857,0.604407,-0.00617068,0.0504494,-4.00257,2.13813,0,-5,0,12491,49.657,24.614,12222.6
1926778477,0.634765,2.223,122.084,-0.440309,0.010549,0.953017,-0.377893,0.338119,-0.00595468,0.0661898,-4.02994,1.88961,0,-5,0,12491,49.657,24.614,12222.6
1926878821,0.634765,2.223,122.084,-0.42922,0.0101727,0.953273,-0.0101292,0.0732452,0.00536355,0.0845535,-3.88469,2.02337,0,-5,0,12491,49.657,24.614,12222.6
1926979248,0.634765,2.223,122.081,-0.419587,0.00908091,0.953908,0.343095,-0.172518,0.00983744,0.128402,-3.66537,1.80634,0,-5,0,12491,49.657,24.614,12222.6
1927080761,0.634765,2.223,122.076,-0.408128,0.00767136,0.954595,0.681779,-0.409806,0.0149108,0.0959038,-3.61059,1.5461,0,-5,0,12491,49.657,24.614,12222.6
1927181511,0.634765,2.223,122.078,-0.399878,0.00726189,0.954769,1.0003,-0.635321,0.0202841,0.102829,-3.43793,1.33542,0,-5,0,12491,49.657,24.614,12222.6
1927281919,0.634765,2.223,122.081,-0.394337,0.00622622,0.955321,1.31419,-0.851873,0.0242036,0.178282,-3.38256,1.29159,0,-5,0,12491,49.657,24.614,12222.6
1927383293,0.634765,2.223,122.08,-0.388407,0.00654829,0.955452,1.60936,-1.06069,0.0205697,0.0941693,-3.2874,1.12363,0,-5,0,12491,49.657,24.614,12222.6
1927487674,0.634765,2.223,122.083,-0.382494,0.00772885,0.954699,1.88676,-1.26443,0.0218988,0.0894398,-3.07097,1.22534,0,-5,0,12491,49.674,24.468,12154.2
1927588089,0.634765,2.223,122.084,-0.38029,0.00825844,0.954772,2.15521,-1.45805,0.0234574,0.12536,-3.00251,1.24668,0,-5,0,12491,49.674,24.468,12154.2
1927688419,0.634765,2.223,122.087,-0.38061,0.00813046,0.955596,2.42075,-1.65866,0.0147404,-0.0161873,-3.09975,0.992091,0,-5,0,12491,49.674,24.468,12154.2
1927788809,0.634765,2.223,122.095,-0.382469,0.00641072,0.957256,2.68834,-1.8457,0.0131279,0.112228,-2.98971,1.07213,0,-5,0,12491,49.674,24.468,12154.2
1927889221,0.634765,2.223,122.103,-0.367014,0.00451407,0.958447,2.96163,-2.02373,0.0215125,0.229567,-3.01497,1.03588,0,-1.8,0,12491,49.674,24.468,12154.2
1927989566,0.634765,2.223,122.114,-0.314546,0.00219742,0.957265,3.19525,-2.18765,0.0207197,0.14704,-2.67987,0.742699,0,-1.8,0,12491,49.674,24.468,12154.2
1928089941,0.634765,2.223,122.124,-0.0603869,0.00457517,0.958464,3.40478,-2.32266,0.0972854,0.282036,-1.9997,1.5283,0,-1.8,0,12491,49.674,24.468,12154.2
1928190278,0.634765,2.223,122.14,0.205877,0.0118379,0.960197,3.30821,-2.25248,0.206538,0.16638,1.44473,0.808333,0,-1.8,0,12491,49.674,24.468,12154.2
1928290645,0.634765,2.223,122.165,0.309549,0.0194327,0.959519,3.03202,-2.05155,0.131414,0.168195,3.65702,-0.766911,0,-1.8,0,12491,49.674,24.468,12154.2
1928391003,0.634765,2.223,122.184,0.30918,0.028895,0.959996,2.73181,-1.84415,-0.00607067,0.0934365,3.57369,0.469295,0,-1.8,0,12491,49.674,24.468,12154.2
1928491425,0.634765,2.223,122.19,0.265071,0.0329625,0.957477,2.40766,-1.65002,-0.0575255,-0.152434,3.42316,0.832802,0,-1.8,0,12491,49.674,24.468,12154.2
1928591784,0.634765,2.223,122.186,0.203222,0.0344007,0.955383,2.13109,-1.4802,-0.0847192,-0.00593714,3.05116,0.0437247,0,-1.8,0,12491,49.674,24.468,12154.2
1928692116,0.634765,2.223,122.184,0.143259,0.0243174,0.952393,1.89986,-1.35807,-0.0787983,-0.179327,2.29491,0.274351,0,-1.8,0,12491,49.674,24.468,12154.2
1928792385,0.634765,2.223,122.133,0.0886551,0.00897373,0.951087,1.73026,-1.25428,-0.0836744,0.0104886,1.63951,0.0734401,0,-1.8,0,12491,49.674,24.468,12154.2
1928892683,0.634765,2.223,122.124,0.0402372,-0.000153959,0.951592,1.59935,-1.16035,-0.0773924,0.121021,1.23283,0.473735,0,-1.8,0,12491,49.674,24.468,12154.2
1928993034,0.634765,2.223,122.13,0.00171994,-0.00628568,0.95291,1.51906,-1.08879,-0.0462199,0.229675,0.675876,0.0798421,0,-1.8,0,12491,49.674,24.468,12154.2
1929093395,0.634765,2.223,122.13,-0.0263879,-0.00895399,0.954702,1.46566,-1.03145,-0.0305342,0.215504,0.421233,0.0354788,0,-1.8,0,12464,49.589,25.455,12622.9
1929193765,0.634765,2.223,122.121,-0.0464099,-0.00693634,0.955533,1.42986,-0.965921,-0.0183137,0.334435,0.325246,0.422318,0,-1.8,0,12464,49.589,25.455,12622.9
1929294147,0.634765,2.223,122.127,-0.0604984,-0.00355751,0.956252,1.41388,-0.938391,0.000451174,0.19843,0.02973,-0.00948802,0,-1.8,0,12464,49.589,25.455,12622.9
1929394514,0.634765,2.223,122.139,-0.0698785,-0.000328746,0.95606,1.41355,-0.914562,-0.00583697,0.217094,-0.0955995,0.0602073,0,-1.8,0,12464,49.589,25.455,12622.9
1929494897,0.634765,2.223,122.137,-0.0765577,0.00313346,0.956223,1.41853,-0.901037,0.00215294,0.164164,-0.163583,-0.110463,0,-1.8,0,12464,49.589,25.455,12622.9
1929595261,0.634765,2.223,122.133,-0.0779417,0.00634479,0.955723,1.43291,-0.894516,-0.00356996,0.171654,-0.293782,-0.0474178,0,-1.8,0,12464,49.589,25.455,12622.9
1929695626,0.634765,2.223,122.134,-0.0767039,0.0110892,0.955789,1.44718,-0.894634,0.0013791,0.0832575,-0.188061,-0.179893,0,-1.8,0,12464,49.589,25.455,12622.9
1929796059,0.634765,2.223,122.138,-0.0783661,0.0127491,0.955606,1.45854,-0.897343,-0.00356922,0.0683241,-0.144932,0.00609666,0,-1.8,0,12464,49.589,25.455,12622.9
1929896440,0.634765,2.223,122.135,-0.0789222,0.0162215,0.955607,1.47449,-0.897629,-0.0154594,0.0714285,-0.211832,-0.116231,0,2.2,0,12464,49.589,25.455,12622.9
