timestamp,lat,log,alt,roll,pitch,yaw,vel_x,vel_y,vel_z,acc_x,acc_y,acc_z,act_vx,act_vy,act_yr,capacity,vol,cur,power
1536131040,0.634769,2.223,92.7948,-0.0455517,0.0184956,0.927652,0.00531111,0.0397944,-0.0527891,-0.15958,-0.0681949,0.0311719,-1.8,-1.5,0,12757,49.812,23.454,11682.9
1536231522,0.634769,2.223,92.7906,-0.0461669,0.0156398,0.927419,0.00483889,0.0153025,-0.0446488,-0.211688,-0.121322,0.0968195,-1.8,-1.5,0,12757,49.812,23.454,11682.9
1536331899,0.634769,2.223,92.7878,-0.0472787,0.0153376,0.925735,0.00669369,0.00156684,-0.0360228,-0.13092,-0.0975419,-0.0278854,-1.8,-1.5,0,12757,49.809,23.775,11842.1
1536432317,0.634769,2.223,92.7837,-0.107917,0.108326,0.919398,0.0169229,-0.0209737,-0.00376115,-0.350938,-0.286214,0.205789,-1.8,-1.5,0,12757,49.809,23.775,11842.1
1536532700,0.634769,2.223,92.7892,-0.200125,0.214459,0.903851,0.012091,-0.207769,-0.0431877,-1.65027,-1.23053,-0.0769641,-1.8,-1.5,0,12757,49.809,23.775,11842.1
1536633112,0.634769,2.223,92.7928,-0.259697,0.273069,0.890263,0.0268099,-0.523357,-0.0654788,-2.39309,-1.91856,0.991945,-1.8,-1.5,0,12757,49.809,23.775,11842.1
1536733500,0.634769,2.223,92.8055,-0.268038,0.270234,0.890961,0.0419601,-0.90666,-0.0599885,-2.64342,-2.14687,1.46137,-1.8,-1.5,0,12757,49.809,23.775,11842.1
1536833846,0.634769,2.223,92.8153,-0.246419,0.240858,0.89809,0.0662416,-1.26326,-0.0466547,-2.46139,-2.10852,1.06534,-1.8,-1.5,0,12757,49.809,23.775,11842.1
1536934208,0.634769,2.223,92.8191,-0.209082,0.19388,0.908696,0.095774,-1.55843,-0.0287307,-1.98746,-1.80582,0.771013,-1.8,-1.5,0,12757,49.809,23.775,11842.1
1537035621,0.634769,2.223,92.8267,-0.176833,0.156308,0.9159,0.122894,-1.78188,-0.0358778,-1.5017,-1.43607,0.410015,-1.8,-1.5,0,12757,49.809,23.775,11842.1
1537135993,0.634769,2.223,92.8312,-0.146942,0.125654,0.920402,0.14411,-1.95844,-0.0443782,-1.18077,-1.14386,0.09106,-1.8,-1.5,0,12757,49.809,23.775,11842.1
1537236381,0.634769,2.223,92.8476,-0.120948,0.102205,0.923518,0.171781,-2.09847,-0.0537007,-0.84375,-0.954099,-0.0872693,-1.8,-1.5,0,12757,49.809,23.775,11842.1
1537336740,0.634769,2.223,92.8416,-0.0960539,0.0818958,0.925069,0.200666,-2.19441,-0.0518717,-0.504855,-0.63032,0.152566,-1.8,-1.5,0,12752,49.791,23.363,11632.7
1537437088,0.634769,2.223,92.8355,-0.0806302,0.0693251,0.925826,0.213767,-2.2648,-0.0601705,-0.4061,-0.379474,0.139657,-1.8,-1.5,0,12752,49.791,23.363,11632.7
1537537438,0.634769,2.223,92.8207,-0.0684268,0.0580676,0.925828,0.222058,-2.32098,-0.0704708,-0.340475,-0.291363,0.0325049,-1.8,-1.5,0,12752,49.791,23.363,11632.7
1537637766,0.634769,2.223,92.8086,-0.0606252,0.0529551,0.92555,0.228784,-2.35827,-0.0626943,-0.233954,-0.18052,0.0867672,-1.8,-1.5,0,12752,49.791,23.363,11632.7
1537738115,0.634769,2.223,92.7948,-0.0560671,0.0504489,0.925193,0.24191,-2.38242,-0.0614981,-0.0934447,-0.168719,-0.0516729,-1.8,-1.5,0,12752,49.791,23.363,11632.7
1537838465,0.634769,2.223,92.7864,-0.0527921,0.0506341,0.925259,0.242442,-2.4018,-0.0624805,-0.152658,-0.0554376,0.0995972,-1.8,-1.5,0,12752,49.791,23.363,11632.7
1537938815,0.634769,2.223,92.7786,-0.0498639,0.0513565,0.925189,0.252423,-2.42573,-0.0538408,-0.134048,-0.161512,0.121889,-1.8,-1.5,0,12752,49.791,23.363,11632.7
1538039121,0.634769,2.223,92.7813,-0.0504063,0.052257,0.925099,0.25935,-2.44172,-0.0405488,-0.147035,-0.114265,0.147585,-1.8,-1.5,0,12752,49.791,23.363,11632.7
1538139510,0.634769,2.223,92.7939,-0.049251,0.0547734,0.92554,0.262202,-2.45505,-0.0357369,-0.180584,-0.12345,0.161789,-0.5,-2.9,0,12752,49.791,23.363,11632.7
1538239885,0.634769,2.223,92.7944,-0.0536024,0.0462154,0.924195,0.259889,-2.4664,-0.0473889,-0.218639,-0.0630437,-0.0555681,-0.5,-2.9,0,12752,49.791,23.363,11632.7
1538340313,0.634769,2.223,92.7901,-0.141985,-0.061794,0.92684,0.257072,-2.47673,-0.00638519,0.0378006,-0.150668,0.507155,-0.5,-2.9,0,12752,49.762,24.455,12169.3
1538440672,0.634769,2.223,92.7927,-0.22698,-0.136999,0.941773,0.430672,-2.43544,-0.0413248,1.38566,-1.3417,-0.11082,-0.5,-2.9,0,12752,49.762,24.455,12169.3
1538541030,0.634769,2.223,92.7871,-0.269115,-0.163374,0.950871,0.704934,-2.39707,-0.0779564,1.7889,-1.95366,0.857693,-0.5,-2.9,0,12752,49.762,24.455,12169.3
1538641448,0.634769,2.223,92.7805,-0.265973,-0.153778,0.950631,1.01547,-2.35982,-0.0659922,1.89471,-2.05705,1.19791,-0.5,-2.9,0,12752,49.762,24.455,12169.3
1538741816,0.634769,2.223,92.7687,-0.240967,-0.126458,0.945504,1.29993,-2.33902,-0.0506439,1.65,-1.97343,1.01256,-0.5,-2.9,0,12752,49.762,24.455,12169.3
1538842152,0.634769,2.223,92.767,-0.207388,-0.0961627,0.939762,1.53423,-2.33274,-0.031765,1.31972,-1.74985,0.595252,-0.5,-2.9,0,12752,49.762,24.455,12169.3
1538942484,0.634769,2.223,92.7702,-0.174888,-0.0681667,0.935274,1.72028,-2.32273,-0.0246655,1.0512,-1.32646,0.492486,-0.5,-2.9,0,12752,49.762,24.455,12169.3
1539042883,0.634769,2.223,92.7716,-0.146873,-0.0444624,0.9321,1.86751,-2.30532,-0.0168358,0.916253,-1.02684,0.146228,-0.5,-2.9,0,12752,49.762,24.455,12169.3
1539143233,0.634769,2.223,92.7801,-0.12529,-0.0253301,0.929974,1.96512,-2.29762,-0.0154077,0.499363,-0.680719,-0.0869778,-0.5,-2.9,0,12752,49.762,24.455,12169.3
1539243583,0.634769,2.223,92.7842,-0.109672,-0.0133562,0.929287,2.0443,-2.29436,-0.0259034,0.324307,-0.563617,-0.0656196,-0.5,-2.9,0,12752,49.762,24.455,12169.3
1539343919,0.634769,2.223,92.785,-0.096776,-0.00642815,0.929308,2.11435,-2.29007,-0.0360038,0.340992,-0.448936,0.0663713,-0.5,-2.9,0,12752,49.762,24.455,12169.3
1539444235,0.634769,2.223,92.7801,-0.0863623,-0.000620417,0.92908,2.15806,-2.27623,-0.0427293,0.245526,-0.267631,-0.0150612,-0.5,-2.9,0,12712,49.756,24.115,11998.7
1539544515,0.634769,2.223,92.7831,-0.078617,0.00556757,0.928272,2.18835,-2.2634,-0.0363116,0.174105,-0.161006,-0.153491,-0.5,-2.9,0,12712,49.756,24.115,11998.7
1539644810,0.634769,2.223,92.7908,-0.075344,0.0107896,0.92739,2.21386,-2.25053,-0.0313247,0.147597,-0.141105,0.00560816,-0.5,-2.9,0,12712,49.756,24.115,11998.7
1539745179,0.634769,2.223,92.7981,-0.0729926,0.0145259,0.926597,2.22922,-2.24475,-0.0262242,0.0705489,-0.156362,-0.179425,-0.5,-2.9,0,12712,49.756,24.115,11998.7
1539845532,0.634769,2.223,92.8128,-0.0720299,0.0163291,0.926208,2.24369,-2.23462,-0.0249903,0.108793,-0.135828,-0.0765759,-0.5,-2.9,0,12712,49.756,24.115,11998.7
1539945881,0.634769,2.223,92.8191,-0.0706279,0.0191138,0.92653,2.25244,-2.22829,-0.0338008,0.106039,-0.0814024,-0.215954,-0.5,-2.9,0,12712,49.756,24.115,11998.7
1540046273,0.634769,2.223,92.8136,-0.0698428,0.0206119,0.926527,2.25497,-2.22609,-0.0433476,0.0117821,-0.0803623,-0.0757485,-0.5,-2.9,0,12712,49.756,24.115,11998.7
1540146732,0.634769,2.223,92.8103,-0.0683522,0.0215657,0.926712,2.24675,-2.2268,-0.0474219,-0.0587722,-0.0424049,0.0945341,-0.8,1,0,12712,49.756,24.115,11998.7
1540247151,0.634769,2.223,92.8067,-0.0595491,0.021742,0.92549,2.24096,-2.22568,-0.0469183,-0.0396221,-0.0311068,0.0710795,-0.8,1,0,12712,49.756,24.115,11998.7
1540347577,0.634769,2.223,92.7978,0.111454,0.0308058,0.928836,2.21092,-2.20335,0.0151871,0.0204165,0.654892,0.399072,-0.8,1,0,12712,49.756,24.115,11998.7
1540447960,0.634769,2.223,92.8067,0.291419,0.0416388,0.934347,2.02594,-2.08389,-0.00319598,-0.199839,2.71115,-0.133629,-0.8,1,0,12712,49.733,25.057,12461.6
1540548358,0.634769,2.223,92.8225,0.3994,0.0465251,0.936009,1.61697,-1.80501,-0.0714516,-0.107968,3.9918,1.43843,-0.8,1,0,12712,49.733,25.057,12461.6
1540650402,0.634769,2.223,92.818,0.45439,0.0525228,0.936802,1.18688,-1.51228,-0.118098,-0.184972,4.71988,2.05481,-0.8,1,0,12712,49.733,25.057,12461.6
1540752430,0.634769,2.223,92.8113,0.458816,0.0563196,0.935916,0.702313,-1.21158,-0.122714,-0.430337,4.89673,2.61793,-0.8,1,0,12712,49.733,25.057,12461.6
1540852838,0.634769,2.223,92.8108,0.392425,0.0548326,0.934253,0.232578,-0.902842,-0.0964724,-0.22345,4.6423,2.45449,-0.8,1,0,12712,49.733,25.057,12461.6
1540953275,0.634769,2.223,92.7927,0.305277,0.0537191,0.933054,-0.153206,-0.657962,-0.0703515,-0.327884,3.9204,1.51131,-0.8,1,0,12712,49.733,25.057,12461.6
1541053697,0.634769,2.223,92.7638,0.218944,0.0500553,0.932571,-0.449559,-0.477588,-0.0623723,-0.218356,2.97118,0.976087,-0.8,1,0,12712,49.733,25.057,12461.6
1541154035,0.634769,2.223,92.7631,0.146692,0.0485735,0.932652,-0.664945,-0.359376,-0.0430506,-0.220227,2.06144,0.518945,-0.8,1,0,12712,49.733,25.057,12461.6
1541254486,0.634769,2.223,92.7574,0.0916973,0.0450433,0.932072,-0.825485,-0.275165,-0.0428527,-0.237849,1.5112,0.395527,-0.8,1,0,12712,49.733,25.057,12461.6
1541354868,0.634769,2.223,92.7505,0.0544176,0.0416069,0.931617,-0.936561,-0.230242,-0.0325723,-0.221191,0.918889,0.111882,-0.8,1,0,12712,49.733,25.057,12461.6
1541455292,0.634769,2.223,92.7407,0.0292344,0.0387019,0.931311,-1.01797,-0.201171,-0.0369083,-0.164319,0.606034,0.101912,-0.8,1,0,12712,49.711,25.057,12456.1
1541555660,0.634769,2.223,92.732,0.0148157,0.0348414,0.930894,-1.07659,-0.182103,-0.0277174,-0.0348201,0.366799,0.335287,-0.8,1,0,12712,49.711,25.057,12456.1
1541656055,0.634769,2.223,92.7197,0.00641082,0.0315169,0.930606,-1.11723,-0.167087,-0.0245776,0.0227754,0.279323,-0.0504987,-0.8,1,0,12712,49.711,25.057,12456.1
1541756410,0.634769,2.223,92.7052,0.000540428,0.0294619,0.930362,-1.15144,-0.160261,-0.0311919,-0.0225275,0.233337,0.304783,-0.8,1,0,12712,49.711,25.057,12456.1
1541856776,0.634769,2.223,92.6989,-0.00179903,0.0279478,0.930015,-1.17453,-0.154853,-0.0124675,0.0342028,0.233156,0.0947996,-0.8,1,0,12712,49.711,25.057,12456.1
1541957158,0.634769,2.223,92.6992,-0.00421914,0.0272207,0.929695,-1.19686,-0.156574,-0.00250929,-0.0339166,0.182498,0.116982,-0.8,1,0,12712,49.711,25.057,12456.1
1542057564,0.634769,2.223,92.7029,-0.00330597,0.0256437,0.929279,-1.2138,-0.161793,-0.000440709,-0.0746114,0.161745,-0.229117,-0.8,1,0,12712,49.711,25.057,12456.1
1542157974,0.634769,2.223,92.7049,-0.00171435,0.0239271,0.928959,-1.22313,-0.158763,0.0045795,0.076841,0.152163,0.0800737,-2,4.6,0,12712,49.711,25.057,12456.1
1542258400,0.634769,2.223,92.7107,0.0228047,0.0309039,0.927906,-1.22945,-0.161429,0.0152574,0.00540842,0.0995107,0.162483,-2,4.6,0,12712,49.711,25.057,12456.1
1542358806,0.634769,2.223,92.7147,0.16191,0.0716378,0.935661,-1.26384,-0.14312,0.0440704,-0.0693141,0.774844,-0.347988,-2,4.6,0,12712,49.711,25.057,12456.1
1542459178,0.634769,2.223,92.7211,0.282449,0.108296,0.945597,-1.4617,-0.0619182,-0.0133502,-0.559489,2.33776,0.0955948,-2,4.6,0,12622,49.71,24.321,12090
1542559549,0.634769,2.223,92.7258,0.356291,0.129766,0.953078,-1.76574,0.0536429,-0.0277337,-0.774341,3.09299,1.16281,-2,4.6,0,12622,49.71,24.321,12090
1542659869,0.634769,2.223,92.7288,0.390754,0.14008,0.957177,-2.14742,0.188218,-0.0251585,-1.01038,3.63452,1.59529,-2,4.6,0,12622,49.71,24.321,12090
1542760218,0.634769,2.223,92.7303,0.40107,0.142883,0.958239,-2.5595,0.331805,-0.0214685,-1.09777,3.89455,1.74227,-2,4.6,0,12622,49.71,24.321,12090
1542860589,0.634769,2.223,92.7381,0.396164,0.143695,0.957984,-2.97899,0.489111,-0.0166712,-1.02042,3.82722,1.97798,-2,4.6,0,12622,49.71,24.321,12090
1542960952,0.634769,2.223,92.7407,0.35989,0.134875,0.953746,-3.3754,0.626512,-0.0106833,-1.08017,3.60724,1.67097,-2,4.6,0,12622,49.71,24.321,12090
1543061269,0.634769,2.223,92.7455,0.309719,0.121006,0.948245,-3.72612,0.75107,0.010473,-0.879347,3.22255,1.40938,-2,4.6,0,12622,49.71,24.321,12090
1543161622,0.634769,2.223,92.7558,0.256601,0.107272,0.943451,-4.01621,0.855798,0.0174641,-0.785894,2.75076,0.679113,-2,4.6,0,12622,49.71,24.321,12090
1543262058,0.634769,2.223,92.7588,0.20641,0.0940694,0.939441,-4.24636,0.936528,0.0195599,-0.572558,2.08661,0.624583,-2,4.6,0,12622,49.71,24.321,12090
1543362465,0.634769,2.223,92.7606,0.166357,0.0820251,0.936738,-4.42789,1.00074,0.0106619,-0.470483,1.67202,0.369592,-2,4.6,0,12622,49.71,24.321,12090
1543462831,0.634769,2.223,92.7583,0.132649,0.070448,0.934607,-4.56643,1.04262,0.00258395,-0.362582,1.26432,-0.0239697,-2,4.6,0,12622,49.71,24.321,12090
1543563198,0.634769,2.223,92.7605,0.107635,0.0624727,0.933315,-4.67612,1.06631,-0.00436383,-0.357669,0.953936,0.0775626,-2,4.6,0,12622,49.663,25.032,12431.6
1543663542,0.634768,2.223,92.7614,0.090611,0.0530411,0.932038,-4.75206,1.08604,-0.0175509,-0.110032,0.657824,-0.0185713,-2,4.6,0,12622,49.663,25.032,12431.6
1543763895,0.634768,2.223,92.7539,0.0770736,0.0474788,0.931537,-4.80609,1.10899,-0.0273624,-0.0478777,0.554755,0.0622487,-2,4.6,0,12622,49.663,25.032,12431.6
1543864311,0.634768,2.223,92.742,0.0679382,0.0444412,0.931434,-4.8523,1.12314,-0.022392,-0.0402918,0.429672,0.0575758,-2,4.6,0,12622,49.663,25.032,12431.6
1543964739,0.634768,2.223,92.7441,0.0622396,0.0419253,0.931138,-4.88126,1.12934,-0.019487,0.0234471,0.306174,0.101269,-2,4.6,0,12622,49.663,25.032,12431.6
1544065065,0.634768,2.223,92.7355,0.0596136,0.0393502,0.930792,-4.91377,1.13945,-0.0276661,-0.0319855,0.352915,0.0500955,-2,4.6,0,12622,49.663,25.032,12431.6
1544165517,0.634768,2.223,92.7238,0.0573091,0.0365741,0.930465,-4.93096,1.1528,-0.0250734,0.0782229,0.31514,0.150875,1,-1.8,0,12622,49.663,25.032,12431.6
1544265870,0.634768,2.223,92.7151,0.0388024,0.0283288,0.930084,-4.94665,1.16781,-0.0138235,0.0914787,0.271474,0.257923,1,-1.8,0,12622,49.663,25.032,12431.6
1544366228,0.634768,2.223,92.7224,-0.139459,-0.0570668,0.932087,-4.9417,1.17302,0.0412747,0.280704,-0.15839,0.512315,1,-1.8,0,12622,49.663,25.032,12431.6
1544466599,0.634768,2.223,92.7427,-0.297958,-0.123039,0.946791,-4.67546,1.13576,0.0407307,1.40733,-2.45663,0.0203638,1,-1.8,0,12622,49.663,25.032,12431.6
1544566958,0.634768,2.223,92.7565,-0.395592,-0.164787,0.961962,-4.27801,1.0513,-0.0372462,1.73457,-3.56257,1.10859,1,-1.8,0,12622,49.663,25.032,12431.6
1544667295,0.634768,2.223,92.7644,-0.44422,-0.18731,0.971439,-3.77772,0.949096,-0.058913,2.01332,-4.06042,2.15392,1,-1.8,0,12622,49.663,25.032,12431.6
1544767646,0.634768,2.223,92.7697,-0.45985,-0.194214,0.973106,-3.22538,0.840528,-0.0680592,2.17777,-4.38828,2.37589,1,-1.8,0,12622,49.663,25.032,12431.6
1544868049,0.634768,2.223,92.7565,-0.45527,-0.188305,0.968941,-2.65061,0.726917,-0.0672142,2.23067,-4.42378,2.68363,1,-1.8,0,12622,49.663,25.032,12431.6
1544968458,0.634768,2.223,92.7407,-0.444359,-0.180998,0.965099,-2.09088,0.610594,-0.0621164,2.12489,-4.34168,2.56304,1,-1.8,0,12622,49.663,25.032,12431.6
1545068832,0.634768,2.223,92.73,-0.429509,-0.173114,0.960864,-1.55481,0.50007,-0.0623674,2.02499,-4.21595,2.22475,1,-1.8,0,12622,49.646,25.526,12672.6
1545169208,0.634768,2.223,92.7246,-0.413651,-0.165066,0.957288,-1.03864,0.384364,-0.0502164,1.83826,-3.88257,2.54056,1,-1.8,0,12622,49.646,25.526,12672.6
1545269573,0.634768,2.223,92.7294,-0.396609,-0.157444,0.954167,-0.548646,0.274991,-0.0356475,1.7469,-3.8346,2.04547,1,-1.8,0,12622,49.646,25.526,12672.6
1545369945,0.634768,2.223,92.7333,-0.379353,-0.15153,0.952217,-0.00399876,0.157341,-0.0255686,1.61811,-3.48948,1.82681,1,-1.8,0,12622,49.646,25.526,12672.6
1545470318,0.634768,2.223,92.7338,-0.338407,-0.132355,0.945907,0.420031,0.0650994,-0.0145831,1.44776,-3.21655,1.79117,1,-1.8,0,12622,49.646,25.526,12672.6
1545570673,0.634768,2.223,92.7347,-0.287183,-0.110594,0.940029,0.775797,-0.0098694,0.00127672,1.28433,-2.85183,0.918225,1,-1.8,0,12622,49.646,25.526,12672.6
1545671016,0.634768,2.223,92.739,-0.236203,-0.0889315,0.935633,1.06635,-0.0594652,-0.00220175,1.09932,-2.32005,0.592859,1,-1.8,0,12622,49.646,25.526,12672.6
1545771357,0.634768,2.223,92.7481,-0.19127,-0.0679183,0.932715,1.28405,-0.0935544,0.00163158,0.828598,-1.7006,0.283216,1,-1.8,0,12622,49.646,25.526,12672.6
1545873795,0.634768,2.223,92.7618,-0.156384,-0.0514288,0.931251,1.45116,-0.117288,0.0127381,0.674281,-1.31377,0.163903,1,-1.8,0,12622,49.646,25.526,12672.6
1545974375,0.634768,2.223,92.7669,-0.12977,-0.0389587,0.930533,1.58456,-0.125743,-0.0018092,0.591152,-1.07224,-0.0290654,1,-1.8,0,12622,49.646,25.526,12672.6
1546074754,0.634768,2.223,92.7764,-0.108895,-0.0269355,0.93007,1.67651,-0.131846,-0.0152837,0.366183,-0.751395,0.0710146,1,-1.8,0,12622,49.651,25.52,12670.9
1546175166,0.634768,2.223,92.7754,-0.0954329,-0.0194535,0.929974,1.73444,-0.135424,-0.0111384,0.249383,-0.554295,-0.0125215,0.7,1.6,0,12622,49.651,25.52,12670.9
1546275572,0.634768,2.223,92.7787,-0.0535983,-0.0117308,0.92622,1.77951,-0.134818,-0.0118321,0.189442,-0.493152,0.246603,0.7,1.6,0,12622,49.651,25.52,12670.9
1546375934,0.634768,2.223,92.7837,0.170237,0.0144292,0.928479,1.77227,-0.100769,0.0558652,0.0989889,0.526676,0.100418,0.7,1.6,0,12622,49.651,25.52,12670.9
1546476261,0.634768,2.223,92.7893,0.35619,0.0359265,0.936829,1.52469,0.0600477,-0.00256389,-0.262345,3.07832,-0.142855,0.7,1.6,0,12622,49.651,25.52,12670.9
1546576664,0.634768,2.223,92.7839,0.447725,0.0449642,0.942862,1.14278,0.292532,-0.0653767,-0.44024,4.15299,1.55023,0.7,1.6,0,12622,49.651,25.52,12670.9
1546676999,0.634768,2.223,92.7799,0.446869,0.0453941,0.944667,0.658965,0.589104,-0.0818187,-0.463094,4.76462,2.43628,0.7,1.6,0,12622,49.651,25.52,12670.9
1546777364,0.634768,2.223,92.7859,0.374667,0.0426282,0.943859,0.191056,0.865212,-0.0478927,-0.517693,4.43169,2.19606,0.7,1.6,0,12622,49.651,25.52,12670.9
1546877729,0.634768,2.223,92.7763,0.282608,0.0341169,0.94029,-0.176548,1.08028,-0.0263972,-0.393848,3.52452,1.17237,0.7,1.6,0,12622,49.651,25.52,12670.9
1546978073,0.634768,2.223,92.7611,0.20375,0.0227578,0.936241,-0.456402,1.2359,-0.0236765,-0.351162,2.63322,0.580247,0.7,1.6,0,12622,49.651,25.52,12670.9
1547078414,0.634768,2.223,92.7667,0.146361,0.0135982,0.933445,-0.667534,1.34715,-0.0287637,-0.31854,1.89352,0.312764,0.7,1.6,0,12622,49.6,26.592,13189.6
1547178714,0.634768,2.223,92.7717,0.103479,0.00599964,0.931815,-0.831366,1.44149,-0.0327396,-0.18725,1.40933,0.0640535,0.7,1.6,0,12622,49.6,26.592,13189.6
1547279062,0.634768,2.223,92.7665,0.0693291,-0.000801062,0.930735,-0.948668,1.51182,-0.0408994,-0.0358314,0.959796,0.109248,0.7,1.6,0,12622,49.6,26.592,13189.6
1547379446,0.634768,2.223,92.7642,0.042952,-0.00596825,0.930332,-1.034,1.56556,-0.0187645,0.0755207,0.591232,0.105511,0.7,1.6,0,12622,49.6,26.592,13189.6
1547479770,0.634768,2.223,92.7665,0.0187975,-0.0105271,0.930294,-1.10605,1.59978,-0.0177047,-0.0583148,0.426743,-0.00136502,0.7,1.6,0,12622,49.6,26.592,13189.6
1547580129,0.634768,2.223,92.7747,0.00181481,-0.0152236,0.929891,-1.15073,1.63116,-0.0231447,0.0659782,0.259154,0.0572479,0.7,1.6,0,12622,49.6,26.592,13189.6
1547680511,0.634768,2.223,92.7723,-0.00867339,-0.0163503,0.929666,-1.17159,1.65305,-0.0176955,0.129218,0.0727813,0.219464,0.7,1.6,0,12622,49.6,26.592,13189.6
1547780885,0.634768,2.223,92.7737,-0.0155516,-0.0178734,0.929226,-1.18314,1.66614,-0.020449,0.106507,-0.00583578,0.0438062,0.7,1.6,0,12622,49.6,26.592,13189.6
1547881228,0.634768,2.223,92.7779,-0.0206339,-0.0181834,0.92895,-1.17954,1.66832,-0.0168634,0.137092,-0.151662,-0.00176111,0.7,1.6,0,12622,49.6,26.592,13189.6
1547981573,0.634768,2.223,92.7835,-0.0205959,-0.0218538,0.928802,-1.17617,1.66928,-0.0175279,0.143883,-0.104003,-0.00996577,0.7,1.6,0,12622,49.6,26.592,13189.6
1548081911,0.634768,2.223,92.7792,-0.0196391,-0.0219637,0.929069,-1.15418,1.67129,-0.0198058,0.212475,-0.192208,-0.249016,0.7,1.6,0,12622,49.496,26.847,13288.2
1548182306,0.634768,2.223,92.7746,-0.0167721,-0.0191902,0.92922,-1.12794,1.6675,-0.0178769,0.165159,-0.207741,0.0373524,-0.5,-4.5,0,12622,49.496,26.847,13288.2
1548282658,0.634768,2.223,92.7722,-0.0257893,-0.0134246,0.930844,-1.11163,1.66796,-0.0251427,0.136168,-0.0916708,-0.150391,-0.5,-4.5,0,12622,49.496,26.847,13288.2
1548383017,0.634768,2.223,92.7748,-0.171763,0.0293013,0.92821,-1.0836,1.64807,0.0165148,-0.0207442,-0.479327,0.367113,-0.5,-4.5,0,12622,49.496,26.847,13288.2
1548483341,0.634768,2.223,92.7826,-0.319419,0.0712152,0.916792,-0.950042,1.47562,-0.00415554,-0.61359,-2.23268,-0.0790191,-0.5,-4.5,0,12622,49.496,26.847,13288.2
1548583606,0.634768,2.223,92.7856,-0.403437,0.0943008,0.907016,-0.726404,1.1972,-0.0480379,-0.79273,-3.19589,1.2629,-0.5,-4.5,0,12622,49.496,26.847,13288.2
1548683875,0.634768,2.223,92.7962,-0.43675,0.105221,0.90037,-0.45084,0.849824,-0.059435,-1.01639,-3.84481,1.60296,-0.5,-4.5,0,12622,49.496,26.847,13288.2
1548784193,0.634768,2.223,92.8025,-0.439515,0.105453,0.898953,-0.16519,0.482673,-0.0642329,-0.999818,-3.88296,1.97724,-0.5,-4.5,0,12622,49.496,26.847,13288.2
1548884552,0.634768,2.223,92.7911,-0.432905,0.0982153,0.901037,0.115533,0.106783,-0.0418223,-1.09512,-3.80617,2.03354,-0.5,-4.5,0,12622,49.496,26.847,13288.2
1548984917,0.634768,2.223,92.7832,-0.423858,0.0877022,0.905202,0.394224,-0.25407,-0.0320608,-1.03403,-3.87777,1.64256,-0.5,-4.5,0,12622,49.496,26.847,13288.2
1549085282,0.634768,2.223,92.7872,-0.41926,0.0748481,0.909815,0.67202,-0.591766,-0.0187303,-0.926641,-3.74178,1.64203,-0.5,-4.5,0,12622,49.561,26.129,12949.8
1549185706,0.634768,2.223,92.7924,-0.415146,0.0591641,0.915609,0.948367,-0.896727,-0.0309898,-0.699715,-3.57969,1.36249,-0.5,-4.5,0,12622,49.561,26.129,12949.8
1549286089,0.634768,2.223,92.7897,-0.408363,0.0463273,0.920116,1.23091,-1.18416,-0.0310678,-0.549811,-3.45016,1.44125,-0.5,-4.5,0,12622,49.561,26.129,12949.8
1549386469,0.634768,2.223,92.7862,-0.401647,0.0350038,0.923254,1.50352,-1.44712,-0.0500709,-0.396779,-3.27378,1.19413,-0.5,-4.5,0,12622,49.561,26.129,12949.8
1549486811,0.634768,2.223,92.7774,-0.390215,0.0273618,0.92452,1.78857,-1.69124,-0.0427551,-0.197824,-3.19472,1.43324,-0.5,-4.5,0,12622,49.561,26.129,12949.8
1549587157,0.634768,2.223,92.7764,-0.373481,0.0248839,0.924256,2.06916,-1.92697,-0.025642,-0.189396,-3.13703,1.33095,-0.5,-4.5,0,12622,49.561,26.129,12949.8
1549687512,0.634768,2.223,92.7715,-0.336181,0.0246708,0.923865,2.32527,-2.14173,-0.0238661,-0.229722,-2.84952,1.12045,-0.5,-4.5,0,12622,49.561,26.129,12949.8
1549787863,0.634768,2.223,92.7642,-0.294397,0.0249403,0.924074,2.58365,-2.36531,-0.0246398,-0.267842,-2.36715,1.03584,-0.5,-4.5,0,12622,49.561,26.129,12949.8
1549888272,0.634768,2.223,92.7609,-0.24898,0.0224049,0.925148,2.75358,-2.50707,-0.00999177,-0.171928,-1.91419,0.626206,-0.5,-4.5,0,12622,49.561,26.129,12949.8
1549988649,0.634768,2.223,92.7549,-0.214086,0.0173962,0.926562,2.8868,-2.61205,-0.0222488,-0.10798,-1.452,0.34506,-0.5,-4.5,0,12622,49.561,26.129,12949.8
1550088983,0.634768,2.223,92.755,-0.185011,0.013282,0.927938,3.0025,-2.68247,-0.0246098,0.0786956,-1.18155,0.217827,-0.5,-4.5,0,12622,49.561,26.129,12949.8
1550189418,0.634768,2.223,92.7587,-0.161063,0.00723009,0.93035,3.09129,-2.73562,-0.025163,-0.00522542,-0.859008,0.370966,-0.3,-1.2,0,12622,49.658,23.302,11571.3
1550289756,0.634768,2.223,92.7617,-0.119522,0.0037431,0.928489,3.17413,-2.76267,-0.0172007,0.161507,-0.771908,0.545157,-0.3,-1.2,0,12622,49.658,23.302,11571.3
1550390145,0.634768,2.223,92.7809,0.10706,-0.00491014,0.928548,3.19621,-2.73209,0.0666404,0.272627,0.383799,0.667787,-0.3,-1.2,0,12622,49.658,23.302,11571.3
1550490470,0.634768,2.223,92.8011,0.331555,-0.00624728,0.927531,2.95801,-2.49252,0.0657341,0.348215,3.53608,0.154646,-0.3,-1.2,0,12622,49.658,23.302,11571.3
1550590823,0.634768,2.223,92.8086,0.416071,0.00849116,0.928099,2.61471,-2.18501,-0.0568816,0.207372,4.44502,1.18609,-0.3,-1.2,0,12622,49.658,23.302,11571.3
1550691848,0.634768,2.223,92.8067,0.407731,0.0220926,0.928116,2.20918,-1.84994,-0.107254,0.0786931,4.70176,1.89037,-0.3,-1.2,0,12622,49.658,23.302,11571.3
1550792454,0.634768,2.223,92.7886,0.337918,0.0312391,0.927516,1.80998,-1.54082,-0.110398,-0.0362468,4.38873,1.57725,-0.3,-1.2,0,12622,49.658,23.302,11571.3
1550892850,0.634768,2.223,92.7505,0.235765,0.0276657,0.923976,1.48891,-1.3083,-0.107724,-0.204237,3.38698,1.09951,-0.3,-1.2,0,12622,49.658,23.302,11571.3
1550993208,0.634768,2.223,92.7103,0.144579,0.014073,0.921794,1.26584,-1.13596,-0.102549,-0.0704833,2.33451,0.528392,-0.3,-1.2,0,12622,49.658,23.302,11571.3
1551093497,0.634768,2.223,92.6977,0.073494,0.0100601,0.923688,1.10951,-0.999146,-0.0823102,0.0954001,1.63051,0.74349,-0.3,-1.2,0,12622,49.658,23.302,11571.3
1551193817,0.634768,2.223,92.6863,0.025314,0.0124467,0.926227,1.00362,-0.901674,-0.0310857,0.0953692,1.0368,0.399409,-0.3,-1.2,0,12622,49.587,25.67,12729
1551294167,0.634768,2.223,92.6838,-0.0118764,0.0161712,0.927679,0.935464,-0.831271,-0.0201737,0.110268,0.658674,0.214083,-0.3,-1.2,0,12622,49.587,25.67,12729
1551394558,0.634768,2.223,92.6815,-0.0369425,0.0210747,0.928667,0.887834,-0.797596,-0.0119483,0.000838557,0.282647,0.263966,-0.3,-1.2,0,12622,49.587,25.67,12729
1551494949,0.634768,2.223,92.6933,-0.050575,0.0260673,0.928817,0.874853,-0.786262,0.00566426,0.00356897,-0.0463035,0.095224,-0.3,-1.2,0,12622,49.587,25.67,12729
1551595326,0.634768,2.223,92.6967,-0.0582455,0.0296274,0.928646,0.851381,-0.782319,0.00823228,-0.0757519,0.0223444,0.112326,-0.3,-1.2,0,12622,49.587,25.67,12729
1551695693,0.634768,2.223,92.6908,-0.0608481,0.0305529,0.928579,0.843687,-0.793027,0.0125725,-0.0798241,-0.155213,0.159791,-0.3,-1.2,0,12622,49.587,25.67,12729
1551796124,0.634768,2.223,92.6868,-0.0610462,0.0307341,0.92833,0.836785,-0.811671,0.0120536,-0.105475,-0.189625,-0.071818,-0.3,-1.2,0,12622,49.587,25.67,12729
1551896478,0.634768,2.223,92.687,-0.0589206,0.0294531,0.928194,0.823235,-0.826704,0.0122857,-0.126743,-0.0650571,0.0552206,-0.3,-1.2,0,12622,49.587,25.67,12729
1551996802,0.634768,2.223,92.6856,-0.0593927,0.0277542,0.928472,0.817343,-0.850894,0.00702898,-0.150267,-0.150089,0.0788156,-0.3,-1.2,0,12622,49.587,25.67,12729
1552097154,0.634768,2.223,92.6749,-0.0587907,0.0253029,0.928547,0.822594,-0.86526,0.00455213,0.0299302,-0.12485,-0.0807427,-0.3,-1.2,0,12622,49.587,25.67,12729
1552197571,0.634768,2.223,92.6674,-0.0567838,0.024477,0.928781,0.816289,-0.88081,0.0025301,-0.0813723,-0.0253424,-0.0464208,0.8,-5,0,12622,49.546,25.001,12387
1552297882,0.634768,2.223,92.6711,-0.0830325,0.0107683,0.929619,0.809701,-0.899883,0.0105207,-0.125961,0.0487974,0.419085,0.8,-5,0,12622,49.546,25.001,12387
1552398280,0.634768,2.223,92.6724,-0.208708,-0.036971,0.931462,0.85367,-0.925483,0.023922,0.27018,-0.722737,-0.4059,0.8,-5,0,12622,49.546,25.001,12387
1552498644,0.634768,2.223,92.672,-0.325005,-0.0753438,0.941146,1.05295,-1.0045,-0.0223104,0.657611,-2.12715,0.309452,0.8,-5,0,12622,49.546,25.001,12387
1552599012,0.634768,2.223,92.6747,-0.395107,-0.0979049,0.949716,1.37488,-1.11545,-0.0281581,1.10876,-3.12011,1.12218,0.8,-5,0,12622,49.546,25.001,12387
1552699390,0.634768,2.223,92.6644,-0.430187,-0.102855,0.952609,1.76062,-1.25053,-0.0206259,1.18372,-3.43289,1.78145,0.8,-5,0,12622,49.546,25.001,12387
1552799749,0.634768,2.223,92.6605,-0.43982,-0.102292,0.952952,2.16352,-1.39778,-0.0031065,1.15023,-3.50868,2.01159,0.8,-5,0,12622,49.546,25.001,12387
1552900105,0.634769,2.223,92.6502,-0.436866,-0.0968283,0.951464,2.55903,-1.53874,0.00562453,1.1942,-3.45497,1.94183,0.8,-5,0,12622,49.546,25.001,12387
1553001336,0.634769,2.223,92.6412,-0.419045,-0.0883198,0.948343,2.95415,-1.68635,0.0217346,1.1217,-3.43712,1.97844,0.8,-5,0,12622,49.546,25.001,12387
1553107579,0.634769,2.223,92.6456,-0.37282,-0.0752611,0.943485,3.3763,-1.85815,0.0369701,0.900122,-3.11142,1.35881,0.8,-5,0,12622,49.546,25.001,12387
1553207949,0.634769,2.223,92.6611,-0.322842,-0.0619283,0.938973,3.66471,-1.9655,0.0447473,0.789728,-2.56137,0.925275,0.8,-5,0,12622,49.606,25.431,12615.3
1553308431,0.634769,2.223,92.6696,-0.2766,-0.0460153,0.934508,3.84901,-2.02713,0.0390311,0.708699,-2.15561,0.461375,0.8,-5,0,12622,49.606,25.431,12615.3
1553408800,0.634769,2.223,92.6773,-0.237327,-0.0309022,0.931646,4.07593,-2.12028,0.0414647,0.422258,-1.69744,0.39109,0.8,-5,0,12622,49.606,25.431,12615.3
1553509159,0.634769,2.223,92.6967,-0.201324,-0.0197495,0.929852,4.21648,-2.17292,0.0410683,0.343706,-1.23241,0.304776,0.8,-5,0,12622,49.606,25.431,12615.3
1553609519,0.634769,2.223,92.7227,-0.17536,-0.0146826,0.929479,4.32609,-2.21673,0.0386843,0.224024,-0.976482,0.0787513,0.8,-5,0,12622,49.606,25.431,12615.3
1553709875,0.634769,2.223,92.7325,-0.153174,-0.0123232,0.930032,4.40794,-2.24109,0.0379808,0.2237,-0.730761,-0.138284,0.8,-5,0,12622,49.606,25.431,12615.3
1553810230,0.634769,2.223,92.73,-0.138163,-0.0100314,0.930482,4.46797,-2.25459,0.0250625,0.151637,-0.567761,-0.290342,0.8,-5,0,12622,49.606,25.431,12615.3
1553910560,0.634769,2.223,92.736,-0.126414,-0.00639888,0.930267,4.5255,-2.25816,0.0162709,0.233098,-0.418595,-0.0390897,0.8,-5,0,12622,49.606,25.431,12615.3
1554010893,0.634769,2.223,92.7404,-0.114733,-0.00166761,0.929807,4.57949,-2.24947,0.00600103,0.310291,-0.355229,0.0294858,0.8,-5,0,12622,49.606,25.431,12615.3
1554111295,0.634769,2.223,92.7341,-0.108745,0.00247475,0.929047,4.61798,-2.24735,-0.00914503,0.196704,-0.323498,-0.0441146,0.8,-5,0,12622,49.606,25.431,12615.3
1554212126,0.634769,2.223,92.7223,-0.104087,0.00719249,0.928409,4.63322,-2.24806,-0.00882112,0.076978,-0.215842,0.0453835,-4.5,-4.8,0,12617,49.6,25.39,12593.4
1554312557,0.63477,2.223,92.7113,-0.0895209,0.0390748,0.929092,4.65063,-2.24634,-0.00226072,0.225729,-0.18693,0.925045,-4.5,-4.8,0,12617,49.6,25.39,12593.4
1554413005,0.63477,2.223,92.7055,-0.0408425,0.193693,0.929754,4.6286,-2.26556,0.0513612,-0.677202,0.103436,0.0683753,-4.5,-4.8,0,12617,49.6,25.39,12593.4
1554513476,0.63477,2.223,92.7142,-0.00781249,0.327893,0.926006,4.43842,-2.39773,-0.0235802,-2.44455,0.645625,-0.142635,-4.5,-4.8,0,12617,49.6,25.39,12593.4
1554613875,0.63477,2.223,92.7118,0.0011163,0.406255,0.921389,4.13779,-2.62133,-0.0404328,-3.29431,0.91688,1.70884,-4.5,-4.8,0,12617,49.6,25.39,12593.4
1554714268,0.63477,2.223,92.7248,-0.0101848,0.43656,0.915943,3.78745,-2.90467,-0.0313136,-3.90139,0.866616,1.77247,-4.5,-4.8,0,12617,49.6,25.39,12593.4
1554814787,0.63477,2.223,92.7388,-0.0309396,0.438285,0.911405,3.448,-3.21677,-0.0326272,-4.06883,0.650203,1.7141,-4.5,-4.8,0,12617,49.6,25.39,12593.4
1554915156,0.63477,2.223,92.7319,-0.0516835,0.427607,0.908453,3.12949,-3.52847,-0.0314056,-3.87907,0.518379,1.68449,-4.5,-4.8,0,12617,49.6,25.39,12593.4
1555015513,0.63477,2.223,92.7274,-0.0696704,0.417328,0.90724,2.83614,-3.83153,-0.0314213,-3.60249,0.422412,1.72717,-4.5,-4.8,0,12617,49.6,25.39,12593.4
1555115865,0.63477,2.223,92.7407,-0.0911891,0.412582,0.905196,2.56726,-4.14664,-0.0300079,-3.6219,0.166718,1.56913,-4.5,-4.8,0,12617,49.6,25.39,12593.4
1555216200,0.63477,2.223,92.7581,-0.116036,0.408938,0.903059,2.32138,-4.45701,-0.0357938,-3.45315,0.0151236,1.42895,-4.5,-4.8,0,12617,49.49,27.898,13806.7
1555316558,0.63477,2.223,92.754,-0.134043,0.403461,0.901732,2.09472,-4.78248,-0.045563,-3.45548,-0.203697,1.51061,-4.5,-4.8,0,12617,49.49,27.898,13806.7
1555417338,0.63477,2.223,92.7517,-0.143909,0.37632,0.902602,1.88713,-5.12034,-0.0436232,-3.44205,-0.390404,1.28066,-4.5,-4.8,0,12617,49.49,27.898,13806.7
1555517706,0.63477,2.223,92.761,-0.144466,0.332464,0.905975,1.72011,-5.43198,-0.0213056,-2.93363,-0.452418,1.1992,-4.5,-4.8,0,12617,49.49,27.898,13806.7
1555618030,0.63477,2.223,92.77,-0.140488,0.283885,0.910908,1.58127,-5.6948,-0.00999821,-2.48469,-0.427007,0.852706,-4.5,-4.8,0,12617,49.49,27.898,13806.7
1555718409,0.63477,2.223,92.7735,-0.137924,0.239574,0.915656,1.46716,-5.91411,0.0111334,-2.05357,-0.355254,0.730504,-4.5,-4.8,0,12617,49.49,27.898,13806.7
1555818714,0.63477,2.223,92.7783,-0.138562,0.204102,0.918873,1.39373,-6.09,0.0185331,-1.59079,-0.417308,0.326486,-4.5,-4.8,0,12617,49.49,27.898,13806.7
1555919034,0.63477,2.223,92.7645,-0.135477,0.175557,0.921488,1.34442,-6.23836,-0.00613539,-1.29266,-0.373555,0.316487,-4.5,-4.8,0,12617,49.49,27.898,13806.7
1556019382,0.63477,2.223,92.7558,-0.127887,0.150235,0.92332,1.30564,-6.3715,-0.00774488,-1.1058,-0.320652,0.349983,-4.5,-4.8,0,12617,49.49,27.898,13806.7
1556119724,0.63477,2.223,92.741,-0.118684,0.130373,0.924286,1.27712,-6.46147,-0.00682199,-0.735943,-0.234593,0.0638038,-4.5,-4.8,0,12617,49.49,27.898,13806.7
1556220148,0.63477,2.223,92.7246,-0.11505,0.116799,0.925253,1.25895,-6.53972,-0.021139,-0.649812,-0.17797,0.0715282,4.05825,7.04036,0,12617,49.49,27.898,13806.7
1556320501,0.63477,2.223,92.7098,-0.101854,0.0961116,0.927882,1.25428,-6.59427,-0.0390859,-0.447039,-0.159275,0.168774,4.24974,7.23732,0,12577,49.679,23.687,11767.5
1556420873,0.63477,2.223,92.7019,0.0613297,-0.0667589,0.93032,1.24739,-6.63166,0.0377264,-0.137929,0.171109,1.31387,4.4412,7.4227,0,12577,49.679,23.687,11767.5
1556521271,0.63477,2.223,92.7091,0.22044,-0.201812,0.906575,1.18937,-6.33611,0.117496,1.99264,2.38813,0.953869,4.31794,7.56378,0,12577,49.679,23.687,11767.5
1556621659,0.63477,2.223,92.7094,0.287076,-0.256671,0.89023,1.10475,-5.87571,0.0834441,2.85143,3.28455,1.66809,4.28518,7.71594,0,12577,49.679,23.687,11767.5
1556723078,0.63477,2.223,92.7081,0.317729,-0.284359,0.880406,1.00939,-5.36693,0.0642578,3.10915,3.62073,1.7749,4.27379,7.84738,0,12577,49.679,23.687,11767.5
1556827660,0.63477,2.223,92.6978,0.333306,-0.295908,0.875663,0.918565,-4.84067,0.0133254,3.14875,3.60125,1.95643,4.31747,7.97137,0,12577,49.679,23.687,11767.5
1556928067,0.63477,2.223,92.6871,0.344557,-0.30451,0.872066,0.787763,-4.18137,-0.033198,3.157,3.80794,2.18307,4.34853,8.086,0,12577,49.679,23.687,11767.5
1557028421,0.63477,2.223,92.6747,0.358527,-0.308011,0.87015,0.687416,-3.61638,-0.0615584,3.29866,3.82474,2.35349,4.40027,8.18994,0,12577,49.679,23.687,11767.5
1557128838,0.63477,2.22299,92.6645,0.381382,-0.314511,0.867179,0.56533,-3.03006,-0.100409,3.26048,3.8717,2.80534,4.4024,8.25178,0,12577,49.679,23.687,11767.5
1557229202,0.63477,2.22299,92.6524,0.37918,-0.298796,0.873548,0.426795,-2.4035,-0.110493,3.35556,4.12122,2.69201,4.52265,8.3306,0,12577,49.679,23.687,11767.5
1557329556,0.63477,2.22299,92.6367,0.347715,-0.263492,0.885206,0.278164,-1.81418,-0.115297,3.08059,4.07168,2.47668,4.67668,8.38533,0,12577,49.507,25.375,12562.4
1557429900,0.63477,2.22299,92.6258,0.362834,-0.239546,0.886762,0.109557,-1.27674,-0.0868576,2.67446,3.93933,2.55233,4.73248,8.44985,0,12577,49.507,25.375,12562.4
1557530273,0.63477,2.22299,92.6276,0.363874,-0.227361,0.887492,-0.089777,-0.727742,-0.0450284,2.53068,4.05729,2.57479,4.74164,8.45172,0,12577,49.507,25.375,12562.4
1557631319,0.63477,2.22299,92.6383,0.363569,-0.218166,0.889739,-0.295339,-0.214267,-0.0108499,2.37629,4.02845,2.1713,4.7661,8.44124,0,12577,49.507,25.375,12562.4
1557735416,0.63477,2.22299,92.6651,0.353036,-0.20998,0.89299,-0.504506,0.271049,-0.00219701,2.2745,4.00622,1.86907,4.78102,8.38472,0,12577,49.507,25.375,12562.4
1557835765,0.63477,2.22299,92.6853,0.342876,-0.20397,0.895006,-0.703871,0.732604,0.00718129,2.15486,3.75814,1.90954,4.78454,8.33131,0,12577,49.507,25.375,12562.4
1557936144,0.63477,2.223,92.7069,0.330661,-0.199902,0.896458,-0.897689,1.1688,0.00897723,2.03404,3.59994,1.60066,4.77362,8.25165,0,12577,49.507,25.375,12562.4
1558036504,0.63477,2.223,92.7223,0.318144,-0.196382,0.89759,-1.08462,1.57359,0.017923,1.92687,3.39466,1.59796,4.75679,8.17089,0,12577,49.507,25.375,12562.4
1558136863,0.63477,2.223,92.7242,0.306563,-0.193218,0.898757,-1.25537,1.95895,0.0171648,1.89945,3.2404,1.38357,4.74089,8.0682,0,12577,49.507,25.375,12562.4
1558237279,0.63477,2.223,92.7229,0.296842,-0.191691,0.899371,-1.4178,2.32861,0.0145175,1.8748,3.13091,1.11667,4.71185,7.96291,0,12577,49.507,25.375,12562.4
1558337632,0.63477,2.223,92.7151,0.288702,-0.192725,0.899394,-1.5692,2.68213,0.00431106,1.82004,2.93251,1.25611,4.68089,7.84395,0,12577,49.687,26.181,13008.6
1558438001,0.63477,2.223,92.7059,0.281151,-0.196054,0.899288,-1.71022,3.02107,-0.00248637,1.7719,2.76117,1.30569,4.63356,7.71036,0,12577,49.687,26.181,13008.6
1558538364,0.63477,2.223,92.696,0.275163,-0.202585,0.898444,-1.8377,3.35494,0.0027473,1.86972,2.74125,1.09523,4.58638,7.57306,0,12577,49.687,26.181,13008.6
1558638743,0.63477,2.223,92.6841,0.270133,-0.210728,0.897058,-1.95029,3.68075,-0.00368623,1.94312,2.60763,1.14391,4.51929,7.42724,0,12577,49.687,26.181,13008.6
1558739115,0.63477,2.223,92.6756,0.265272,-0.217079,0.89625,-2.05456,4.00835,-0.0100252,2.03219,2.52734,1.23833,4.46324,7.2786,0,12577,49.687,26.181,13008.6
1558839466,0.63477,2.223,92.6638,0.261614,-0.22016,0.896025,-2.14326,4.32772,-0.0110236,2.05492,2.34921,1.28611,4.39982,7.1213,0,12577,49.687,26.181,13008.6
1558939820,0.63477,2.223,92.6537,0.257386,-0.22217,0.896486,-2.22268,4.64841,-0.000518942,2.09582,2.31363,1.20659,4.34497,6.96286,0,12577,49.687,26.181,13008.6
1559040183,0.63477,2.223,92.6452,0.253141,-0.223874,0.897169,-2.3003,4.95727,0.0131764,2.01566,2.26795,1.14652,4.2806,6.79942,0,12577,49.687,26.181,13008.6
1559140487,0.63477,2.223,92.652,0.250123,-0.228253,0.897185,-2.3739,5.2639,0.0260567,2.06099,2.22913,1.00693,4.20262,6.61807,0,12577,49.687,26.181,13008.6
1559240893,0.63477,2.223,92.6626,0.246988,-0.236377,0.89667,-2.44484,5.55354,0.0233169,1.94282,2.16968,0.966446,4.10751,6.42794,0,12577,49.687,26.181,13008.6
1559341277,0.63477,2.223,92.6699,0.235425,-0.243722,0.896522,-2.50832,5.84398,0.0192841,2.00417,2.11978,0.933612,4.02005,6.24968,0,12533,49.632,22.845,11338.4
1559441631,0.63477,2.223,92.6799,0.198821,-0.225228,0.902362,-2.54679,6.12294,0.0219069,1.97344,1.77698,0.893913,3.97729,6.06291,0,12533,49.632,22.845,11338.4
1559541996,0.63477,2.223,92.6923,0.146588,-0.192789,0.910043,-2.56817,6.35891,0.046003,1.80291,1.43456,0.632519,3.94755,5.8789,0,12533,49.632,22.845,11338.4
1559642362,0.63477,2.223,92.6991,0.0944676,-0.15798,0.916251,-2.5673,6.52115,0.0483584,1.37876,0.819278,0.131478,3.88588,5.67351,0,12533,49.632,22.845,11338.4
1559742717,0.63477,2.223,92.706,0.0448515,-0.122761,0.921046,-2.54181,6.62761,0.0414979,1.10329,0.404837,0.102804,3.8184,5.48875,0,12533,49.632,22.845,11338.4
1559843092,0.63477,2.223,92.7111,-0.000143407,-0.0887665,0.925177,-2.4932,6.66759,0.0448876,0.70434,-0.248089,-0.055869,3.71954,5.27081,0,12533,49.632,22.845,11338.4
1559943441,0.63477,2.223,92.7145,-0.0350751,-0.0537198,0.927072,-2.42842,6.65472,0.0405023,0.39886,-0.564407,-0.0102344,3.62008,5.08778,0,12533,49.632,22.845,11338.4
1560043863,0.63477,2.223,92.7152,-0.0624563,-0.0230357,0.928315,-2.36147,6.5961,0.0389042,0.0783885,-0.872906,-0.0602798,3.4926,4.87475,0,12533,49.632,22.845,11338.4
1560144244,0.634769,2.223,92.7203,-0.0858191,0.00628164,0.927597,-2.29772,6.49879,0.0454445,-0.278712,-1.0675,0.138463,3.37068,4.69486,0,12533,49.632,22.845,11338.4
1560244515,0.634769,2.223,92.7302,-0.103081,0.0297383,0.926366,-2.23568,6.3706,0.0601933,-0.556796,-1.21523,0.0157441,3.2272,4.48975,0,12533,49.632,22.845,11338.4
1560344825,0.634769,2.223,92.7378,-0.117699,0.0447524,0.925185,-2.17898,6.20604,0.0496877,-0.864199,-1.39097,-0.320616,3.10999,4.32518,0,12533,49.352,29.26,14440.4
1560445087,0.634769,2.223,92.7407,-0.126493,0.053801,0.924198,-2.11695,6.029,0.0260069,-0.937771,-1.50585,-0.0266133,2.98454,4.146,0,12533,49.352,29.26,14440.4
1560545378,0.634769,2.223,92.7395,-0.131776,0.0569584,0.922705,-2.04981,5.84862,0.00815612,-0.921754,-1.5406,-0.0872613,2.87124,3.98736,0,12533,49.352,29.26,14440.4
1560645732,0.634769,2.223,92.7347,-0.137772,0.0555386,0.922475,-1.98202,5.66554,-0.0174167,-0.862726,-1.52609,0.0694802,2.75411,3.81213,0,12533,49.352,29.26,14440.4
1560746100,0.634769,2.223,92.7209,-0.147428,0.0555323,0.922029,-1.90398,5.47892,-0.0309194,-0.866555,-1.65043,0.232197,2.65935,3.66945,0,12533,49.352,29.26,14440.4
1560846475,0.634769,2.223,92.7061,-0.15092,0.0540226,0.922899,-1.8145,5.28124,-0.0314165,-0.907909,-1.82687,0.236133,2.56387,3.51761,0,12533,49.352,29.26,14440.4
1560946847,0.634769,2.223,92.6965,-0.148061,0.0546336,0.923173,-1.72035,5.08815,-0.0303008,-0.803561,-1.75877,0.508402,2.48171,3.39381,0,12533,49.352,29.26,14440.4
1561047196,0.634769,2.223,92.6814,-0.143467,0.0576319,0.923429,-1.62871,4.89679,-0.0265522,-0.896171,-1.7729,0.115639,2.38934,3.25715,0,12533,49.352,29.26,14440.4
1561147561,0.634769,2.223,92.6698,-0.133926,0.056559,0.923833,-1.54368,4.71888,-0.0336599,-0.860994,-1.59257,0.341746,2.30702,3.13887,0,12533,49.352,29.26,14440.4
1561247912,0.634769,2.223,92.6657,-0.122184,0.0532247,0.924461,-1.44148,4.50774,-0.0217765,-0.777739,-1.56095,0.368439,2.22216,3.01614,0,12533,49.352,29.26,14440.4
1561348310,0.634769,2.223,92.6647,-0.11341,0.0530039,0.925111,-1.36642,4.34817,-0.010512,-0.734504,-1.37522,0.215415,2.13777,2.90034,0,12533,49.35,29.304,14461.5
1561448598,0.634769,2.223,92.664,-0.104471,0.0523899,0.925377,-1.30817,4.19189,-0.00302747,-0.790405,-1.17804,0.571648,2.05519,2.78871,0,12533,49.35,29.304,14461.5
1561548968,0.634769,2.223,92.6737,-0.0987526,0.0517773,0.926231,-1.24823,4.05124,0.00729453,-0.702777,-1.13474,0.256528,1.97581,2.68623,0,12533,49.35,29.304,14461.5
1561649356,0.634769,2.223,92.6864,-0.09281,0.0498823,0.926472,-1.18597,3.92424,0.0065429,-0.565269,-1.11417,0.0576122,1.89597,2.58348,0,12533,49.35,29.304,14461.5
1561749735,0.634769,2.223,92.6948,-0.0887369,0.0545998,0.926959,-1.12976,3.80159,0.00917631,-0.675699,-1.0806,0.0701585,1.81395,2.48215,0,12533,49.35,29.304,14461.5
1561850099,0.634769,2.223,92.7025,-0.0852238,0.0627312,0.926716,-1.07809,3.67409,0.0152683,-0.713095,-1.06,0.353957,1.73678,2.38759,0,12533,49.35,29.304,14461.5
1561950422,0.634769,2.223,92.7118,-0.0818966,0.0730902,0.92714,-1.04569,3.54721,0.0209446,-0.874327,-0.866748,0.187523,1.65252,2.28725,0,12533,49.35,29.304,14461.5
1562050777,0.634769,2.223,92.7202,-0.0767095,0.0766985,0.926503,-1.02625,3.42246,0.0135423,-0.934743,-0.78642,0.0603748,1.57873,2.20106,0,12533,49.35,29.304,14461.5
1562151148,0.634769,2.223,92.7208,-0.0751386,0.078042,0.926019,-1.02138,3.29824,0.0145057,-1.04522,-0.71687,0.170435,1.50049,2.10976,0,12533,49.35,29.304,14461.5
1562251596,0.634769,2.223,92.7196,-0.0762615,0.0773497,0.925135,-1.01379,3.16925,0.0107139,-1.03706,-0.73781,0.313674,1.42754,2.02218,0,12533,49.35,29.304,14461.5
1562351974,0.634769,2.223,92.7186,-0.0786298,0.0767677,0.92445,-1.00354,3.04415,0.00995755,-0.991583,-0.845215,0.0431714,1.35675,1.93604,0,12533,49.35,29.304,14461.5
1562452350,0.634769,2.223,92.7178,-0.0801308,0.0729944,0.924419,-0.982818,2.9231,0.00406079,-0.910567,-0.877625,0.0836231,1.29003,1.84863,0,12533,49.579,25.365,12575.7
1562552728,0.634769,2.223,92.7081,-0.0850436,0.0710977,0.924121,-0.961477,2.81197,-0.0101276,-0.82607,-0.835626,0.294489,1.22705,1.76725,0,12533,49.579,25.365,12575.7
1562653136,0.634769,2.223,92.6973,-0.090101,0.0667376,0.924236,-0.942527,2.69219,-0.00964204,-0.872823,-0.842161,0.355716,1.16477,1.68252,0,12533,49.579,25.365,12575.7
1562753496,0.634769,2.223,92.6912,-0.0922084,0.0623325,0.924511,-0.910708,2.58028,-0.0153091,-0.77232,-0.916443,0.253957,1.10479,1.59589,0,12533,49.579,25.365,12575.7
1562853930,0.634769,2.223,92.6834,-0.0932462,0.0603122,0.924965,-0.883041,2.46367,-0.00478191,-0.820807,-0.873998,0.289624,1.05091,1.5167,0,12533,49.579,25.365,12575.7
1562954353,0.634769,2.223,92.6825,-0.0959539,0.0586691,0.925083,-0.848566,2.35143,3.1027e-05,-0.755742,-0.913645,0.197332,1.00349,1.44599,0,12533,49.579,25.365,12575.7
1563054782,0.634769,2.223,92.687,-0.0936525,0.0574061,0.925618,-0.803233,2.24191,-0.00507613,-0.728147,-0.989113,0.125307,0.957359,1.37581,0,12533,49.579,25.365,12575.7
1563155150,0.634769,2.223,92.6813,-0.0917238,0.0569987,0.925518,-0.769293,2.14558,-0.000985996,-0.629086,-0.830284,0.192351,0.909232,1.30873,0,12533,49.579,25.365,12575.7
1563255855,0.634769,2.223,92.6764,-0.0872919,0.0567931,0.925945,-0.744417,2.04477,0.00573622,-0.699588,-0.717999,0.559454,0.863384,1.24233,0,12533,49.579,25.365,12575.7
1563356193,0.634769,2.223,92.6664,-0.0887196,0.0542663,0.925789,-0.713148,1.94264,0.00977276,-0.736937,-0.810481,0.261302,0.81879,1.1834,0,12533,49.579,25.365,12575.7
1563456565,0.634769,2.223,92.6555,-0.0873077,0.049031,0.926047,-0.683627,1.84504,0.00953504,-0.680322,-0.798887,0.439697,0.781073,1.13002,0,12489,49.61,23.505,11660.8
1563556909,0.634769,2.223,92.6585,-0.0867763,0.0452768,0.926868,-0.651579,1.74428,0.0144161,-0.714748,-0.867358,0.0217206,0.738825,1.07346,0,12489,49.61,23.505,11660.8
1563657266,0.634769,2.223,92.6552,-0.0849401,0.0394155,0.927436,-0.613959,1.64655,0.010798,-0.617687,-0.84832,0.163775,0.704632,1.02528,0,12489,49.61,23.505,11660.8
1563757618,0.634769,2.223,92.6564,-0.0817299,0.0348385,0.928667,-0.573232,1.56053,0.0102808,-0.554179,-0.814992,0.103447,0.665916,0.973702,0,12489,49.61,23.505,11660.8
1563857980,0.634769,2.223,92.6523,-0.0800227,0.0313226,0.92952,-0.536014,1.48319,0.00969264,-0.482365,-0.741916,0.127033,0.634716,0.930321,0,12489,49.61,23.505,11660.8
1563958313,0.634769,2.223,92.6512,-0.0776191,0.0289193,0.929663,-0.496568,1.41535,0.0201779,-0.35902,-0.723125,0.136371,0.601024,0.888868,0,12489,49.61,23.505,11660.8
1564058680,0.634769,2.223,92.6456,-0.0732355,0.0286871,0.930179,-0.449963,1.35663,0.0183548,-0.276331,-0.683129,0.0634021,0.571033,0.849417,0,12489,49.61,23.505,11660.8
1564159026,0.634769,2.223,92.6485,-0.0660354,0.0280846,0.930182,-0.419341,1.30117,0.0185365,-0.388315,-0.570178,-0.118739,0.538116,0.811322,0,12489,49.61,23.505,11660.8
1564259382,0.634769,2.223,92.6532,-0.062305,0.0301243,0.929394,-0.386295,1.24686,0.0158988,-0.34055,-0.549775,-0.024766,0.507931,0.776069,0,12489,49.61,23.505,11660.8
1564359747,0.634769,2.223,92.6561,-0.0601676,0.032604,0.928759,-0.367067,1.19598,0.0200084,-0.401679,-0.473246,-0.0959867,0.474742,0.742557,0,12489,49.61,23.505,11660.8
1564460119,0.634769,2.223,92.6539,-0.0618046,0.0369567,0.927797,-0.34649,1.13832,0.01705,-0.439633,-0.513144,0.0613326,0.445342,0.711123,0,12489,49.572,23.505,11651.9
1564560498,0.634769,2.223,92.6505,-0.0611688,0.0386961,0.927514,-0.327375,1.07999,0.0213226,-0.431534,-0.517734,0.202623,0.412772,0.679634,0,12489,49.572,23.505,11651.9
1564660909,0.634769,2.223,92.6495,-0.0650984,0.0427407,0.927035,-0.313997,1.0278,0.0232,-0.45027,-0.469713,-0.0745651,0.38361,0.649109,0,12489,49.572,23.505,11651.9
1564761258,0.634769,2.223,92.6463,-0.0641738,0.0438013,0.92706,-0.303284,0.973858,0.0251616,-0.489506,-0.441205,0.104561,0.354716,0.618769,0,12489,49.572,23.505,11651.9
1564861574,0.634769,2.223,92.6427,-0.0670713,0.0471394,0.927116,-0.286332,0.913018,0.031655,-0.477698,-0.517123,0.191685,0.330189,0.591289,0,12489,49.572,23.505,11651.9
1564961913,0.634769,2.223,92.6471,-0.0650455,0.0451877,0.927124,-0.272812,0.852256,0.0411542,-0.476014,-0.528125,0.106337,0.306285,0.562262,0,12489,49.572,23.505,11651.9
1565062180,0.634769,2.223,92.6567,-0.0647407,0.0446853,0.927554,-0.256615,0.800817,0.0406806,-0.400312,-0.496943,-0.187443,0.287053,0.538047,0,12489,49.572,23.505,11651.9
1565162548,0.634769,2.223,92.6611,-0.0640403,0.0432761,0.927639,-0.241545,0.743302,0.0401599,-0.469099,-0.551975,0.00711527,0.266844,0.512175,0,12489,49.572,23.505,11651.9
1565262962,0.634769,2.223,92.6721,-0.059281,0.0415682,0.927861,-0.224612,0.686882,0.0425744,-0.381835,-0.499145,-0.0552162,0.24848,0.488549,0,12489,49.572,23.505,11651.9
1565363326,0.634769,2.223,92.6806,-0.0557526,0.0421409,0.928029,-0.21808,0.644476,0.0381581,-0.389756,-0.376018,-0.0170762,0.231614,0.467208,0,12489,49.572,23.505,11651.9
1565463708,0.634769,2.223,92.6842,-0.0519116,0.0431886,0.927858,-0.202791,0.593806,0.0256327,-0.402506,-0.475417,-0.164529,0.215615,0.446943,0,12489,49.572,23.505,11651.9
1565564063,0.634769,2.223,92.6744,-0.0488664,0.0434361,0.927641,-0.197285,0.549838,0.0185598,-0.382875,-0.330318,0.0643092,0.202609,0.429542,0,12489,49.551,23.971,11877.9
1565664436,0.634769,2.223,92.6657,-0.0474703,0.0429778,0.92717,-0.193914,0.505949,0.0164045,-0.35843,-0.315509,-0.0781012,0.191035,0.413976,0,12489,49.551,23.971,11877.9
1565764806,0.634769,2.223,92.654,-0.0450042,0.0414661,0.926799,-0.194693,0.464317,0.0133179,-0.390162,-0.224713,0.135048,0.180068,0.397429,0,12489,49.551,23.971,11877.9
1565865158,0.634769,2.223,92.6405,-0.047547,0.0401188,0.926792,-0.192873,0.418801,0.0114709,-0.431877,-0.311708,0.288199,0.171298,0.383454,0,12489,49.551,23.971,11877.9
1565965511,0.634769,2.223,92.6302,-0.0483511,0.0372919,0.926879,-0.185293,0.375481,0.0185717,-0.364832,-0.30542,0.041937,0.162498,0.369221,0,12489,49.551,23.971,11877.9
1566065885,0.634769,2.223,92.6191,-0.0470062,0.0349786,0.927051,-0.179708,0.331984,0.0118449,-0.318278,-0.310043,0.119862,0.155567,0.356746,0,12489,49.551,23.971,11877.9
1566166301,0.634769,2.223,92.6044,-0.0450856,0.032376,0.927418,-0.172251,0.291502,0.0165015,-0.318223,-0.336311,0.165351,-2.9,1.3,0,12489,49.551,23.971,11877.9
1566266643,0.634769,2.223,92.5951,-0.0455668,0.0318147,0.927303,-0.167987,0.258505,0.0277817,-0.268944,-0.20472,0.135729,-2.9,1.3,0,12489,49.551,23.971,11877.9
1566366998,0.634769,2.223,92.5878,-0.0659134,0.0391848,0.926839,-0.1676,0.224761,0.0382947,-0.362241,-0.256451,0.0260438,-2.9,1.3,0,12489,49.551,23.971,11877.9
1566467300,0.634769,2.223,92.5984,-0.0760643,0.0415915,0.926825,-0.148358,0.164468,0.0496977,-0.404274,-0.471628,0.012718,-2.9,1.3,0,12489,49.551,23.971,11877.9
1566567615,0.634769,2.223,92.6132,-0.0807991,0.0397445,0.927065,-0.120003,0.100446,0.0485448,-0.392511,-0.589662,0.130039,-2.9,1.3,0,12489,49.551,24.395,12088
1566667992,0.634769,2.223,92.625,-0.0800361,0.0381151,0.927516,-0.0896439,0.0347984,0.0582058,-0.392722,-0.6123,-0.027989,-2.9,1.3,0,12489,49.551,24.395,12088
1566768444,0.634769,2.223,92.6334,-0.075912,0.0334711,0.927976,-0.0606797,-0.0200881,0.059432,-0.301495,-0.53357,0.0506888,-2.9,1.3,0,12489,49.551,24.395,12088
1566868835,0.634769,2.223,92.6393,-0.0716313,0.0306712,0.928189,-0.0347633,-0.0638829,0.0596271,-0.23093,-0.430495,0.0213254,-2.9,1.3,0,12489,49.551,24.395,12088
1566969195,0.634769,2.223,92.6421,-0.0679662,0.0271687,0.928371,-0.0150936,-0.106971,0.0468309,-0.242462,-0.433079,-0.164808,-2.9,1.3,0,12489,49.551,24.395,12088
1567069541,0.634769,2.223,92.6427,-0.0626713,0.0240673,0.9286,0.00545461,-0.147718,0.0453869,-0.220358,-0.430694,0.00598518,-2.9,1.3,0,12489,49.551,24.395,12088
1567169952,0.634769,2.223,92.6446,-0.0564337,0.0176957,0.929156,0.0302368,-0.180888,0.0450319,-0.0601682,-0.293533,-0.0501692,-2.9,1.3,0,12489,49.551,24.395,12088
1567270305,0.634769,2.223,92.6479,-0.0474171,0.0160745,0.930197,0.0470935,-0.199317,0.0381446,-0.100628,-0.257375,-0.136238,-2.9,1.3,0,12489,49.551,24.395,12088
1567370644,0.634769,2.223,92.6492,0.0174183,0.13706,0.935317,0.050129,-0.21261,0.0829273,-0.357399,0.00515409,0.488182,-2.9,1.3,0,12489,49.551,24.395,12088
1567470946,0.634769,2.223,92.6517,0.08794,0.267855,0.943857,-0.129801,-0.327861,0.0389087,-2.18326,0.85738,-0.195828,-2.9,1.3,0,12489,49.551,24.395,12088
1567572234,0.634769,2.223,92.6507,0.1352,0.352442,0.953173,-0.41433,-0.505031,-0.00338988,-2.92844,1.18375,1.4126,-2.9,1.3,0,12489,49.551,24.395,12088
1567674425,0.634769,2.223,92.6647,0.156255,0.393601,0.958656,-0.783396,-0.706376,0.00549482,-3.4662,1.5852,1.65807,-2.9,1.3,0,12489,49.551,24.395,12088
1567774687,0.634769,2.223,92.6691,0.152526,0.392129,0.956751,-1.18271,-0.929269,-0.00604747,-3.79643,1.67705,1.7389,-2.9,1.3,0,12489,49.551,24.395,12088
1567875049,0.634769,2.223,92.6577,0.126673,0.344565,0.948115,-1.56507,-1.14374,0.0107622,-3.47582,1.59416,1.63089,-2.9,1.3,0,12489,49.551,24.395,12088
1567975394,0.634769,2.223,92.6492,0.101172,0.289526,0.940663,-1.86337,-1.31738,0.0121684,-2.83781,1.18795,1.16937,-2.9,1.3,0,12489,49.551,24.395,12088
1568075754,0.634769,2.223,92.6469,0.0784145,0.237184,0.93555,-2.1096,-1.46028,0.0212765,-2.36476,0.993407,0.741617,-2.9,1.3,0,12489,49.545,24.636,12205.9
1568176173,0.634769,2.223,92.6417,0.0585084,0.189266,0.93224,-2.30141,-1.55972,0.0178571,-1.72462,0.835159,0.386818,-4.4,1,0,12489,49.545,24.636,12205.9
1568276536,0.634769,2.223,92.6393,0.0312507,0.178302,0.927628,-2.44365,-1.63165,0.0238511,-1.1268,0.663643,0.802051,-4.4,1,0,12489,49.545,24.636,12205.9
1568376872,0.634769,2.223,92.6398,-0.00897588,0.248006,0.924378,-2.57427,-1.73025,0.0358935,-1.6643,0.360316,-0.164618,-4.4,1,0,12489,49.545,24.636,12205.9
1568477183,0.634768,2.223,92.6306,-0.0336594,0.293511,0.922498,-2.71652,-1.91967,-0.0039042,-2.2449,-0.0612305,0.683372,-4.4,1,0,12489,49.545,24.636,12205.9
1568577552,0.634768,2.223,92.6282,-0.0439867,0.304101,0.922372,-2.87552,-2.16577,0.00812808,-2.64772,-0.244497,0.945174,-4.4,1,0,12489,49.545,24.636,12205.9
1568677920,0.634768,2.223,92.6445,-0.0439458,0.284743,0.923236,-3.01193,-2.41119,0.0244667,-2.49227,-0.318436,0.914021,-4.4,1,0,12489,49.545,24.636,12205.9
1568778285,0.634768,2.223,92.6509,-0.0376414,0.251903,0.92477,-3.13794,-2.62122,0.0361612,-2.23312,-0.189981,0.604729,-4.4,1,0,12489,49.545,24.636,12205.9
1568878628,0.634768,2.223,92.6544,-0.0285512,0.213273,0.926225,-3.24101,-2.80311,0.0365639,-1.8862,-0.183585,0.517862,-4.4,1,0,12489,49.545,24.636,12205.9
1568978863,0.634768,2.223,92.6613,-0.0217075,0.177885,0.927204,-3.32466,-2.93356,0.038647,-1.4554,-0.0204948,0.220319,-4.4,1,0,12489,49.545,24.636,12205.9
1569079087,0.634768,2.223,92.6677,-0.0190751,0.15083,0.927537,-3.38435,-3.03086,0.0424529,-1.05749,-0.0306545,0.165424,-4.4,1,0,12489,49.501,24.113,11936.2
1569179419,0.634768,2.223,92.6721,-0.0170881,0.132453,0.928293,-3.42606,-3.10408,0.031753,-0.80013,0.0231237,0.10027,-4.4,1,0,12489,49.501,24.113,11936.2
1569279794,0.634768,2.223,92.6743,-0.0178324,0.116381,0.928718,-3.46097,-3.16957,0.0293519,-0.697212,-0.00566368,0.0496821,-4.4,1,0,12489,49.501,24.113,11936.2
1569380240,0.634768,2.223,92.6778,-0.0187042,0.102602,0.928606,-3.47912,-3.21591,0.0279921,-0.51936,-0.000939087,0.0838544,-4.4,1,0,12489,49.501,24.113,11936.2
1569480631,0.634768,2.223,92.6774,-0.0179709,0.0904473,0.928866,-3.48834,-3.25695,0.0266576,-0.383623,0.0496595,-0.0128048,-4.4,1,0,12489,49.501,24.113,11936.2
1569581015,0.634768,2.223,92.6786,-0.0157421,0.0817154,0.929232,-3.48845,-3.273,0.0287983,-0.147286,0.0586771,-0.135573,-4.4,1,0,12489,49.501,24.113,11936.2
1569681390,0.634768,2.223,92.6832,-0.0130147,0.077803,0.928829,-3.48771,-3.29204,0.018166,-0.164494,-0.00510707,0.0772488,-4.4,1,0,12489,49.501,24.113,11936.2
1569781818,0.634768,2.223,92.6831,-0.0106979,0.0773383,0.928673,-3.48806,-3.30703,0.0228291,-0.189286,0.0686203,0.0736215,-4.4,1,0,12489,49.501,24.113,11936.2
1569882177,0.634768,2.223,92.6898,-0.00429314,0.0747953,0.928936,-3.48524,-3.30235,0.00816272,-0.0652012,0.14549,-0.225262,-4.4,1,0,12489,49.501,24.113,11936.2
1569982530,0.634768,2.223,92.6958,-0.00421334,0.0743778,0.928843,-3.48395,-3.29092,0.00555524,-0.0485271,0.133519,0.00100506,-4.4,1,0,12489,49.501,24.113,11936.2
1570082907,0.634768,2.223,92.6982,-0.00628687,0.0772163,0.929556,-3.47759,-3.2829,0.00227928,-0.0219722,0.0974765,-0.130258,-4.4,1,0,12489,49.449,26.673,13189.5
1570183391,0.634768,2.223,92.6937,-0.0103161,0.0787849,0.929938,-3.47049,-3.27611,0.00359371,-0.0355654,-0.00924759,0.207735,-3.7,0.5,0,12489,49.449,26.673,13189.5
1570283766,0.634768,2.223,92.6925,-0.0207714,0.0647879,0.927842,-3.46346,-3.27618,-0.00490392,-0.0994533,-0.016656,-0.0776433,-3.7,0.5,0,12489,49.449,26.673,13189.5
1570384144,0.634768,2.223,92.6919,-0.053186,0.010644,0.927659,-3.43506,-3.26672,0.0272419,0.357002,-0.212787,0.396164,-3.7,0.5,0,12489,49.449,26.673,13189.5
1570484498,0.634767,2.223,92.6883,-0.0781046,-0.0167485,0.930292,-3.33734,-3.2254,0.019777,0.77142,-0.432601,-0.162424,-3.7,0.5,0,12489,49.449,26.673,13189.5
1570584817,0.634767,2.223,92.6824,-0.0904133,-0.0237885,0.931852,-3.21676,-3.19041,0.00533812,0.922739,-0.736548,0.127581,-3.7,0.5,0,12489,49.449,26.673,13189.5
1570685102,0.634767,2.223,92.6772,-0.0897136,-0.0195257,0.932006,-3.09212,-3.15568,-0.00186283,0.918357,-0.723176,0.215137,-3.7,0.5,0,12489,49.449,26.673,13189.5
1570785461,0.634767,2.223,92.6768,-0.0803856,-0.00765088,0.931682,-2.98629,-3.12867,-0.00976651,0.75904,-0.623587,0.100396,-3.7,0.5,0,12489,49.449,26.673,13189.5
1570885822,0.634767,2.223,92.6775,-0.0676484,0.00636313,0.931286,-2.90156,-3.09802,-0.0114192,0.670804,-0.459137,0.0035901,-3.7,0.5,0,12489,49.449,26.673,13189.5
1570986181,0.634767,2.223,92.6743,-0.0570021,0.0209436,0.930184,-2.82817,-3.07954,-0.0119422,0.504404,-0.43126,0.125843,-3.7,0.5,0,12489,49.449,26.673,13189.5
1571086549,0.634767,2.223,92.6835,-0.0439634,0.032891,0.929485,-2.76776,-3.06346,-0.010189,0.444191,-0.330242,0.0743169,-3.7,0.5,0,12489,49.433,26.471,13085.4
1571186876,0.634767,2.223,92.6977,-0.0350338,0.0415503,0.928616,-2.73143,-3.0496,-0.000609141,0.276226,-0.145657,0.172917,-3.7,0.5,0,12489,49.433,26.471,13085.4
1571287264,0.634767,2.223,92.7043,-0.0294936,0.0522152,0.928491,-2.70637,-3.03875,0.0024395,0.130363,-0.081525,-0.0498707,-3.7,0.5,0,12489,49.433,26.471,13085.4
1571387691,0.634767,2.223,92.7065,-0.0251371,0.0582756,0.927974,-2.67856,-3.03001,-0.00304883,0.151349,-0.0637946,-0.0685387,-3.7,0.5,0,12489,49.433,26.471,13085.4
1571488122,0.634767,2.223,92.7137,-0.0205647,0.0653567,0.927982,-2.66728,-3.02464,0.00766993,0.10479,-0.0102428,0.144172,-3.7,0.5,0,12489,49.433,26.471,13085.4
1571588590,0.634767,2.223,92.7176,-0.0164005,0.0683468,0.927973,-2.6689,-3.0305,-0.00265341,-0.0501926,-0.00715725,-0.116434,-3.7,0.5,0,12489,49.433,26.471,13085.4
1571690214,0.634767,2.223,92.7148,-0.0152203,0.0698766,0.928078,-2.67007,-3.03568,-0.0120056,-0.0503909,0.00158246,-0.137142,-3.7,0.5,0,12489,49.433,26.471,13085.4
1571792327,0.634767,2.223,92.7087,-0.0141183,0.0696846,0.928006,-2.67944,-3.0427,-0.0124855,-0.111522,0.0906631,0.129856,-3.7,0.5,0,12489,49.433,26.471,13085.4
1571892759,0.634767,2.223,92.7086,-0.0128173,0.0669108,0.928311,-2.68985,-3.05056,-0.00729962,-0.116443,0.0843343,0.0944882,-3.7,0.5,0,12489,49.433,26.471,13085.4
1571993243,0.634767,2.223,92.7122,-0.0132526,0.0661816,0.928426,-2.69441,-3.05191,-0.01056,-0.0610304,0.05435,-0.00850492,-3.7,0.5,0,12489,49.433,26.471,13085.4
1572093636,0.634767,2.223,92.7109,-0.0106908,0.0663632,0.928381,-2.70299,-3.05036,-0.0104643,-0.0372859,0.152416,0.0428319,-3.7,0.5,0,12485,49.51,24.117,11940.3
1572194054,0.634767,2.223,92.709,-0.00925031,0.0646194,0.928728,-2.70786,-3.05709,-0.0217751,-0.0442946,0.0784495,0.0652781,3.4,0.5,0,12485,49.51,24.117,11940.3
1572294435,0.634767,2.223,92.7097,-0.00862511,0.0236955,0.929193,-2.72474,-3.0553,-0.0116105,-0.115525,0.157694,0.529128,3.4,0.5,0,12485,49.51,24.117,11940.3
1572394815,0.634767,2.223,92.7198,-0.00276309,-0.182945,0.928699,-2.70112,-3.00321,0.043048,1.02015,0.206089,0.544136,3.4,0.5,0,12485,49.51,24.117,11940.3
1572495112,0.634767,2.223,92.7316,0.000575829,-0.323887,0.929497,-2.53555,-2.73783,0.0240402,3.20505,0.249212,0.307053,3.4,0.5,0,12485,49.51,24.117,11940.3
1572595434,0.634767,2.223,92.7384,0.00259955,-0.408103,0.929865,-2.29478,-2.39865,-0.0251253,4.04165,0.117737,1.41978,3.4,0.5,0,12485,49.51,24.117,11940.3
1572695748,0.634767,2.223,92.7343,0.0032396,-0.449683,0.929844,-2.01293,-1.98092,-0.0468758,4.5436,0.253701,2.11507,3.4,0.5,0,12485,49.51,24.117,11940.3
1572796121,0.634767,2.223,92.7284,0.00374782,-0.460801,0.930627,-1.70634,-1.52849,-0.0604366,4.86223,0.186504,2.28313,3.4,0.5,0,12485,49.51,24.117,11940.3
1572896438,0.634767,2.223,92.72,0.000621418,-0.454612,0.930839,-1.40066,-1.06955,-0.0656276,4.87203,0.353402,2.3975,3.4,0.5,0,12485,49.51,24.117,11940.3
1572996788,0.634766,2.223,92.712,-0.00338537,-0.443569,0.931339,-1.09683,-0.614048,-0.0550557,4.65688,0.234188,2.58686,3.4,0.5,0,12485,49.51,24.117,11940.3
1573097145,0.634766,2.223,92.7167,-0.0116676,-0.431714,0.932263,-0.793883,-0.168842,-0.0346181,4.63941,0.172589,2.2983,3.4,0.5,0,12485,49.51,24.117,11940.3
1573197501,0.634766,2.223,92.7231,-0.018919,-0.417909,0.933238,-0.495223,0.24703,-0.023124,4.45676,0.0750196,2.04108,3.4,0.5,0,12485,49.497,24.282,12018.9
1573297846,0.634766,2.223,92.7279,-0.025239,-0.404395,0.933814,-0.21474,0.638692,-0.0242141,4.16334,0.0825074,1.82196,3.4,0.5,0,12485,49.497,24.282,12018.9
1573398206,0.634766,2.223,92.7368,-0.0320568,-0.393562,0.93473,0.0648943,1.01018,-0.0133254,3.97976,-0.0388275,1.8274,3.4,0.5,0,12485,49.497,24.282,12018.9
1573498560,0.634767,2.223,92.7506,-0.0377963,-0.377027,0.935371,0.338471,1.35904,-0.0070019,3.95952,-0.157958,1.4555,3.4,0.5,0,12485,49.497,24.282,12018.9
1573598913,0.634767,2.223,92.7686,-0.0378684,-0.329564,0.934385,0.591863,1.68761,-0.000597442,3.60925,-0.131129,1.26594,3.4,0.5,0,12485,49.497,24.282,12018.9
1573699253,0.634767,2.223,92.7798,-0.0378922,-0.279213,0.93305,0.805627,1.95295,0.00921185,3.05965,-0.189069,0.8734,3.4,0.5,0,12485,49.497,24.282,12018.9
1573799611,0.634767,2.223,92.7897,-0.0377198,-0.229589,0.931689,0.973142,2.16589,0.00606577,2.43934,-0.153322,0.605884,3.4,0.5,0,12485,49.497,24.282,12018.9
1573899946,0.634767,2.223,92.8031,-0.0366362,-0.18561,0.930192,1.10756,2.32534,0.00575749,1.85631,-0.186579,0.28994,3.4,0.5,0,12485,49.497,24.282,12018.9
