timestamp,lat,log,alt,roll,pitch,yaw,vel_x,vel_y,vel_z,acc_x,acc_y,acc_z,act_vx,act_vy,act_yr,capacity,vol,cur,power
360712102,0.63477,2.223,116.946,0.0117716,0.0284232,0.956902,-0.0612423,-0.0507346,0.023074,-0.0142554,-0.039177,-0.0259987,0,-0.9,0,12047,49.399,24.226,11967.4
360814278,0.63477,2.223,116.948,0.00963927,0.0292318,0.956882,-0.0611717,-0.0470442,0.0185809,-0.0204806,-0.0114517,0.0603695,0,-0.9,0,12047,49.399,24.226,11967.4
360915191,0.63477,2.223,116.945,-0.00450663,0.0277583,0.95798,-0.0511307,-0.0510512,0.0222656,-0.0271517,-0.102635,0.175831,0,-0.9,0,12047,49.399,24.226,11967.4
361016689,0.63477,2.223,116.935,-0.0696093,0.0231045,0.956658,-0.0325233,-0.0613401,0.0485192,-0.0171579,-0.453231,-0.0133773,0,-0.9,0,12047,49.399,24.226,11967.4
361117065,0.63477,2.223,116.931,-0.11817,0.0157514,0.956371,0.0521144,-0.115305,0.0292914,0.00372182,-1.03852,-0.159726,0,-0.9,0,12047,49.399,24.226,11967.4
361217435,0.63477,2.223,116.931,-0.141528,0.0121415,0.956996,0.183125,-0.18625,0.025514,0.16049,-1.49837,0.116606,0,-0.9,0,12047,49.399,24.226,11967.4
361317786,0.63477,2.223,116.926,-0.13768,0.012576,0.957347,0.322502,-0.259296,0.0140764,0.168799,-1.6012,-0.0729205,0,-0.9,0,12047,49.436,23.879,11804.8
361418148,0.63477,2.223,116.914,-0.117666,0.0157447,0.957979,0.456015,-0.329498,0.00890993,0.123518,-1.39817,0.362197,0,-0.9,0,12047,49.436,23.879,11804.8
361518503,0.63477,2.223,116.904,-0.0916488,0.0202445,0.957941,0.569291,-0.385151,0.0161021,0.112402,-1.16841,0.205972,0,-0.9,0,12047,49.436,23.879,11804.8
361618863,0.63477,2.223,116.896,-0.0682079,0.0256783,0.957742,0.653023,-0.422922,0.0253102,0.0969785,-0.88659,0.15014,0,-0.9,0,12047,49.436,23.879,11804.8
361719245,0.63477,2.223,116.888,-0.0513892,0.0300576,0.957681,0.713121,-0.46459,0.0236388,-0.015451,-0.710475,0.124087,0,-0.9,0,12047,49.436,23.879,11804.8
361819596,0.63477,2.223,116.879,-0.035347,0.0326448,0.957248,0.751504,-0.504694,0.0278673,-0.142776,-0.509608,0.202913,0,-0.9,0,12047,49.436,23.879,11804.8
361919982,0.63477,2.223,116.879,-0.0232281,0.0328845,0.957074,0.775306,-0.530561,0.0435051,-0.123963,-0.359142,0.319846,0,-0.9,0,12047,49.436,23.879,11804.8
362020378,0.63477,2.223,116.882,-0.012977,0.0324713,0.956898,0.787024,-0.557676,0.0425877,-0.180293,-0.207418,-0.120431,0,-0.9,0,12047,49.436,23.879,11804.8
362120737,0.63477,2.223,116.877,-0.00835021,0.0310684,0.956744,0.793403,-0.57293,0.0358457,-0.145577,-0.128842,0.0906977,0,-0.9,0,12047,49.436,23.879,11804.8
362222176,0.63477,2.223,116.869,-0.00533349,0.0278207,0.956565,0.804782,-0.584952,0.0416517,-0.0202342,-0.17959,0.294186,0,-0.9,0,12047,49.436,23.879,11804.8
362327500,0.63477,2.223,116.874,-0.00259277,0.0279301,0.956519,0.807867,-0.59333,0.0614578,-0.0934801,-0.0629887,0.103243,0,-0.9,0,12047,49.408,24.262,11987.4
362427887,0.63477,2.223,116.87,-0.000304119,0.0270694,0.956387,0.812384,-0.597067,0.0473391,-0.00913078,-0.0619008,0.0967277,0,-0.9,0,12047,49.408,24.262,11987.4
362528356,0.63477,2.223,116.866,0.000466004,0.0270876,0.956359,0.802702,-0.595834,0.0541417,-0.107074,0.0825454,0.24947,0,-0.9,0,12047,49.408,24.262,11987.4
362628706,0.63477,2.223,116.864,-0.000712403,0.0259395,0.956605,0.798544,-0.605112,0.0532991,-0.113357,-0.0412273,0.0437272,0,-0.9,0,12047,49.408,24.262,11987.4
362729126,0.63477,2.223,116.857,-0.00141917,0.0241973,0.956469,0.809282,-0.612761,0.0452793,-0.0531121,-0.172103,0.0470917,0,4.1,0,12047,49.408,24.262,11987.4
362829479,0.63477,2.223,116.85,0.0184065,0.023154,0.95459,0.818101,-0.613766,0.0512364,0.00448892,-0.175719,0.475137,0,4.1,0,12047,49.408,24.262,11987.4
362929813,0.63477,2.223,116.848,0.171647,0.0166874,0.958499,0.779953,-0.582296,0.111709,-0.0164596,0.784999,-0.216821,0,4.1,0,12047,49.408,24.262,11987.4
363030164,0.63477,2.223,116.858,0.313905,0.0110147,0.959656,0.606541,-0.439955,0.0225237,0.149859,2.38695,0.334819,0,4.1,0,12047,49.408,24.262,11987.4
363130526,0.63477,2.223,116.861,0.402352,0.0124681,0.960345,0.321932,-0.211926,0.0244209,0.160964,3.29719,1.56801,0,4.1,0,12047,49.408,24.262,11987.4
363230879,0.63477,2.223,116.862,0.442912,0.0146716,0.961563,-0.0291741,0.0545101,0.0268528,0.147253,3.95305,1.89682,0,4.1,0,12047,49.408,24.262,11987.4
363331278,0.63477,2.223,116.862,0.454247,0.0160755,0.961645,-0.415587,0.339778,0.0392211,0.0591737,4.11323,2.17556,0,4.1,0,12047,49.408,24.262,11987.4
363431627,0.63477,2.223,116.861,0.449597,0.0174404,0.961936,-0.804717,0.629671,0.0577246,0.063787,4.11985,2.21599,0,4.1,0,12047,49.385,24.683,12189.7
363531980,0.63477,2.223,116.871,0.440987,0.0214237,0.96272,-1.17752,0.905873,0.065545,0.0835571,4.05675,1.79005,0,4.1,0,12047,49.385,24.683,12189.7
363632382,0.63477,2.223,116.88,0.431561,0.0246251,0.963031,-1.53988,1.16273,0.0645171,-0.00711567,3.83542,1.86368,0,4.1,0,12047,49.385,24.683,12189.7
363732750,0.63477,2.223,116.893,0.411803,0.0285294,0.963501,-1.89518,1.41536,0.0641072,-0.0331745,3.73469,1.76768,0,4.1,0,12047,49.385,24.683,12189.7
363833123,0.63477,2.223,116.908,0.359664,0.0316003,0.963411,-2.22487,1.64357,0.0789891,-0.0763726,3.44914,1.33165,0,4.1,0,12047,49.385,24.683,12189.7
363933474,0.63477,2.223,116.924,0.304587,0.0330553,0.963093,-2.49715,1.83223,0.0892132,-0.102314,2.85887,0.872453,0,4.1,0,12047,49.385,24.683,12189.7
364033809,0.63477,2.223,116.935,0.253252,0.0323027,0.96181,-2.72721,1.972,0.0906841,-0.189949,2.3425,0.49106,0,4.1,0,12047,49.385,24.683,12189.7
364134179,0.63477,2.223,116.953,0.211366,0.0316521,0.961199,-2.89837,2.10537,0.0905537,-0.0348991,1.86824,0.0780747,0,4.1,0,12047,49.385,24.683,12189.7
364234533,0.63477,2.223,116.978,0.173731,0.0299207,0.960629,-3.0314,2.19967,0.0727925,-0.0664309,1.4127,0.0793868,0,4.1,0,12047,49.385,24.683,12189.7
364334960,0.634769,2.223,116.992,0.145079,0.0294954,0.960395,-3.13481,2.28335,0.0720239,0.0316923,1.13431,0.111202,0,4.1,0,12047,49.385,24.683,12189.7
364435295,0.634769,2.223,117.004,0.127237,0.0306875,0.960363,-3.2042,2.33859,0.0497509,0.0341169,0.805016,-0.341195,0,4.1,0,12004,49.372,24.749,12219.1
364535657,0.634769,2.223,117.011,0.114312,0.0348584,0.960889,-3.25996,2.3748,0.025595,-0.145814,0.637097,-0.167163,0,4.1,0,12004,49.372,24.749,12219.1
364635993,0.634769,2.223,117.008,0.106237,0.0361903,0.960851,-3.31202,2.39635,0.00928752,-0.175237,0.593211,-0.152585,0,4.1,0,12004,49.372,24.749,12219.1
364736430,0.634769,2.223,117.008,0.101828,0.036314,0.959916,-3.34036,2.4225,-0.0143036,-0.037383,0.417078,-0.297947,0,0.6,0,12004,49.372,24.749,12219.1
364836790,0.634769,2.223,117.002,0.0612071,0.0354386,0.960631,-3.37179,2.44177,-0.0380245,-0.0493453,0.444981,0.245777,0,0.6,0,12004,49.372,24.749,12219.1
364937153,0.634769,2.223,117.003,-0.16128,0.0331701,0.953385,-3.35907,2.42057,0.0614359,-0.092198,-0.404753,1.01447,0,0.6,0,12004,49.372,24.749,12219.1
365037505,0.634769,2.223,117.015,-0.336808,0.0292988,0.951189,-3.11555,2.24257,0.0876765,-0.0999102,-3.05169,0.254166,0,0.6,0,12004,49.372,24.749,12219.1
365137841,0.634769,2.223,117.026,-0.433603,0.0388409,0.947888,-2.76838,2.00182,-0.0119488,-0.0362599,-3.92735,1.50108,0,0.6,0,12004,49.372,24.749,12219.1
365238229,0.634769,2.223,117.024,-0.451515,0.0465887,0.946678,-2.33416,1.67659,-0.0329312,-0.195862,-4.78101,2.13167,0,0.6,0,12004,49.372,24.749,12219.1
365338593,0.634769,2.223,117.011,-0.410114,0.0487806,0.947774,-1.91188,1.34719,-0.0482571,-0.295594,-4.53095,2.03867,0,0.6,0,12004,49.372,24.749,12219.1
365438960,0.634769,2.223,116.997,-0.34033,0.0405509,0.952473,-1.55833,1.05854,-0.0650131,-0.330231,-4.0657,1.34274,0,0.6,0,12004,49.274,26.447,13031.5
365539309,0.634769,2.223,116.968,-0.257897,0.0284969,0.956859,-1.26419,0.82693,-0.0686013,-0.236474,-3.16342,1.1637,0,0.6,0,12004,49.274,26.447,13031.5
365639688,0.634769,2.223,116.929,-0.180469,0.0073431,0.960878,-1.03232,0.660701,-0.0615642,-0.0467435,-2.36527,0.929313,0,0.6,0,12004,49.274,26.447,13031.5
365740088,0.634769,2.223,116.921,-0.115263,-0.00430938,0.960265,-0.850474,0.558335,-0.0320649,0.144359,-1.68114,0.492809,0,0.6,0,12004,49.274,26.447,13031.5
365840503,0.634769,2.223,116.926,-0.0647585,-0.000761408,0.957928,-0.707014,0.504345,-0.0207983,0.287805,-1.16115,0.423025,0,0.6,0,12004,49.274,26.447,13031.5
365940889,0.634769,2.223,116.933,-0.0284278,0.00736738,0.956326,-0.612819,0.465122,0.0124189,0.144242,-0.688699,0.357252,0,0.6,0,12004,49.274,26.447,13031.5
366041273,0.634769,2.223,116.94,-0.00544845,0.0152446,0.955071,-0.554062,0.442178,0.0178908,0.0982072,-0.355207,-0.14654,0,0.6,0,12004,49.274,26.447,13031.5
366141648,0.634769,2.223,116.948,0.0108648,0.0221283,0.954778,-0.504704,0.427903,0.0259915,0.136781,-0.282503,0.135758,0,0.6,0,12004,49.274,26.447,13031.5
366241991,0.634769,2.223,116.96,0.0211932,0.025535,0.954804,-0.484484,0.418042,0.0325388,-0.0282577,-0.0632957,-0.0196813,0,0.6,0,12004,49.274,26.447,13031.5
366342350,0.634769,2.223,116.968,0.0277331,0.0258633,0.954782,-0.475949,0.418156,0.024874,0.0094942,0.0473964,-0.186503,0,0.6,0,12004,49.274,26.447,13031.5
366442709,0.634769,2.223,116.975,0.0294177,0.02741,0.95534,-0.467113,0.42777,0.0212049,0.060191,0.0957627,-0.0730392,0,0.6,0,12004,49.424,25.827,12764.7
366543068,0.634769,2.223,116.975,0.0299512,0.0280263,0.955453,-0.46908,0.431344,0.0208317,-0.0569389,0.0376746,0.0402831,0,0.6,0,12004,49.424,25.827,12764.7
366643409,0.634769,2.223,116.971,0.0311989,0.0297036,0.955932,-0.467686,0.439248,0.0138627,-0.0140357,0.0705445,-0.00491452,0,0.6,0,12004,49.424,25.827,12764.7
366743839,0.634769,2.223,116.975,0.0298742,0.033073,0.955865,-0.475734,0.438695,0.00989529,-0.103351,0.0262104,-0.0537121,0,-4.4,0,12004,49.424,25.827,12764.7
366845772,0.634769,2.223,116.985,0.014234,0.0358152,0.957342,-0.487004,0.444215,0.0165126,-0.0566386,0.0732085,0.0850092,0,-4.4,0,12004,49.424,25.827,12764.7
366951613,0.634769,2.223,116.988,-0.162641,0.033711,0.952048,-0.473625,0.412404,0.0658423,-0.201164,-0.706952,0.100908,0,-4.4,0,12004,49.424,25.827,12764.7
367052123,0.634769,2.223,116.993,-0.304753,0.025431,0.950465,-0.284959,0.27013,0.0225333,-0.116887,-2.63513,0.0254019,0,-4.4,0,12004,49.424,25.827,12764.7
367152462,0.634769,2.223,116.998,-0.395432,0.0163653,0.951921,0.00593898,0.075884,-0.0269955,0.0465311,-3.53054,1.13227,0,-4.4,0,12004,49.424,25.827,12764.7
367252805,0.634769,2.223,116.991,-0.434432,0.0112696,0.953997,0.369859,-0.176747,-0.0349471,0.00236931,-4.12612,1.82975,0,-4.4,0,12004,49.424,25.827,12764.7
367353192,0.634769,2.223,116.983,-0.446778,0.0122769,0.953771,0.774619,-0.437088,-0.0395468,0.137354,-4.40826,2.00278,0,-4.4,0,12004,49.424,25.827,12764.7
367453568,0.634769,2.223,116.98,-0.444062,0.0178992,0.951472,1.17922,-0.703182,-0.0254471,0.170098,-4.26501,2.29992,0,-4.4,0,12004,49.375,23.474,11590.3
367553916,0.634769,2.223,116.972,-0.433401,0.0254202,0.948537,1.56538,-0.972119,-0.0205117,0.0138554,-4.22128,1.88866,0,-4.4,0,12004,49.375,23.474,11590.3
367654233,0.634769,2.223,116.965,-0.416825,0.032362,0.946712,1.93055,-1.24094,-0.0192232,-0.108076,-3.94916,1.99688,0,-4.4,0,12004,49.375,23.474,11590.3
367754597,0.634769,2.223,116.955,-0.388651,0.0380897,0.945663,2.27707,-1.50382,-0.0126391,-0.154759,-3.84225,1.79956,0,-4.4,0,12004,49.375,23.474,11590.3
367855200,0.634769,2.223,116.952,-0.332474,0.0399692,0.945875,2.58988,-1.74477,0.00312258,-0.161618,-3.34039,1.56186,0,-4.4,0,12004,49.375,23.474,11590.3
367955575,0.634769,2.223,116.954,-0.27593,0.040026,0.947003,2.83621,-1.94295,0.018687,-0.205488,-2.76038,1.03544,0,-4.4,0,12004,49.375,23.474,11590.3
368055939,0.634769,2.223,116.967,-0.222564,0.0379083,0.948496,3.03265,-2.10443,0.0223707,-0.21067,-2.2168,0.558474,0,-4.4,0,12004,49.375,23.474,11590.3
368156339,0.634769,2.223,116.983,-0.17994,0.0352012,0.950403,3.1871,-2.22826,0.0288718,-0.173077,-1.81298,0.204462,0,-4.4,0,12004,49.375,23.474,11590.3
368256622,0.634769,2.223,117.008,-0.146123,0.0315347,0.952054,3.29697,-2.32683,0.0329958,-0.203473,-1.30648,0.134328,0,-4.4,0,12004,49.375,23.474,11590.3
368356991,0.634769,2.223,117.027,-0.122222,0.0274711,0.953554,3.37744,-2.3936,0.0266011,-0.161271,-0.944844,-0.0427855,0,-4.4,0,12004,49.375,23.474,11590.3
368457401,0.634769,2.223,117.036,-0.105329,0.0238422,0.954864,3.43901,-2.44241,0.0155446,-0.0950178,-0.737327,-0.265759,0,-4.4,0,12004,49.375,24.292,11994.2
368557794,0.63477,2.223,117.036,-0.0923659,0.0211094,0.955906,3.48591,-2.48068,0.00673015,-0.0709204,-0.585092,-0.160242,0,-4.4,0,12004,49.375,24.292,11994.2
368659996,0.63477,2.223,117.028,-0.0836076,0.0184896,0.956281,3.52192,-2.50333,-0.00224705,0.0159982,-0.496897,-0.0422068,0,-4.4,0,12004,49.375,24.292,11994.2
368761754,0.63477,2.223,117.016,-0.078861,0.0172675,0.956461,3.55239,-2.51898,-0.00818781,0.0408573,-0.375571,0.20242,0,3.7,0,12004,49.375,24.292,11994.2
368862153,0.63477,2.223,116.998,-0.064407,0.0169802,0.954544,3.57874,-2.52412,-0.0122652,0.0927619,-0.312532,0.137693,0,3.7,0,12004,49.375,24.292,11994.2
368962629,0.63477,2.223,116.986,0.126794,0.0131966,0.956922,3.59533,-2.52828,0.0509949,0.0218915,-0.0632533,0.758812,0,3.7,0,12004,49.375,24.292,11994.2
369063008,0.63477,2.223,116.986,0.324626,0.0122911,0.95895,3.40161,-2.38484,0.0244434,-0.0195485,2.7297,-0.3102,0,3.7,0,12004,49.375,24.292,11994.2
369163372,0.63477,2.223,116.978,0.437955,0.0111486,0.959105,3.06609,-2.13862,-0.0661637,0.0424928,3.91371,1.32112,0,3.7,0,12004,49.375,24.292,11994.2
369263704,0.63477,2.223,116.969,0.492347,0.0104895,0.958738,2.62419,-1.81422,-0.0760469,0.055082,4.68922,2.58033,0,3.7,0,12004,49.375,24.292,11994.2
369364059,0.63477,2.223,116.962,0.504756,0.00973022,0.958181,2.12693,-1.44977,-0.0586819,0.0294532,5.10196,3.00858,0,3.7,0,12004,49.375,24.292,11994.2
369464353,0.63477,2.223,116.959,0.496135,0.0111288,0.958463,1.62712,-1.07563,-0.0363101,0.132705,5.14335,3.00352,0,3.7,0,12004,49.375,24.292,11994.2
369564665,0.63477,2.223,116.954,0.48024,0.0134803,0.959076,1.15374,-0.723102,-0.0119989,0.0846611,4.79017,2.80545,0,3.7,0,12004,49.375,24.292,11994.2
369665022,0.63477,2.223,116.96,0.466071,0.0158509,0.959917,0.706936,-0.383528,-0.0044684,0.124829,4.61552,2.47225,0,3.7,0,12004,49.375,24.292,11994.2
369765367,0.63477,2.223,116.975,0.451577,0.0202278,0.961435,0.272437,-0.0646647,0.00686156,0.024194,4.51174,2.16694,0,3.7,0,12004,49.375,24.292,11994.2
369865630,0.63477,2.223,116.983,0.43731,0.0246806,0.962767,-0.145037,0.245964,0.00962076,0.0641559,4.35065,2.06131,0,3.7,0,12004,49.375,24.292,11994.2
369965888,0.63477,2.223,116.989,0.42552,0.0272258,0.963408,-0.605976,0.582399,0.0102104,-0.0300189,4.03676,1.60254,0,3.7,0,12004,49.375,24.292,11994.2
370066145,0.63477,2.223,117.001,0.41512,0.0295082,0.963928,-0.982527,0.84808,0.0132803,-0.0853618,3.89025,1.66778,0,3.7,0,11960,49.237,26.452,13024.2
370166392,0.63477,2.223,117.011,0.401017,0.0337095,0.965155,-1.35078,1.10207,0.00996727,-0.120983,3.84168,1.5457,0,3.7,0,11960,49.237,26.452,13024.2
370266649,0.63477,2.223,117.016,0.355045,0.036882,0.965122,-1.68432,1.3323,0.0208819,-0.10502,3.36967,1.51219,0,3.7,0,11960,49.237,26.452,13024.2
370366863,0.63477,2.223,117.022,0.301344,0.038304,0.964544,-1.95365,1.51166,0.0262495,-0.146393,2.85235,0.628687,0,3.7,0,11960,49.237,26.452,13024.2
370467129,0.63477,2.223,117.03,0.250644,0.0382508,0.963275,-2.17138,1.65101,0.0307276,-0.197679,2.28119,0.642747,0,3.7,0,11960,49.237,26.452,13024.2
370567397,0.63477,2.223,117.038,0.206135,0.0350782,0.962205,-2.34032,1.76472,0.024727,-0.131228,1.8454,0.166951,0,3.7,0,11960,49.237,26.452,13024.2
370667768,0.63477,2.223,117.037,0.174205,0.0329921,0.961718,-2.47174,1.84647,0.0148839,-0.178749,1.44114,-0.0210454,0,3.7,0,11960,49.237,26.452,13024.2
370768174,0.63477,2.223,117.049,0.149887,0.0298312,0.96065,-2.56708,1.91117,0.0048658,-0.123597,1.09806,-0.0795834,0,-3.8,0,11960,49.237,26.452,13024.2
370868517,0.63477,2.223,117.062,0.11554,0.0285065,0.961492,-2.64242,1.96672,-0.000588167,-0.0853227,0.914553,0.202919,0,-3.8,0,11960,49.237,26.452,13024.2
370968921,0.634769,2.223,117.074,-0.125357,0.0231355,0.955514,-2.66245,1.98399,0.0738431,-0.0255168,-0.0813832,0.713388,0,-3.8,0,11960,49.237,26.452,13024.2
371069319,0.634769,2.223,117.101,-0.34067,0.0161493,0.954022,-2.42646,1.83556,0.0878061,0.0532256,-3.13835,-0.283479,0,-3.8,0,11960,49.216,26.367,12976.8
371169680,0.634769,2.223,117.112,-0.450643,0.0165856,0.954868,-2.06862,1.60598,-0.0268994,0.0567066,-4.22151,0.994211,0,-3.8,0,11960,49.216,26.367,12976.8
371270053,0.634769,2.223,117.108,-0.505393,0.0200027,0.954601,-1.60415,1.29646,-0.0620935,0.0263185,-4.97271,2.33209,0,-3.8,0,11960,49.216,26.367,12976.8
371370451,0.634769,2.223,117.099,-0.524694,0.0225263,0.95417,-1.11152,0.952291,-0.0851811,-0.0470303,-5.2203,2.4955,0,-3.8,0,11960,49.216,26.367,12976.8
371470806,0.634769,2.223,117.077,-0.520699,0.0191269,0.955542,-0.608822,0.604272,-0.124325,0.0308678,-5.20149,2.65276,0,-3.8,0,11960,49.216,26.367,12976.8
371571131,0.634769,2.223,117.049,-0.505001,0.0134941,0.958579,-0.0919172,0.245612,-0.114471,0.00809382,-5.11071,3.06228,0,-3.8,0,11960,49.216,26.367,12976.8
371671551,0.634769,2.223,117.038,-0.492172,0.0164917,0.956208,0.418035,-0.10417,-0.0897773,0.0617775,-4.99804,2.91732,0,-3.8,0,11960,49.216,26.367,12976.8
371771911,0.634769,2.223,117.039,-0.472028,0.0231913,0.952927,0.901785,-0.439538,-0.0683839,-0.00952195,-4.8012,2.5527,0,-3.8,0,11960,49.216,26.367,12976.8
371872273,0.634769,2.223,117.037,-0.449877,0.0297432,0.950621,1.34852,-0.759491,-0.0519349,-0.102583,-4.40419,2.381,0,-3.8,0,11960,49.216,26.367,12976.8
371972619,0.63477,2.223,117.034,-0.418988,0.036608,0.948922,1.76088,-1.07122,-0.0410895,-0.169341,-4.26192,1.96938,0,-3.8,0,11960,49.216,26.367,12976.8
372073008,0.63477,2.223,117.035,-0.352966,0.0391615,0.949027,2.1245,-1.35982,-0.0222772,-0.271333,-3.724,1.6556,0,-3.8,0,11960,49.208,28.64,14093.2
372173356,0.63477,2.223,117.04,-0.282349,0.0398598,0.949753,2.41547,-1.58563,-0.00485601,-0.161764,-2.99017,0.996717,0,-3.8,0,11960,49.208,28.64,14093.2
372273722,0.63477,2.223,117.048,-0.219945,0.039692,0.950706,2.62805,-1.75977,-0.00872639,-0.215181,-2.27368,0.446134,0,-3.8,0,11960,49.208,28.64,14093.2
372374081,0.63477,2.223,117.05,-0.169237,0.0372057,0.951981,2.78572,-1.89492,-0.00605146,-0.195655,-1.68284,0.293213,0,-3.8,0,11960,49.208,28.64,14093.2
372474437,0.63477,2.223,117.057,-0.129255,0.0336981,0.953375,2.90019,-1.98712,-0.00673843,-0.10724,-1.16206,0.205927,0,-3.8,0,11960,49.208,28.64,14093.2
372574787,0.63477,2.223,117.063,-0.102672,0.0312374,0.954066,2.97849,-2.06048,-0.0136224,-0.226579,-0.797665,0.00926082,0,-3.8,0,11960,49.208,28.64,14093.2
372675130,0.63477,2.223,117.07,-0.0844508,0.0272985,0.954599,3.03622,-2.10928,-0.0162181,-0.082239,-0.596908,-0.16118,0,-3.8,0,11960,49.208,28.64,14093.2
372775543,0.63477,2.223,117.073,-0.0723287,0.0239469,0.955073,3.07484,-2.14516,-0.0231666,-0.0936134,-0.414731,-0.0633763,0,2.4,0,11960,49.208,28.64,14093.2
372875883,0.63477,2.223,117.066,-0.0347529,0.0224522,0.953203,3.11377,-2.16338,-0.0290343,0.047481,-0.431909,0.257774,0,2.4,0,11960,49.208,28.64,14093.2
372976177,0.63477,2.223,117.064,0.175687,0.0160153,0.957752,3.09705,-2.14989,0.0387598,0.0630562,0.508251,0.295611,0,2.4,0,11960,49.208,28.64,14093.2
373076454,0.63477,2.223,117.071,0.351315,0.0119857,0.959461,2.87363,-1.987,-0.0170225,0.0498743,3.0857,-0.32704,0,2.4,0,11916,49.152,28.958,14233.4
373176813,0.63477,2.223,117.067,0.449835,0.00968477,0.959081,2.52063,-1.73419,-0.085649,-0.0238555,4.07869,1.54985,0,2.4,0,11916,49.152,28.958,14233.4
373277150,0.63477,2.223,117.06,0.493086,0.0102276,0.959111,2.07108,-1.40123,-0.0871217,0.121574,4.72259,2.58781,0,2.4,0,11916,49.152,28.958,14233.4
373377546,0.63477,2.223,117.06,0.501371,0.011813,0.959138,1.58881,-1.04861,-0.0810093,0.100402,4.90122,2.88037,0,2.4,0,11916,49.152,28.958,14233.4
373477828,0.63477,2.223,117.051,0.490934,0.0157948,0.960315,1.10607,-0.697996,-0.0596513,0.0619381,4.96472,2.67869,0,2.4,0,11916,49.152,28.958,14233.4
373578181,0.63477,2.223,117.036,0.475853,0.0206103,0.962084,0.643108,-0.365203,-0.0469619,0.0559486,4.67208,2.59373,0,2.4,0,11916,49.152,28.958,14233.4
373678535,0.63477,2.223,117.031,0.461616,0.0259457,0.96388,0.191645,-0.0450068,-0.038654,-0.00169327,4.5595,2.35379,0,2.4,0,11916,49.152,28.958,14233.4
373778888,0.63477,2.223,117.032,0.438075,0.0308413,0.965274,-0.240615,0.256313,-0.0281253,-0.0678127,4.4148,2.05955,0,2.4,0,11916,49.152,28.958,14233.4
373879281,0.63477,2.223,117.028,0.378139,0.0335174,0.964921,-0.646886,0.529765,-0.0198055,-0.100621,3.93201,1.94848,0,2.4,0,11916,49.152,28.958,14233.4
373981163,0.63477,2.223,117.025,0.309596,0.0330083,0.963506,-0.984518,0.754136,0.000927955,-0.143191,3.33037,1.24531,0,2.4,0,11916,49.152,28.958,14233.4
374081510,0.63477,2.223,117.031,0.244061,0.02962,0.961626,-1.24858,0.936365,0.00154353,-0.0995731,2.6835,0.679946,0,2.4,0,11916,49.152,28.958,14233.4
374181782,0.63477,2.223,117.039,0.186945,0.0272843,0.960374,-1.45067,1.06868,0.00638722,-0.148772,1.92825,0.511037,0,2.4,0,11916,49.185,27.832,13689.2
374282056,0.63477,2.223,117.057,0.145221,0.0249947,0.959427,-1.5936,1.166,0.0131005,-0.101041,1.38951,0.0976189,0,2.4,0,11916,49.185,27.832,13689.2
374382503,0.63477,2.223,117.072,0.113422,0.0223849,0.958716,-1.70199,1.24015,-0.00102696,-0.0777601,0.999299,-0.0972308,0,2.4,0,11916,49.185,27.832,13689.2
374482924,0.63477,2.223,117.086,0.090001,0.0211874,0.957994,-1.7813,1.29638,-0.00362468,-0.0792654,0.719568,-0.139166,0,2.4,0,11916,49.185,27.832,13689.2
374583292,0.63477,2.223,117.1,0.073877,0.0200247,0.95768,-1.82623,1.33951,-0.0131076,-0.00424382,0.498488,-0.0915803,0,2.4,0,11916,49.185,27.832,13689.2
374683654,0.63477,2.223,117.109,0.062534,0.0178814,0.957375,-1.85874,1.36936,-0.0136807,-0.00312361,0.377807,-0.100778,0,2.4,0,11916,49.185,27.832,13689.2
374784134,0.63477,2.223,117.117,0.052715,0.0177623,0.957749,-1.87897,1.39259,-0.0204588,-0.00738614,0.261117,-0.178953,0,-1.8,0,11916,49.185,27.832,13689.2
374884503,0.63477,2.223,117.119,0.0340881,0.0190387,0.959359,-1.88124,1.39955,-0.0281781,-0.0221805,0.0963496,-0.067112,0,-1.8,0,11916,49.185,27.832,13689.2
374984857,0.63477,2.223,117.122,-0.144755,0.0171921,0.957283,-1.8742,1.39226,0.0221769,-0.127374,-0.282154,0.462793,0,-1.8,0,11916,49.185,27.832,13689.2
375085220,0.63477,2.223,117.128,-0.320476,0.0135427,0.955952,-1.66832,1.25709,0.00974715,-0.00305279,-2.68214,-0.130435,0,-1.8,0,11916,49.185,27.832,13689.2
375185548,0.63477,2.223,117.125,-0.42524,0.0100067,0.957261,-1.34063,1.04398,-0.0590951,0.0405548,-3.70787,1.25332,0,-1.8,0,11916,49.102,27.35,13429.4
375285908,0.63477,2.223,117.114,-0.480637,0.00967534,0.958434,-0.825051,0.702794,-0.0993357,0.0773725,-4.60374,2.08493,0,-1.8,0,11916,49.102,27.35,13429.4
375386251,0.63477,2.223,117.112,-0.49936,0.0122681,0.958688,-0.343506,0.384915,-0.109661,0.0538628,-4.784,2.73523,0,-1.8,0,11916,49.102,27.35,13429.4
375486604,0.63477,2.223,117.091,-0.471577,0.0214448,0.955951,0.145178,0.0562003,-0.108223,0.0636263,-4.73478,2.86126,0,-1.8,0,11916,49.102,27.35,13429.4
375586945,0.63477,2.223,117.068,-0.392824,0.0283534,0.955053,0.565521,-0.245147,-0.07829,-0.0602195,-4.21047,2.23076,0,-1.8,0,11916,49.102,27.35,13429.4
375687178,0.63477,2.223,117.056,-0.303658,0.0326768,0.954016,0.897089,-0.484457,-0.0573447,-0.0964761,-3.44439,1.2717,0,-1.8,0,11916,49.102,27.35,13429.4
375787415,0.63477,2.223,117.047,-0.221234,0.0360765,0.953651,1.1392,-0.6671,-0.0465688,-0.126487,-2.42446,0.783748,0,-1.8,0,11916,49.102,27.35,13429.4
375887817,0.63477,2.223,117.05,-0.147156,0.0383745,0.953893,1.31079,-0.800382,-0.0346058,-0.143069,-1.66854,0.414718,0,-1.8,0,11916,49.102,27.35,13429.4
375988335,0.63477,2.223,117.05,-0.0967331,0.0386018,0.954646,1.43409,-0.889978,-0.0314902,-0.0899401,-1.11927,0.201411,0,-1.8,0,11916,49.102,27.35,13429.4
376088742,0.63477,2.223,117.053,-0.0643264,0.039497,0.955317,1.50283,-0.957845,-0.0221611,-0.217741,-0.613617,0.088037,0,-1.8,0,11916,49.102,27.35,13429.4
376189021,0.63477,2.223,117.049,-0.0451206,0.036361,0.955966,1.54915,-1.01689,-0.0264105,-0.240403,-0.472436,-0.121593,0,-1.8,0,11916,49.136,29.883,14683.3
376289265,0.63477,2.223,117.046,-0.0326473,0.0333458,0.956561,1.59325,-1.04863,-0.0210497,-0.0579925,-0.313557,0.0833643,0,-1.8,0,11916,49.136,29.883,14683.3
376389504,0.63477,2.223,117.045,-0.0235197,0.0323651,0.9569,1.61723,-1.06663,-0.0223564,-0.0494036,-0.142729,0.0347337,0,-1.8,0,11916,49.136,29.883,14683.3
376489713,0.63477,2.223,117.039,-0.0202073,0.0302261,0.957202,1.62884,-1.08249,-0.0225616,-0.0991552,-0.0716844,0.0554322,0,-1.8,0,11916,49.136,29.883,14683.3
376590006,0.63477,2.223,117.03,-0.0176026,0.0286129,0.957257,1.6339,-1.0923,-0.018851,-0.0601126,-0.0673913,-0.0464138,0,-1.8,0,11916,49.136,29.883,14683.3
376690197,0.63477,2.223,117.023,-0.0170643,0.0280895,0.957281,1.63083,-1.09453,-0.0297579,-0.0398214,0.010705,0.0140556,0,-1.8,0,11916,49.136,29.883,14683.3
376790624,0.63477,2.223,117.019,-0.0172214,0.026663,0.95719,1.62011,-1.09211,-0.0160623,-0.0315564,0.0803499,0.124216,0,4.4,0,11916,49.136,29.883,14683.3
376891025,0.63477,2.223,117.011,0.00173331,0.0250525,0.955108,1.61707,-1.08865,-0.013356,0.042146,-0.0942294,0.38133,0,4.4,0,11916,49.136,29.883,14683.3
376991392,0.63477,2.223,117.009,0.179747,0.0172923,0.959194,1.57403,-1.06535,0.0428625,-0.0434795,0.719435,-0.0472638,0,4.4,0,11916,49.136,29.883,14683.3
377091730,0.63477,2.223,117.011,0.333788,0.0128105,0.960242,1.36048,-0.906597,-0.0151733,0.0086792,2.74554,0.145049,0,4.4,0,11916,49.136,29.883,14683.3
377192068,0.63477,2.223,117.012,0.422383,0.0106396,0.960056,1.03972,-0.66715,-0.0408404,0.12369,3.70751,1.54578,0,4.4,0,11916,49.199,25.395,12494.1
377293012,0.63477,2.223,117.01,0.460859,0.0114186,0.960201,0.635206,-0.367018,-0.0393444,0.120723,4.45222,2.0031,0,4.4,0,11916,49.199,25.395,12494.1
377394347,0.63477,2.223,116.998,0.468957,0.0116558,0.959958,0.203734,-0.0469256,-0.0397982,0.153545,4.62671,2.33493,0,4.4,0,11916,49.199,25.395,12494.1
377494862,0.63477,2.223,116.98,0.459433,0.0124722,0.96018,-0.224844,0.265387,-0.0252342,0.0540901,4.39457,2.52373,0,4.4,0,11916,49.199,25.395,12494.1
377595232,0.63477,2.223,116.959,0.447044,0.0144131,0.960308,-0.633013,0.567867,-0.0191543,0.0983944,4.34057,2.11574,0,4.4,0,11916,49.199,25.395,12494.1
377695639,0.63477,2.223,116.946,0.436153,0.0169089,0.960382,-1.01957,0.860496,-0.00626163,0.099679,4.02824,2.13611,0,4.4,0,11916,49.199,25.395,12494.1
377795984,0.63477,2.223,116.937,0.425929,0.021919,0.961644,-1.40012,1.13536,-0.00375244,0.0131989,3.91604,1.93883,0,4.4,0,11916,49.199,25.395,12494.1
377896395,0.63477,2.223,116.932,0.416471,0.0274186,0.962851,-1.77163,1.39254,0.00519255,-0.0389009,3.75744,1.91453,0,4.4,0,11916,49.199,25.395,12494.1
377996760,0.63477,2.223,116.934,0.391069,0.0324729,0.963584,-2.13407,1.64481,0.0162028,-0.0509998,3.73246,1.67894,0,4.4,0,11916,49.199,25.395,12494.1
378097138,0.63477,2.223,116.942,0.339429,0.0353241,0.963109,-2.4581,1.85797,0.0319792,-0.185749,3.24768,1.36471,0,4.4,0,11916,49.199,25.395,12494.1
378199012,0.63477,2.223,116.95,0.286167,0.0339351,0.961845,-2.71987,2.02955,0.0528522,-0.122977,2.6404,0.995516,0,4.4,0,11916,49.196,26.616,13094
378307281,0.63477,2.223,116.973,0.238187,0.0319496,0.960475,-2.9621,2.18168,0.0610844,-0.214832,2.01351,0.274486,0,4.4,0,11916,49.196,26.616,13094
378407663,0.63477,2.223,116.998,0.198131,0.0299149,0.959525,-3.11028,2.29292,0.0595448,-0.0200649,1.63537,0.220442,0,4.4,0,11916,49.196,26.616,13094
378508036,0.63477,2.223,117.012,0.169473,0.0280033,0.958576,-3.22267,2.37463,0.0559051,-0.050215,1.22869,0.148417,0,4.4,0,11916,49.196,26.616,13094
378608361,0.63477,2.223,117.03,0.143764,0.0260982,0.958382,-3.30999,2.44318,0.0499128,-0.0484623,1.02407,-0.173784,0,4.4,0,11916,49.196,26.616,13094
378708660,0.63477,2.223,117.043,0.124197,0.0230828,0.958463,-3.37406,2.49189,0.0383161,-0.0195734,0.788481,-0.0633913,0,4.4,0,11916,49.196,26.616,13094
378809076,0.63477,2.223,117.053,0.110821,0.0255599,0.958761,-3.40989,2.52816,0.0259971,-0.0205626,0.52347,-0.181632,0,4.8,0,11916,49.196,26.616,13094
378909443,0.63477,2.223,117.059,0.111292,0.0274657,0.958172,-3.44945,2.55085,0.0201564,-0.0838462,0.41487,0.637363,0,4.8,0,11916,49.196,26.616,13094
379009826,0.63477,2.223,117.061,0.129272,0.0290213,0.959205,-3.49336,2.59068,0.00919424,-0.0618615,0.75727,-0.690651,0,4.8,0,11916,49.196,26.616,13094
379110178,0.634769,2.223,117.062,0.140984,0.0296,0.959571,-3.54267,2.63204,-0.023707,0.0162348,0.79176,0.152095,0,4.8,0,11916,49.196,26.616,13094
379210497,0.634769,2.223,117.052,0.144704,0.0326179,0.959959,-3.60166,2.67841,-0.0236954,-0.0190672,0.831737,0.0380756,0,4.8,0,11916,49.146,28.327,13921.6
379310817,0.634769,2.223,117.038,0.142831,0.0369827,0.959759,-3.6599,2.71769,-0.0454354,-0.109327,0.833366,0.330941,0,4.8,0,11916,49.146,28.327,13921.6
379411147,0.634769,2.223,117.028,0.138343,0.0393311,0.960013,-3.71912,2.74487,-0.0299885,-0.162742,0.765744,0.227879,0,4.8,0,11916,49.146,28.327,13921.6
379511483,0.634769,2.223,117.023,0.134168,0.038015,0.959726,-3.76418,2.77853,-0.040783,-0.0446607,0.71167,-0.158867,0,4.8,0,11916,49.146,28.327,13921.6
379611783,0.634769,2.223,117.013,0.128352,0.0385942,0.959276,-3.81038,2.80515,-0.03711,-0.0708785,0.59512,0.419589,0,4.8,0,11916,49.146,28.327,13921.6
379712134,0.634769,2.223,117.005,0.117522,0.0377889,0.959184,-3.83522,2.82594,-0.0301727,-0.0329121,0.406289,0.196212,0,4.8,0,11916,49.146,28.327,13921.6
379812488,0.634769,2.223,116.999,0.109137,0.0359755,0.959147,-3.85653,2.844,-0.0153563,-0.0272251,0.392072,0.0802882,0,4.8,0,11916,49.146,28.327,13921.6
379912855,0.634769,2.223,116.993,0.109134,0.0366816,0.959084,-3.8608,2.86073,-0.00950653,0.0217677,0.265083,0.19812,0,4.8,0,11916,49.146,28.327,13921.6
380013210,0.634769,2.223,116.985,0.107983,0.0377076,0.958922,-3.87281,2.86986,-0.0208329,-0.0366104,0.309309,0.00550086,0,4.8,0,11916,49.146,28.327,13921.6
380113591,0.634769,2.223,116.987,0.106804,0.0392438,0.959896,-3.88585,2.87486,-0.00887534,-0.103521,0.277106,0.162562,0,4.8,0,11916,49.146,28.327,13921.6
380213932,0.634769,2.223,116.991,0.106604,0.0434326,0.960407,-3.89935,2.86936,-0.0179076,-0.197121,0.192427,-0.0160483,0,4.8,0,11916,49.146,28.327,13921.6
380314266,0.634769,2.223,116.994,0.103947,0.042832,0.959813,-3.91424,2.87157,-0.00491309,-0.0539885,0.293011,0.0752642,0,4.8,0,11872,49.188,27.315,13435.7
380421820,0.634769,2.223,116.998,0.102823,0.0447297,0.959546,-3.92692,2.87359,-0.0155246,-0.21861,0.366412,-1.01193,0,4.8,0,11872,49.188,27.315,13435.7
380527813,0.634769,2.223,117.005,0.0975106,0.0442467,0.959725,-3.95418,2.85525,-0.0145323,-0.20031,0.18785,0.610167,0,4.8,0,11872,49.188,27.315,13435.7
380630705,0.634769,2.223,117.007,0.0951756,0.0420092,0.959673,-3.96557,2.84788,0.017925,-0.158321,0.138829,0.123875,0,4.8,0,11872,49.188,27.315,13435.7
380731065,0.634769,2.223,117.013,0.0943223,0.0340883,0.959771,-3.98101,2.84104,0.0119373,-0.173229,0.15366,-0.0368205,0,4.8,0,11872,49.188,27.315,13435.7
380831487,0.634769,2.223,117.018,0.0937941,0.031027,0.95954,-3.98821,2.84568,0.0131318,-0.0550283,0.189971,0.0432989,0,2.8,0,11872,49.188,27.315,13435.7
380931802,0.634769,2.223,117.018,0.065295,0.032291,0.961833,-3.99941,2.85509,0.00202441,-0.0916891,0.27104,0.251614,0,2.8,0,11872,49.188,27.315,13435.7
381032216,0.634768,2.223,117.014,-0.0876871,0.0320598,0.95682,-3.95607,2.84006,0.0710215,-0.00527806,-0.595515,0.646893,0,2.8,0,11872,49.188,27.315,13435.7
381132561,0.634768,2.223,117.023,-0.190193,0.0374382,0.953154,-3.78245,2.71298,0.0558965,-0.13602,-2.19968,-0.233668,0,2.8,0,11872,49.188,27.315,13435.7
381232959,0.634768,2.223,117.024,-0.228155,0.0466269,0.952371,-3.56004,2.54317,0.0124223,-0.174692,-2.69238,0.532773,0,2.8,0,11872,49.188,27.315,13435.7
381333836,0.634768,2.223,117.019,-0.224336,0.0510388,0.952277,-3.33206,2.35638,-0.0104943,-0.298867,-2.78302,0.466386,0,2.8,0,11872,49.224,23.181,11410.6
381434279,0.634768,2.223,117.012,-0.193115,0.0533834,0.953461,-3.11195,2.20219,-0.0288925,0.101398,-2.47069,0.669777,0,2.8,0,11872,49.224,23.181,11410.6
381534665,0.634768,2.223,116.995,-0.151188,0.0535216,0.955626,-2.93498,2.04727,-0.0518517,-0.291551,-2.12354,0.329357,0,2.8,0,11872,49.224,23.181,11410.6
381635026,0.634768,2.223,116.976,-0.114873,0.0401132,0.957896,-2.79124,1.90535,-0.0594726,-0.335562,-1.81211,0.345304,0,2.8,0,11872,49.224,23.181,11410.6
381735393,0.634768,2.223,116.971,-0.0799324,0.0248436,0.959238,-2.66294,1.79993,-0.0421744,-0.133154,-1.52243,0.205699,0,2.8,0,11872,49.224,23.181,11410.6
381835760,0.634768,2.223,116.97,-0.0411168,0.0138491,0.959733,-2.55536,1.72768,-0.0331545,0.0462669,-1.0915,0.238555,0,2.8,0,11872,49.224,23.181,11410.6
381936109,0.634768,2.223,116.975,-0.0118577,0.00543179,0.959094,-2.47215,1.68944,-0.0238301,0.152536,-0.738792,-0.303953,0,2.8,0,11872,49.224,23.181,11410.6
382036476,0.634768,2.223,116.986,0.00792874,0.00491888,0.957849,-2.43019,1.66366,-0.00398392,-0.187377,-0.417639,0.660993,0,2.8,0,11872,49.224,23.181,11410.6
382136909,0.634768,2.223,117.006,0.0244043,0.000848623,0.956916,-2.38531,1.66326,0.00405686,0.25018,-0.261132,-0.316875,0,2.8,0,11872,49.224,23.181,11410.6
382237313,0.634768,2.223,117.027,0.035788,0.00430222,0.956997,-2.34586,1.67672,-0.00228691,0.315548,-0.144146,-0.0535163,0,2.8,0,11872,49.224,23.181,11410.6
382337744,0.634768,2.223,117.036,0.0410461,0.00763387,0.95712,-2.32321,1.68943,0.0109954,0.283694,-0.0229241,0.00348711,0,2.8,0,11872,49.252,23.251,11451.6
382438107,0.634768,2.223,117.049,0.043424,0.0132334,0.957295,-2.31247,1.70129,0.0117966,0.141764,0.00951591,-0.360659,0,2.8,0,11872,49.252,23.251,11451.6
382538473,0.634768,2.223,117.056,0.0460633,0.0188764,0.957712,-2.30288,1.71329,0.00503266,0.129678,0.016449,-0.306779,0,2.8,0,11872,49.252,23.251,11451.6
382638832,0.634768,2.223,117.055,0.0477623,0.0242121,0.957826,-2.30345,1.72255,-0.00258242,0.0803413,-0.0222877,0.0312072,0,2.8,0,11872,49.252,23.251,11451.6
382739195,0.634768,2.223,117.056,0.0454486,0.0272179,0.957947,-2.30893,1.73237,0.00599748,0.0339729,0.0246147,-0.110982,0,2.8,0,11872,49.252,23.251,11451.6
382839625,0.634768,2.223,117.06,0.0431244,0.0312818,0.958225,-2.31175,1.72598,-0.00940554,-0.111622,-0.0694205,-0.171895,0,-3,0,11872,49.252,23.251,11451.6
382940052,0.634768,2.223,117.059,0.0235884,0.0269586,0.958932,-2.31333,1.7304,-0.020074,0.0198902,-0.0548587,0.23805,0,-3,0,11872,49.252,23.251,11451.6
383040451,0.634768,2.223,117.048,-0.152726,0.0145671,0.955413,-2.28253,1.72612,0.0548789,0.172688,-0.60718,0.839601,0,-3,0,11872,49.252,23.251,11451.6
383140827,0.634768,2.223,117.047,-0.310081,0.00368463,0.956807,-2.06108,1.59855,0.0422052,0.262584,-2.8353,0.172356,0,-3,0,11872,49.252,23.251,11451.6
383241228,0.634768,2.223,117.052,-0.403498,0.000869587,0.960043,-1.74337,1.41146,-0.022206,0.24584,-3.64556,1.33611,0,-3,0,11872,49.252,23.251,11451.6
383341544,0.634768,2.223,117.044,-0.45113,-0.00071539,0.962836,-1.32752,1.16754,-0.018495,0.328931,-4.43968,1.77917,0,-3,0,11872,49.264,22.05,10862.7
383441917,0.634768,2.223,117.024,-0.466587,0.000367537,0.963022,-0.904112,0.913258,-0.0806691,0.246229,-4.61497,1.98842,0,-3,0,11872,49.264,22.05,10862.7
383542271,0.634768,2.223,116.994,-0.4657,0.00419594,0.963189,-0.458037,0.640365,-0.103075,0.26343,-4.55499,2.4291,0,-3,0,11872,49.264,22.05,10862.7
383642618,0.634768,2.223,116.954,-0.459604,0.00782405,0.962759,-0.0174484,0.369519,-0.126345,0.263422,-4.4724,2.599,0,-3,0,11872,49.264,22.05,10862.7
383742969,0.634768,2.223,116.921,-0.45079,0.0219229,0.957146,0.452841,0.0858867,-0.0949847,0.314481,-4.45886,3.11953,0,-3,0,11872,49.264,22.05,10862.7
383843338,0.634768,2.223,116.893,-0.434119,0.0403601,0.951414,0.902201,-0.21987,-0.0626504,0.0666961,-4.60736,2.39862,0,-3,0,11872,49.264,22.05,10862.7
383943687,0.634768,2.223,116.874,-0.399422,0.0583377,0.94692,1.30124,-0.52204,-0.0456302,-0.172088,-4.25386,2.29189,0,-3,0,11872,49.264,22.05,10862.7
384044088,0.634768,2.223,116.887,-0.330599,0.0648383,0.94669,1.64633,-0.810422,0.00339555,-0.289939,-3.79659,1.82663,0,-3,0,11872,49.264,22.05,10862.7
384144452,0.634768,2.223,116.887,-0.258106,0.0657347,0.947521,1.90318,-1.04681,0.0376293,-0.382652,-2.9391,1.22383,0,-3,0,11872,49.264,22.05,10862.7
384244811,0.634768,2.223,116.947,-0.194811,0.0652091,0.948807,2.10058,-1.22472,0.0639805,-0.314276,-2.29536,0.491891,0,-3,0,11872,49.264,22.05,10862.7
384345154,0.634768,2.223,116.98,-0.145627,0.0635656,0.949547,2.23666,-1.35656,0.0697386,-0.333346,-1.62369,0.0271031,0,-3,0,11827,49.333,21.463,10588.3
384445545,0.634768,2.223,117.002,-0.111262,0.0603934,0.950048,2.32505,-1.45598,0.0643854,-0.316431,-1.11327,-0.0284983,0,-3,0,11827,49.333,21.463,10588.3
384547137,0.634768,2.223,117.02,-0.0882384,0.0575397,0.950383,2.40119,-1.54412,0.0491367,-0.247004,-0.878925,-0.347681,0,-3,0,11827,49.333,21.463,10588.3
384647513,0.634768,2.223,117.027,-0.0710543,0.0537294,0.951125,2.44039,-1.60308,0.0341793,-0.267097,-0.595073,-0.0676534,0,-3,0,11827,49.333,21.463,10588.3
384747879,0.634768,2.223,117.025,-0.0620124,0.0486644,0.951782,2.46366,-1.64044,0.0270085,-0.22161,-0.444023,-0.162704,0,-3,0,11827,49.333,21.463,10588.3
384848370,0.634768,2.223,117.024,-0.0570631,0.0443592,0.952571,2.48458,-1.67037,0.00807382,-0.144661,-0.392108,-0.150853,0,4.5,0,11827,49.333,21.463,10588.3
384948716,0.634768,2.223,117.013,-0.0379691,0.0415423,0.950869,2.50502,-1.69262,0.0109677,-0.0256139,-0.423388,0.222779,0,4.5,0,11827,49.333,21.463,10588.3
385049019,0.634768,2.223,117.012,0.147949,0.0305187,0.956881,2.47963,-1.68307,0.0726478,-0.00840777,0.453862,0.0548911,0,4.5,0,11827,49.333,21.463,10588.3
385149435,0.634768,2.223,117.006,0.341741,0.0213408,0.959589,2.26393,-1.517,-0.0224823,0.137492,2.90619,-0.152907,0,4.5,0,11827,49.333,21.463,10588.3
385249750,0.634768,2.223,116.997,0.459712,0.0163651,0.959197,1.90185,-1.24924,-0.0739457,0.150845,3.97932,1.8744,0,4.5,0,11827,49.333,21.463,10588.3
385350100,0.634768,2.223,116.985,0.507824,0.0145344,0.958655,1.43633,-0.905841,-0.0626471,0.112505,4.72308,2.93751,0,4.5,0,11827,49.334,23.126,11409
385451122,0.634768,2.223,116.97,0.513534,0.0146378,0.958687,0.949748,-0.537496,-0.0506814,0.209007,4.86177,3.04929,0,4.5,0,11827,49.334,23.126,11409
385551545,0.634768,2.223,116.949,0.499162,0.015051,0.958761,0.476116,-0.173956,-0.024563,0.21494,4.78591,2.94375,0,4.5,0,11827,49.334,23.126,11409
385651968,0.634768,2.223,116.946,0.482265,0.0176047,0.959678,0.0200663,0.168489,-0.0116876,0.207942,4.6048,2.69095,0,4.5,0,11827,49.334,23.126,11409
385752355,0.634768,2.223,116.954,0.464695,0.0204533,0.960478,-0.41327,0.492749,0.00680075,0.150279,4.30234,2.45932,0,4.5,0,11827,49.334,23.126,11409
385852711,0.634768,2.223,116.964,0.449284,0.0268575,0.96276,-0.820285,0.795169,0.0235827,0.0915546,4.0712,2.07525,0,4.5,0,11827,49.334,23.126,11409
385953042,0.634768,2.223,116.97,0.435873,0.0337385,0.965104,-1.20399,1.07215,0.0179871,0.0420762,3.88429,1.77436,0,4.5,0,11827,49.334,23.126,11409
386053324,0.634768,2.223,116.979,0.425343,0.0428186,0.968092,-1.57866,1.32828,0.0231768,-0.0776415,3.69682,1.67875,0,4.5,0,11827,49.334,23.126,11409
386153669,0.634768,2.223,116.995,0.408081,0.0485581,0.968929,-1.96275,1.55539,0.0233172,-0.422218,3.71671,1.565,0,4.5,0,11827,49.334,23.126,11409
386253946,0.634768,2.223,117.009,0.361956,0.0483834,0.967659,-2.31891,1.77576,0.0343748,-0.268272,3.33815,1.5823,0,4.5,0,11827,49.334,23.126,11409
386354269,0.634768,2.223,117.02,0.30853,0.0487836,0.966412,-2.61128,1.9512,0.0641524,-0.264116,2.75718,1.06481,0,4.5,0,11827,49.334,23.126,11409
386454642,0.634768,2.223,117.028,0.261066,0.0447949,0.964499,-2.83324,2.09284,0.0535733,-0.219582,2.31946,0.168464,0,4.5,0,11827,49.158,26.471,13012.6
386555018,0.634768,2.223,117.035,0.219944,0.0427456,0.962801,-3.01427,2.2136,0.047069,-0.0912144,1.78049,0.550785,0,4.5,0,11827,49.158,26.471,13012.6
386655425,0.634768,2.223,117.047,0.184734,0.0392867,0.961404,-3.14963,2.30961,0.052284,-0.110521,1.43058,-0.0297385,0,4.5,0,11827,49.158,26.471,13012.6
386755783,0.634768,2.223,117.064,0.162564,0.0393909,0.960901,-3.23842,2.3863,0.0290616,0.0336888,1.05126,-0.0959125,0,4.5,0,11827,49.158,26.471,13012.6
386856197,0.634768,2.223,117.068,0.144329,0.0387296,0.9603,-3.31919,2.45217,0.0100215,0.000582238,0.980538,-0.16749,0,-3,0,11827,49.158,26.471,13012.6
386956576,0.634767,2.223,117.073,0.115145,0.0357616,0.960882,-3.37039,2.50708,-0.00867263,0.0370545,0.78402,-0.41068,0,-3,0,11827,49.158,26.471,13012.6
387056955,0.634767,2.223,117.079,-0.0937647,0.0241498,0.95492,-3.40722,2.54722,0.0536173,0.0622537,0.298343,0.784431,0,-3,0,11827,49.158,26.471,13012.6
387157330,0.634767,2.223,117.101,-0.309561,0.0126776,0.954196,-3.18044,2.42724,0.134144,0.246422,-2.69687,0.365,0,-3,0,11827,49.158,26.471,13012.6
387257685,0.634767,2.223,117.106,-0.428794,0.0141372,0.955327,-2.83296,2.23228,0.0160231,0.240296,-3.92723,0.833506,0,-3,0,11827,49.158,26.471,13012.6
387357992,0.634767,2.223,117.102,-0.478964,0.0122064,0.958028,-2.37972,1.94378,-0.0058586,0.156129,-4.73076,2.26503,0,-3,0,11827,49.158,26.471,13012.6
387458313,0.634767,2.223,117.083,-0.496152,0.0137345,0.957311,-1.91246,1.65008,-0.0676908,0.238731,-4.79555,2.16416,0,-3,0,11827,49.111,26.41,12970.2
387558659,0.634767,2.223,117.049,-0.501281,0.00933677,0.959654,-1.44623,1.34138,-0.119945,0.0486164,-4.83157,2.43614,0,-3,0,11827,49.111,26.41,12970.2
387659053,0.634767,2.223,117.024,-0.505792,0.00355019,0.963162,-0.962651,1.04633,-0.169398,0.284929,-4.82448,2.48934,0,-3,0,11827,49.111,26.41,12970.2
387759410,0.634767,2.223,117.003,-0.503651,0.00474485,0.963005,-0.443321,0.731229,-0.168714,0.319944,-4.93032,3.15252,0,-3,0,11827,49.111,26.41,12970.2
387859811,0.634767,2.223,116.991,-0.492253,0.0160598,0.960168,0.0968157,0.402865,-0.115982,0.297508,-4.93231,3.15289,0,-3,0,11827,49.111,26.41,12970.2
387960217,0.634767,2.223,116.99,-0.470112,0.0338418,0.9552,0.59588,0.0872064,-0.100176,0.202609,-4.69823,2.80703,0,-3,0,11827,49.111,26.41,12970.2
388060579,0.634767,2.223,116.994,-0.443298,0.054284,0.949378,1.0549,-0.23206,-0.0631575,-0.0172247,-4.51007,2.50221,0,-3,0,11827,49.111,26.41,12970.2
388160945,0.634767,2.223,117.002,-0.387715,0.0736587,0.945022,1.46687,-0.538346,-0.0323261,-0.106489,-4.25319,1.92776,0,-3,0,11827,49.111,26.41,12970.2
388261287,0.634767,2.223,117.01,-0.309167,0.0847018,0.943124,1.79239,-0.810061,-0.00549604,-0.298583,-3.46682,1.40396,0,-3,0,11827,49.111,26.41,12970.2
388361611,0.634768,2.223,117.016,-0.233148,0.086698,0.944028,2.02218,-1.02964,0.00379425,-0.42593,-2.62046,0.700751,0,-3,0,11827,49.111,26.41,12970.2
388462003,0.634768,2.223,117.03,-0.168362,0.0832642,0.945717,2.17528,-1.19556,0.00930994,-0.501299,-1.81772,0.246621,0,-3,0,11827,49.07,30.368,14901.6
388562378,0.634768,2.223,117.04,-0.120262,0.0750174,0.947949,2.27101,-1.31667,0.0185295,-0.456188,-1.17208,0.149012,0,-3,0,11827,49.07,30.368,14901.6
388662768,0.634768,2.223,117.039,-0.0905606,0.0649884,0.949661,2.33726,-1.40635,0.0269709,-0.306688,-0.879456,0.153432,0,-3,0,11827,49.07,30.368,14901.6
388763125,0.634768,2.223,117.04,-0.0720199,0.0571137,0.951343,2.37341,-1.4616,0.0132288,-0.218491,-0.496287,-0.228996,0,-3,0,11827,49.07,30.368,14901.6
388863561,0.634768,2.223,117.045,-0.0633431,0.0507579,0.952069,2.39678,-1.49684,0.00885678,-0.162748,-0.319633,0.110413,0,1.1,0,11827,49.07,30.368,14901.6
388963968,0.634768,2.223,117.053,-0.0457607,0.0476908,0.950919,2.41521,-1.53237,0.0112963,-0.163081,-0.344998,-0.0731792,0,1.1,0,11827,49.07,30.368,14901.6
389064391,0.634768,2.223,117.058,0.134977,0.0367967,0.957619,2.41939,-1.5492,0.0789811,-0.0596023,0.0148593,0.501608,0,1.1,0,11827,49.07,30.368,14901.6
389164752,0.634768,2.223,117.07,0.335791,0.0324116,0.962978,2.18922,-1.37668,-0.0201402,0.0258781,3.0428,-0.554108,0,1.1,0,11827,49.07,30.368,14901.6
389266861,0.634768,2.223,117.073,0.45669,0.0323749,0.964032,1.83653,-1.13326,-0.0787971,-0.0962687,3.87287,1.6723,0,1.1,0,11827,49.07,30.368,14901.6
389368861,0.634768,2.223,117.071,0.5041,0.031337,0.963164,1.38263,-0.816324,-0.0903302,0.0181108,4.69377,2.41016,0,1.1,0,11827,49.07,30.368,14901.6
389469229,0.634768,2.223,117.06,0.480103,0.0343758,0.962542,0.900986,-0.464291,-0.0722975,0.0775242,4.91554,2.80646,0,1.1,0,11827,49.226,24.114,11870.4
389569577,0.634768,2.223,117.045,0.397381,0.0380028,0.961473,0.465801,-0.148791,-0.0316625,0.0910925,4.37674,2.3869,0,1.1,0,11827,49.226,24.114,11870.4
389669918,0.634768,2.223,117.048,0.308071,0.0435151,0.961883,0.124448,0.0992888,-0.000577634,0.0213706,3.56648,1.21891,0,1.1,0,11827,49.226,24.114,11870.4
389770236,0.634768,2.223,117.055,0.226069,0.0475836,0.961832,-0.130693,0.280739,-0.00151425,-0.0235883,2.60713,0.517505,0,1.1,0,11827,49.226,24.114,11870.4
389870603,0.634768,2.223,117.057,0.159956,0.0489343,0.961323,-0.314736,0.411127,-0.0024463,-0.0191996,1.77844,0.185684,0,1.1,0,11827,49.226,24.114,11870.4
389970965,0.634768,2.223,117.055,0.113347,0.0501908,0.961205,-0.450763,0.501611,-0.00774472,-0.0754824,1.1829,0.145679,0,1.1,0,11827,49.226,24.114,11870.4
390071318,0.634768,2.223,117.05,0.0806437,0.0508852,0.960518,-0.557521,0.552178,-0.0149462,-0.247712,0.79048,-0.138943,0,1.1,0,11827,49.226,24.114,11870.4
390171685,0.634768,2.223,117.042,0.058785,0.0495406,0.959954,-0.635891,0.597704,-0.0286606,-0.124475,0.550233,0.023061,0,1.1,0,11827,49.226,24.114,11870.4
390272089,0.634768,2.223,117.034,0.044844,0.0470255,0.959412,-0.689347,0.622484,-0.0273615,-0.124396,0.249045,0.130894,0,1.1,0,11827,49.226,24.114,11870.4
390372468,0.634768,2.223,117.026,0.0349565,0.0448145,0.959199,-0.723484,0.649482,-0.0210196,-0.000471603,0.199884,0.107167,0,1.1,0,11827,49.226,24.114,11870.4
390472852,0.634768,2.223,117.02,0.0306355,0.0441205,0.958707,-0.744802,0.677193,-0.024815,0.0612685,0.151581,-0.0545878,0,1.1,0,11827,49.095,28.007,13750
390573219,0.634768,2.223,117.015,0.0269175,0.0424134,0.958653,-0.760254,0.689602,-0.0232307,-0.013437,0.100655,0.17877,0,1.1,0,11827,49.095,28.007,13750
390673611,0.634768,2.223,117.002,0.0273984,0.0445656,0.958823,-0.770912,0.70064,-0.0281861,-0.049714,0.121325,-0.202784,0,1.1,0,11827,49.095,28.007,13750
390774052,0.634768,2.223,116.998,0.0273001,0.0489529,0.958827,-0.773327,0.71255,-0.0373185,-0.000448292,0.0484808,-0.0316999,0,1.1,0,11827,49.095,28.007,13750
390874504,0.634768,2.223,116.99,0.0288189,0.0551667,0.958961,-0.778597,0.72032,-0.0329225,-0.0731658,0.123816,-0.0269705,0,4,0,11827,49.095,28.007,13750
390974873,0.634768,2.223,116.985,0.0592582,0.055261,0.957633,-0.793122,0.726072,-0.0168146,-0.150491,0.200454,0.597437,0,4,0,11827,49.095,28.007,13750
391075197,0.634768,2.223,116.986,0.195392,0.0463521,0.964054,-0.832787,0.756844,0.0171386,-0.0492866,0.888154,-0.251183,0,4,0,11827,49.095,28.007,13750
391175571,0.634768,2.223,116.986,0.316928,0.0409179,0.964822,-0.997747,0.890779,-0.0343208,0.080615,2.35854,0.139676,0,4,0,11827,49.095,28.007,13750
391277274,0.634768,2.223,116.984,0.391685,0.0421511,0.964381,-1.25548,1.09434,-0.0526134,0.137999,3.18183,1.24972,0,4,0,11827,49.095,28.007,13750
391378880,0.634768,2.223,116.988,0.422589,0.0490253,0.964498,-1.5769,1.34002,-0.0431979,0.10913,3.66945,1.76114,0,4,0,11827,49.095,28.007,13750
391479298,0.634768,2.223,116.992,0.398305,0.0563103,0.964172,-1.92921,1.58676,-0.0167272,-0.0691493,3.82753,1.85044,0,4,0,11827,49.114,27.341,13428.3
391579648,0.634768,2.223,116.99,0.345229,0.0629112,0.963977,-2.24197,1.79727,-0.000858045,-0.140129,3.39949,1.47459,0,4,0,11827,49.114,27.341,13428.3
391680072,0.634768,2.223,116.999,0.289981,0.0650105,0.964136,-2.50318,1.96222,0.0226075,-0.204215,2.79108,0.967546,0,4,0,11827,49.114,27.341,13428.3
391780458,0.634767,2.223,117.007,0.238687,0.0680249,0.964755,-2.71545,2.09225,0.0339599,-0.240355,2.34307,0.592907,0,4,0,11827,49.114,27.341,13428.3
391880825,0.634767,2.223,117.016,0.191124,0.0676193,0.963788,-2.88112,2.17847,0.0412414,-0.330086,1.71042,0.389193,0,4,0,11827,49.114,27.341,13428.3
391981170,0.634767,2.223,117.028,0.155668,0.0627467,0.962643,-3.00637,2.24269,0.0423775,-0.289011,1.29709,0.0452549,0,4,0,11827,49.114,27.341,13428.3
392081531,0.634767,2.223,117.034,0.132637,0.0586144,0.96204,-3.09925,2.29084,0.0427672,-0.205732,0.941912,0.0261229,0,4,0,11827,49.114,27.341,13428.3
392181875,0.634767,2.223,117.035,0.116853,0.0551887,0.961035,-3.17219,2.32439,0.0431519,-0.234508,0.706906,0.333865,0,4,0,11827,49.114,27.341,13428.3
392282273,0.634767,2.223,117.039,0.105657,0.0523543,0.960573,-3.23263,2.36887,0.0181756,-0.0622856,0.731863,-0.166355,0,4,0,11827,49.114,27.341,13428.3
392382632,0.634767,2.223,117.044,0.0923654,0.0511716,0.960734,-3.28704,2.40127,0.00769634,-0.116957,0.601106,0.0252051,0,4,0,11827,49.114,27.341,13428.3
392483012,0.634767,2.223,117.046,0.0805443,0.0517445,0.961339,-3.32052,2.42646,0.0070946,-0.0528437,0.40676,0.0078067,0,4,0,11827,49.114,27.341,13428.3
392583379,0.634767,2.223,117.044,0.0760028,0.0522986,0.961299,-3.33293,2.43799,-0.0237483,-0.0420376,0.179518,-0.141714,0,4,0,11827,49.114,27.341,13428.3
392683738,0.634767,2.223,117.039,0.071879,0.0507797,0.960985,-3.34889,2.44447,-0.0145533,-0.0546424,0.213375,0.261278,0,4,0,11827,49.114,27.341,13428.3
392784103,0.634767,2.223,117.038,0.0677714,0.0499569,0.96121,-3.36815,2.4522,-0.0175434,-0.133803,0.175616,0.00255225,0,4,0,11827,49.114,27.341,13428.3
392884523,0.634767,2.223,117.044,0.0603162,0.0491777,0.960857,-3.37722,2.45324,-0.0126936,-0.168682,0.13557,-0.278166,0,-0.2,0,11827,49.114,27.341,13428.3
392984856,0.634767,2.223,117.046,0.0459358,0.0457672,0.961696,-3.37648,2.45334,-0.0208721,-0.0406546,0.144115,0.702507,0,-0.2,0,11827,49.114,27.341,13428.3
393085262,0.634767,2.223,117.053,-0.131551,0.0378397,0.955033,-3.3271,2.43553,0.0781132,0.139145,-0.734406,0.577162,0,-0.2,0,11782,49.136,26.658,13098.7
393185638,0.634767,2.223,117.081,-0.307064,0.034793,0.952034,-3.0911,2.27823,0.0485635,-0.0104412,-3.07388,-0.454035,0,-0.2,0,11782,49.136,26.658,13098.7
393287375,0.634767,2.223,117.093,-0.416637,0.0348399,0.951176,-2.76397,2.04456,-0.0369198,-0.0940941,-3.81377,1.38471,0,-0.2,0,11782,49.136,26.658,13098.7
393389602,0.634767,2.223,117.094,-0.473324,0.0420386,0.947453,-2.35548,1.74539,-0.062561,-0.125359,-4.57429,1.75698,0,-0.2,0,11782,49.136,26.658,13098.7
393490065,0.634767,2.223,117.074,-0.500267,0.0543003,0.941201,-1.93397,1.41601,-0.113465,-0.246465,-4.73507,2.1878,0,-0.2,0,11782,49.136,26.658,13098.7
393590533,0.634767,2.223,117.037,-0.484103,0.0585066,0.93979,-1.49696,1.04749,-0.146882,-0.412692,-4.75585,2.80588,0,-0.2,0,11782,49.136,26.658,13098.7
393691019,0.634767,2.223,117.003,-0.412774,0.0379754,0.950321,-1.07191,0.686571,-0.133202,-0.390214,-4.60031,2.67711,0,-0.2,0,11782,49.136,26.658,13098.7
393791388,0.634767,2.223,116.978,-0.308753,0.00897726,0.96182,-0.702294,0.413543,-0.0953434,-0.0740483,-3.86623,1.60502,0,-0.2,0,11782,49.136,26.658,13098.7
393891745,0.634767,2.223,116.948,-0.206367,0.00204301,0.962322,-0.421723,0.245415,-0.0572573,0.191225,-2.69588,1.14582,0,-0.2,0,11782,49.136,26.658,13098.7
393992098,0.634767,2.223,116.92,-0.127202,0.0151516,0.958397,-0.24686,0.0994385,-0.046014,-0.173124,-1.85967,0.741778,0,-0.2,0,11782,49.136,26.658,13098.7
394092479,0.634767,2.223,116.914,-0.0727142,0.0250737,0.955956,-0.125703,0.00254118,-0.000154175,-0.153774,-1.16612,0.586739,0,-0.2,0,11782,49.179,26.936,13246.9
394192824,0.634767,2.223,116.926,-0.0359109,0.0338521,0.954496,-0.053709,-0.0615327,0.0224298,-0.146838,-0.638008,0.16797,0,-0.2,0,11782,49.179,26.936,13246.9
394293180,0.634767,2.223,116.939,-0.0147067,0.0366085,0.954177,-0.0126024,-0.112019,0.0349447,-0.207407,-0.387097,0.0446487,0,-0.2,0,11782,49.179,26.936,13246.9
394393522,0.634767,2.223,116.96,-0.00339766,0.0348568,0.954571,0.0108184,-0.15947,0.0479948,-0.266022,-0.265186,-0.144265,0,-0.2,0,11782,49.179,26.936,13246.9
394493899,0.634767,2.223,116.974,0.0043925,0.0311944,0.955166,0.0239969,-0.181126,0.0499348,-0.180103,-0.0960535,-0.176382,0,-0.2,0,11782,49.179,26.936,13246.9
394594266,0.634767,2.223,116.986,0.00733016,0.0259792,0.955617,0.0297259,-0.196712,0.0340649,-0.110294,-0.0611702,-0.123629,0,-0.2,0,11782,49.179,26.936,13246.9
394694632,0.634767,2.223,116.993,0.00704527,0.0226314,0.95604,0.0327353,-0.195433,0.0332874,-0.001169,0.0207275,-0.131797,0,-0.2,0,11782,49.179,26.936,13246.9
394795012,0.634767,2.223,116.992,0.00396471,0.0195462,0.956505,0.0392937,-0.203277,0.0236847,-0.0665613,-0.118365,-0.00703936,0,-0.2,0,11782,49.179,26.936,13246.9
394895453,0.634767,2.223,116.988,-0.000374109,0.0151512,0.957012,0.0376372,-0.195403,0.0100464,0.0366349,-0.0532823,-0.144221,0,4.8,0,11782,49.179,26.936,13246.9
394995816,0.634767,2.223,116.979,0.00633043,0.0132066,0.955405,0.0452286,-0.18582,0.00500293,0.0572498,-0.0653801,0.0746918,0,4.8,0,11782,49.179,26.936,13246.9
395096205,0.634767,2.223,116.978,0.150521,0.00618658,0.957497,0.0403723,-0.169106,0.059093,0.0776461,0.236947,0.0588904,0,4.8,0,11782,49.272,24.791,12215
395196560,0.634767,2.223,116.984,0.310465,0.00352231,0.959733,-0.112335,-0.0327198,0.0233589,0.179075,2.29617,-0.651222,0,4.8,0,11782,49.272,24.791,12215
395297086,0.634767,2.223,116.992,0.412022,0.00672584,0.961617,-0.381979,0.179639,-0.0451098,0.157392,3.261,1.16753,0,4.8,0,11782,49.272,24.791,12215
395398580,0.634767,2.223,116.988,0.458458,0.00909635,0.962017,-0.747932,0.461588,-0.0390849,0.18957,3.99709,1.97277,0,4.8,0,11782,49.272,24.791,12215
395498952,0.634767,2.223,116.978,0.469521,0.0100338,0.961927,-1.14538,0.767219,-0.0295607,0.185053,4.16113,2.42064,0,4.8,0,11782,49.272,24.791,12215
395601835,0.634767,2.223,116.977,0.462885,0.0121005,0.961824,-1.54336,1.07563,-0.000684584,0.152642,4.13298,2.30843,0,4.8,0,11782,49.272,24.791,12215
395709212,0.634767,2.223,116.976,0.450115,0.0172788,0.962344,-1.9962,1.42741,0.0025556,0.146544,4.01922,1.97172,0,4.8,0,11782,49.272,24.791,12215
395809572,0.634767,2.223,116.975,0.436185,0.022414,0.962632,-2.36177,1.70657,0.0158618,0.131783,3.86588,1.86418,0,4.8,0,11782,49.272,24.791,12215
395909944,0.634766,2.223,116.973,0.388924,0.0280324,0.962572,-2.70747,1.9637,0.0247718,0.0490922,3.52797,1.74766,0,4.8,0,11782,49.272,24.791,12215
396010238,0.634766,2.223,116.972,0.336886,0.0335669,0.962576,-2.99921,2.18199,0.038061,0.00801844,3.04014,1.21922,0,4.8,0,11782,49.272,24.791,12215
396110523,0.634766,2.223,116.97,0.2826,0.0395527,0.962353,-3.23703,2.35821,0.0350148,-0.0128107,2.52476,0.755825,0,4.8,0,11782,49.111,24.94,12248.3
396210906,0.634766,2.223,116.965,0.237645,0.044446,0.962607,-3.4366,2.49639,0.024566,-0.0988785,2.00782,0.484978,0,4.8,0,11782,49.111,24.94,12248.3
396311254,0.634766,2.22301,116.962,0.198437,0.0445704,0.961599,-3.60233,2.5945,0.0244513,-0.257442,1.60812,0.212278,0,4.8,0,11782,49.111,24.94,12248.3
396411566,0.634766,2.22301,116.961,0.163018,0.0370365,0.95969,-3.72656,2.67516,0.0261255,-0.0723921,1.1442,0.49477,0,4.8,0,11782,49.111,24.94,12248.3
396511941,0.634766,2.22301,116.966,0.131442,0.0324181,0.958745,-3.81313,2.74743,0.0491923,0.0160064,0.888441,0.292406,0,4.8,0,11782,49.111,24.94,12248.3
396612360,0.634766,2.22301,116.966,0.106405,0.0324433,0.958929,-3.87014,2.80348,0.0519422,0.0437187,0.610676,-0.0291392,0,4.8,0,11782,49.111,24.94,12248.3
396712751,0.634766,2.22301,116.966,0.0953837,0.0359592,0.959559,-3.90492,2.83668,0.0433316,0.0120823,0.415684,-0.205874,0,4.8,0,11782,49.111,24.94,12248.3
396813110,0.634766,2.22301,116.964,0.0917373,0.0406732,0.960196,-3.92822,2.864,0.0236122,-0.0316413,0.284984,-0.225566,0,4.8,0,11782,49.111,24.94,12248.3
396913539,0.634766,2.22301,116.964,0.0908548,0.0421311,0.959704,-3.94319,2.87883,0.0122311,-0.033424,0.257641,-0.118042,0,-4.8,0,11782,49.111,24.94,12248.3
397013912,0.634766,2.22301,116.964,0.0492061,0.0410325,0.959935,-3.9623,2.89278,0.00557728,-0.0320739,0.28044,0.491112,0,-4.8,0,11782,49.111,24.94,12248.3
397114297,0.634766,2.22301,116.97,-0.166858,0.0278747,0.953545,-3.92117,2.87234,0.0972855,0.0553484,-0.679352,1.02681,0,-4.8,0,11782,49.172,24.025,11813.6
397214663,0.634766,2.22301,116.992,-0.335981,0.0204014,0.953131,-3.66071,2.71142,0.112332,0.113662,-3.19227,-0.0263141,0,-4.8,0,11782,49.172,24.025,11813.6
397315020,0.634766,2.22301,117.003,-0.4255,0.0221164,0.953272,-3.30654,2.4809,0.0308936,0.0994937,-3.94166,1.56987,0,-4.8,0,11782,49.172,24.025,11813.6
397415368,0.634766,2.22301,117.008,-0.471442,0.0218895,0.953616,-2.8698,2.18919,0.0253862,0.081082,-4.80062,1.69608,0,-4.8,0,11782,49.172,24.025,11813.6
397515722,0.634766,2.22301,117.003,-0.493326,0.026325,0.951637,-2.42392,1.89247,-0.0333031,0.109118,-4.82008,2.01845,0,-4.8,0,11782,49.172,24.025,11813.6
397616106,0.634766,2.22301,116.987,-0.505084,0.0312797,0.949666,-1.95486,1.55777,-0.0770387,-0.0729829,-4.94805,2.62508,0,-4.8,0,11782,49.172,24.025,11813.6
397716478,0.634765,2.22301,116.96,-0.514389,0.0311798,0.947848,-1.48331,1.19764,-0.0933667,-0.195125,-4.98951,2.7778,0,-4.8,0,11782,49.172,24.025,11813.6
397816849,0.634765,2.22301,116.931,-0.518714,0.0215642,0.95318,-0.988608,0.839621,-0.115163,-0.0764026,-5.00808,3.02628,0,-4.8,0,11782,49.172,24.025,11813.6
397917174,0.634765,2.22301,116.902,-0.499574,0.00180657,0.963609,-0.4539,0.473701,-0.0976404,0.0702488,-5.15815,3.28702,0,-4.8,0,11782,49.172,24.025,11813.6
398017510,0.634765,2.22301,116.888,-0.473568,-0.0079115,0.968076,0.0788193,0.145523,-0.0350131,0.335303,-4.8636,3.24855,0,-4.8,0,11782,49.172,24.025,11813.6
398117871,0.634766,2.22301,116.881,-0.443876,-0.00249659,0.964981,0.576193,-0.139433,0.00855012,0.474179,-4.62215,2.44334,0,-4.8,0,11782,49.172,24.025,11813.6
398218228,0.634766,2.22301,116.89,-0.417668,0.0100469,0.959664,1.01484,-0.406784,0.03376,0.306765,-4.24002,2.05149,0,-4.8,0,11782,49.065,27.163,13327.5
398318584,0.634766,2.22301,116.917,-0.395877,0.0250335,0.954036,1.40617,-0.656921,0.0579057,0.148944,-3.85572,1.66837,0,-4.8,0,11782,49.065,27.163,13327.5
398418965,0.634766,2.22301,116.947,-0.377216,0.0380228,0.949486,1.7563,-0.90667,0.0639198,-0.047192,-3.644,1.38273,0,-4.8,0,11782,49.065,27.163,13327.5
398519318,0.634766,2.22301,116.963,-0.364228,0.0475728,0.945728,2.07073,-1.14725,0.051269,-0.105082,-3.44902,1.11837,0,-4.8,0,11782,49.065,27.163,13327.5
398619663,0.634766,2.22301,116.971,-0.356358,0.054823,0.943326,2.36078,-1.37813,0.0504707,-0.210432,-3.22105,1.15871,0,-4.8,0,11782,49.065,27.163,13327.5
398720035,0.634766,2.22301,116.978,-0.339277,0.0591441,0.942174,2.63297,-1.6096,0.0395824,-0.300951,-3.1516,1.03894,0,-4.8,0,11782,49.065,27.163,13327.5
398820384,0.634766,2.22301,116.981,-0.299258,0.05738,0.943386,2.87701,-1.82714,0.036784,-0.297522,-2.82656,1.04085,0,-4.8,0,11782,49.065,27.163,13327.5
398920714,0.634766,2.22301,116.977,-0.25751,0.0537398,0.944953,3.07713,-2.01668,0.0391535,-0.318188,-2.45963,0.491936,0,-3,0,11782,49.065,27.163,13327.5
399021091,0.634766,2.22301,116.971,-0.205545,0.0492879,0.944926,3.24631,-2.16289,0.0274624,-0.208072,-2.05689,0.203553,0,-3,0,11782,49.065,27.163,13327.5
399121455,0.634766,2.22301,116.966,-0.0492595,0.0448861,0.952127,3.37037,-2.27776,0.0591595,-0.182081,-1.27012,0.438936,0,-3,0,11782,49.065,27.163,13327.5
399221809,0.634766,2.22301,116.965,0.0805249,0.0426814,0.956479,3.32914,-2.26526,0.0341941,-0.110214,0.563221,-0.503007,0,-3,0,11782,49.17,24.39,11992.6
399322198,0.634766,2.22301,116.956,0.14351,0.0398675,0.957373,3.19588,-2.18973,-0.003285,-0.118968,1.53541,0.145195,0,-3,0,11782,49.17,24.39,11992.6
399422561,0.634766,2.22301,116.94,0.150361,0.0347138,0.956429,3.01802,-2.07981,-0.00558063,-0.0830945,1.92944,0.46143,0,-3,0,11782,49.17,24.39,11992.6
399522895,0.634766,2.22301,116.933,0.123872,0.0314893,0.955614,2.85848,-1.97452,0.000966852,-0.0433526,1.71204,0.298935,0,-3,0,11782,49.17,24.39,11992.6
399624705,0.634766,2.22301,116.925,0.083535,0.0303931,0.955258,2.70046,-1.87273,0.00951559,-0.0490933,1.31909,0.394257,0,-3,0,11782,49.17,24.39,11992.6
399727576,0.634766,2.22301,116.925,0.0432355,0.0302673,0.955272,2.59689,-1.81249,0.0248617,-0.0655654,0.904187,0.00307954,0,-3,0,11782,49.17,24.39,11992.6
399827915,0.634766,2.22301,116.915,0.012003,0.030038,0.9551,2.51554,-1.76748,0.0268058,-0.0682884,0.619998,0.0696567,0,-3,0,11782,49.17,24.39,11992.6
399928346,0.634766,2.22301,116.913,-0.0101532,0.0294132,0.954912,2.46106,-1.7331,0.0282994,-0.0687059,0.354477,0.00242107,0,-3,0,11782,49.17,24.39,11992.6
