timestamp,lat,log,alt,roll,pitch,yaw,vel_x,vel_y,vel_z,acc_x,acc_y,acc_z,act_vx,act_vy,act_yr,capacity,vol,cur,power
6476632061,0.63477,2.223,107.635,-0.0549333,-0.0184927,0.855984,-0.011817,0.108857,-0.0313274,0.149888,-0.0312135,0.0508001,-0.6,-2.5,0,12800,50.068,25.392,12713.3
6476733969,0.63477,2.223,107.62,-0.0571684,-0.0174327,0.85585,0.0022066,0.116149,-0.0267618,0.193596,-0.0841328,0.183653,-0.6,-2.5,0,12800,50.068,25.392,12713.3
6476836257,0.63477,2.223,107.612,-0.0660258,-0.0114041,0.856305,0.00305341,0.128219,-0.0189314,0.121439,0.0043209,0.0309642,-0.6,-2.5,0,12800,50.068,25.392,12713.3
6476936581,0.63477,2.223,107.609,-0.170399,0.021387,0.855484,0.0164628,0.119887,0.00472769,0.00101701,-0.359797,-0.142016,-0.6,-2.5,0,12800,50.068,25.392,12713.3
6477036928,0.63477,2.223,107.601,-0.294561,0.0576356,0.847677,0.108373,-0.00746619,-0.0289447,-0.381013,-1.65958,0.303921,-0.6,-2.5,0,12800,50.068,25.392,12713.3
6477137327,0.63477,2.223,107.607,-0.381358,0.0823238,0.840505,0.2703,-0.24332,-0.0397523,-0.659871,-2.58847,1.27398,-0.6,-2.5,0,12800,50.068,25.392,12713.3
6477237730,0.63477,2.223,107.607,-0.419553,0.0918332,0.837832,0.478237,-0.547137,-0.0223595,-0.78526,-3.2063,1.66701,-0.6,-2.5,0,12800,50.068,25.392,12713.3
6477338021,0.63477,2.223,107.619,-0.404586,0.0851801,0.841956,0.700885,-0.873122,0.000771455,-0.852129,-3.38764,1.73949,-0.6,-2.5,0,12800,50.068,25.392,12713.3
6477438445,0.63477,2.223,107.627,-0.357337,0.0690872,0.848301,0.903514,-1.16412,0.0159198,-0.741315,-3.11207,1.22152,-0.6,-2.5,0,12800,50.068,25.392,12713.3
6477538784,0.63477,2.223,107.626,-0.304748,0.0533345,0.852449,1.08172,-1.3992,0.0303161,-0.493142,-2.5449,1.17477,-0.6,-2.5,0,12800,50.068,25.392,12713.3
6477639202,0.63477,2.223,107.638,-0.254373,0.0382751,0.854989,1.21969,-1.579,0.0413653,-0.371001,-1.99175,0.544066,0,2,0,12771,50.099,24.625,12336.9
6477739571,0.63477,2.223,107.647,-0.180948,0.0229425,0.854323,1.3245,-1.71631,0.0397168,-0.285848,-1.53361,0.649452,0,2,0,12771,50.099,24.625,12336.9
6477839917,0.63477,2.223,107.658,0.0852955,-0.0154397,0.856014,1.39109,-1.79614,0.104558,0.0239796,-0.539102,0.493405,0,2,0,12771,50.099,24.625,12336.9
6477940329,0.63477,2.223,107.685,0.317378,-0.0333146,0.852747,1.23741,-1.60076,0.136598,0.549278,3.00289,-0.0678394,0,2,0,12771,50.099,24.625,12336.9
6478040678,0.63477,2.223,107.705,0.432267,-0.0322736,0.852259,0.959665,-1.30822,-0.0148971,0.413885,4.23964,0.596122,0,2,0,12771,50.099,24.625,12336.9
6478141023,0.63477,2.223,107.688,0.485558,-0.0272844,0.854586,0.576549,-0.919376,-0.0654589,0.388949,4.93438,2.48243,0,2,0,12771,50.099,24.625,12336.9
6478241395,0.63477,2.223,107.663,0.498349,-0.0213817,0.8572,0.167128,-0.517686,-0.108273,0.307184,5.09565,2.26344,0,2,0,12771,50.099,24.625,12336.9
6478341704,0.63477,2.223,107.642,0.455363,-0.0146315,0.858618,-0.260493,-0.113073,-0.131167,0.274639,5.03259,2.8996,0,2,0,12771,50.099,24.625,12336.9
6478442071,0.63477,2.223,107.595,0.368973,-0.0178291,0.857954,-0.66341,0.26129,-0.108367,0.195248,4.74128,2.21999,0,2,0,12771,50.099,24.625,12336.9
6478542411,0.63477,2.223,107.54,0.254759,-0.031196,0.854771,-0.976037,0.556353,-0.10003,0.171207,3.67527,1.62291,0,2,0,12771,50.099,24.625,12336.9
6478642836,0.63477,2.223,107.502,0.147236,-0.0396246,0.853558,-1.17497,0.780693,-0.0471073,0.364833,2.39638,1.47387,0,1.4,0,12771,50.119,23.472,11763.9
6478743171,0.63477,2.223,107.474,0.0658651,-0.0410402,0.85435,-1.28876,0.929912,0.0131127,0.354819,1.45362,0.731429,0,1.4,0,12771,50.119,23.472,11763.9
6478843495,0.63477,2.223,107.459,-0.023673,-0.0345978,0.855639,-1.33838,1.0274,0.0625939,0.42141,0.574116,0.392732,0,1.4,0,12771,50.119,23.472,11763.9
6478943859,0.63477,2.223,107.457,-0.0762517,-0.0315921,0.855598,-1.32638,1.05138,0.0569602,0.314186,-0.201371,-0.0798799,0,1.4,0,12771,50.119,23.472,11763.9
6479044271,0.63477,2.223,107.471,-0.0989281,-0.0278114,0.855991,-1.27911,1.04744,0.066112,0.298478,-0.586354,0.320256,0,1.4,0,12771,50.119,23.472,11763.9
6479144619,0.63477,2.223,107.501,-0.0967704,-0.0242505,0.856135,-1.22424,1.033,0.0911856,0.274974,-0.675905,0.0719317,0,1.4,0,12771,50.119,23.472,11763.9
6479245005,0.63477,2.223,107.527,-0.0858823,-0.0198309,0.856188,-1.16892,1.01404,0.0867535,0.293857,-0.701978,-0.0712376,0,1.4,0,12771,50.119,23.472,11763.9
6479345369,0.63477,2.223,107.533,-0.0703361,-0.0139344,0.855967,-1.12735,0.996881,0.0778018,0.233653,-0.516137,-0.260027,0,1.4,0,12771,50.119,23.472,11763.9
6479445766,0.63477,2.223,107.548,-0.058392,-0.00979533,0.855519,-1.10019,0.987098,0.0674845,0.148972,-0.332638,-0.00127263,0,1.4,0,12771,50.119,23.472,11763.9
6479546095,0.63477,2.223,107.563,-0.0508146,-0.00657063,0.85511,-1.07949,0.973111,0.0732146,0.0742455,-0.252934,-0.249157,0,1.4,0,12771,50.119,23.472,11763.9
6479646522,0.63477,2.223,107.573,-0.0465427,-0.00566372,0.854616,-1.06767,0.965974,0.0562447,0.0485396,-0.124386,-0.358789,-3.5,2.2,0,12771,49.991,26.097,13046.2
6479746888,0.63477,2.223,107.575,-0.0435654,0.00967339,0.855199,-1.05524,0.966177,0.0424133,0.179299,-0.0654739,0.216996,-3.5,2.2,0,12771,49.991,26.097,13046.2
6479847257,0.63477,2.223,107.58,-0.00163219,0.169457,0.856602,-1.04439,0.946416,0.0991172,-0.388056,-0.0748122,0.0211919,-3.5,2.2,0,12771,49.991,26.097,13046.2
6479947572,0.63477,2.223,107.585,0.0340781,0.298332,0.8613,-1.20626,0.807197,0.0446362,-2.2793,0.364426,-0.20697,-3.5,2.2,0,12771,49.991,26.097,13046.2
6480047921,0.63477,2.223,107.578,0.0544488,0.376719,0.867034,-1.45881,0.600786,0.00275651,-3.09767,0.593422,0.994396,-3.5,2.2,0,12771,49.991,26.097,13046.2
6480148308,0.63477,2.223,107.587,0.0635596,0.410593,0.870885,-1.78392,0.345947,-0.00832253,-3.72382,0.817314,1.41241,-3.5,2.2,0,12771,49.991,26.097,13046.2
6480248684,0.63477,2.223,107.601,0.0716348,0.421503,0.872498,-2.20252,0.0129123,0.00262192,-3.85865,0.783175,1.8082,-3.5,2.2,0,12771,49.991,26.097,13046.2
6480349016,0.63477,2.223,107.61,0.0704888,0.394598,0.870966,-2.56522,-0.25057,0.0216354,-3.79071,0.951945,1.71138,-3.5,2.2,0,12771,49.991,26.097,13046.2
6480449268,0.63477,2.223,107.616,0.0585088,0.340503,0.868121,-2.82019,-0.432822,0.0445924,-3.37968,0.859723,1.38331,-3.5,2.2,0,12771,49.991,26.097,13046.2
6480549551,0.63477,2.223,107.632,0.0455547,0.279853,0.864782,-3.13594,-0.648579,0.0361577,-2.64989,0.794875,0.679632,-3.5,2.2,0,12771,49.991,26.097,13046.2
6480649962,0.63477,2.223,107.646,0.0342943,0.221189,0.862131,-3.33846,-0.78269,0.0349238,-2.14625,0.666976,0.0736015,-1.9,3.7,0,12771,49.991,26.097,13046.2
6480750310,0.63477,2.223,107.664,0.0369817,0.157975,0.863747,-3.50005,-0.883046,0.0240279,-1.56251,0.573368,0.334978,-1.9,3.7,0,12771,50.033,26.099,13058.1
6480850720,0.63477,2.223,107.666,0.139622,-0.0190268,0.864147,-3.62405,-0.909669,0.0765335,-0.303856,0.965377,0.169139,-1.9,3.7,0,12771,50.033,26.099,13058.1
6480951041,0.63477,2.223,107.666,0.221946,-0.124199,0.84965,-3.69976,-0.705476,-0.00366451,1.42589,2.13718,-0.632952,-1.9,3.7,0,12771,50.033,26.099,13058.1
6481051422,0.63477,2.223,107.657,0.250683,-0.16516,0.83914,-3.78332,-0.417107,-0.0758417,1.82285,2.40131,0.994,-1.9,3.7,0,12771,50.033,26.099,13058.1
6481151758,0.634769,2.223,107.63,0.22874,-0.15842,0.838917,-3.85707,-0.0771898,-0.0654867,2.06822,2.54853,1.15454,-1.9,3.7,0,12771,50.033,26.099,13058.1
6481252110,0.634769,2.223,107.607,0.178228,-0.125349,0.844182,-3.90847,0.224261,-0.0429738,1.8478,2.10605,0.876795,-1.9,3.7,0,12771,50.033,26.099,13058.1
6481352452,0.634769,2.223,107.588,0.131848,-0.0877277,0.848919,-3.93849,0.443255,-0.0174674,1.33742,1.48215,0.90936,-1.9,3.7,0,12771,50.033,26.099,13058.1
6481452758,0.634769,2.223,107.576,0.100465,-0.0559713,0.852553,-3.96339,0.596561,0.00755008,0.915467,1.11404,0.271761,-1.9,3.7,0,12771,50.033,26.099,13058.1
6481553119,0.634769,2.223,107.57,0.0790015,-0.0297661,0.855795,-3.97676,0.710662,0.00316668,0.734211,0.786377,0.0734801,-1.9,3.7,0,12771,50.033,26.099,13058.1
6481653525,0.634769,2.223,107.57,0.0655261,-0.0105938,0.857401,-3.99974,0.79518,0.00579818,0.390939,0.704076,0.0080188,-1.4,-1.8,0,12771,50.033,26.099,13058.1
6481753940,0.634769,2.223,107.569,0.0267609,0.00283228,0.860308,-4.02955,0.853273,0.00310461,0.147552,0.529806,0.299899,-1.4,-1.8,0,12771,50.061,25.749,12890.2
6481854368,0.634769,2.223,107.568,-0.173643,-0.010268,0.859848,-4.01853,0.875251,0.0683277,0.227658,-0.337222,0.284966,-1.4,-1.8,0,12771,50.061,25.749,12890.2
6481954734,0.634769,2.223,107.589,-0.335424,-0.0251178,0.862932,-3.80726,0.751268,0.0281497,0.404913,-2.69299,0.00127923,-1.4,-1.8,0,12771,50.061,25.749,12890.2
6482055080,0.634769,2.223,107.601,-0.428144,-0.0306101,0.865537,-3.48701,0.546889,-0.0326729,0.531707,-3.60859,1.49984,-1.4,-1.8,0,12771,50.061,25.749,12890.2
6482155415,0.634769,2.223,107.602,-0.465379,-0.0282177,0.865757,-3.08041,0.284601,-0.0421328,0.576901,-4.13619,2.30627,-1.4,-1.8,0,12771,50.061,25.749,12890.2
6482257128,0.634769,2.223,107.597,-0.472993,-0.020882,0.862054,-2.65024,-0.00539497,-0.0388531,0.612481,-4.36394,2.5161,-1.4,-1.8,0,12771,50.061,25.749,12890.2
6482357550,0.634769,2.223,107.593,-0.464417,-0.0117352,0.858493,-2.23807,-0.30097,-0.0256073,0.423038,-4.26829,2.39893,-1.4,-1.8,0,12771,50.061,25.749,12890.2
6482459632,0.634769,2.223,107.582,-0.453985,-0.00441681,0.855811,-1.84887,-0.595855,-0.0139121,0.277249,-4.17235,2.24688,-1.4,-1.8,0,12771,50.061,25.749,12890.2
6482559987,0.634769,2.223,107.579,-0.442839,-0.0033238,0.856301,-1.4782,-0.897321,0.00414964,0.155716,-4.07606,2.12658,-1.4,-1.8,0,12771,50.061,25.749,12890.2
6482660458,0.634769,2.223,107.584,-0.416279,-0.00752267,0.859268,-1.11775,-1.1755,0.0286321,0.279003,-3.78411,2.0597,-0.2,0.3,0,12771,50.061,25.749,12890.2
6482760820,0.634769,2.223,107.583,-0.350688,-0.00896497,0.858938,-0.807155,-1.4181,0.0364207,0.200812,-3.36085,1.34587,-0.2,0.3,0,12771,50.026,25.721,12867.2
6482861180,0.634769,2.223,107.585,-0.140917,-0.0910438,0.854331,-0.544469,-1.63001,0.117802,0.204636,-2.69515,1.26733,-0.2,0.3,0,12771,50.026,25.721,12867.2
6482961556,0.634769,2.223,107.603,0.075689,-0.182421,0.842457,-0.439265,-1.54488,0.130118,1.59454,0.285119,-0.45384,-0.2,0.3,0,12771,50.026,25.721,12867.2
6483061918,0.634769,2.223,107.629,0.16398,-0.202953,0.838703,-0.4315,-1.28433,0.025336,2.15942,1.90481,-0.229261,-0.2,0.3,0,12771,50.026,25.721,12867.2
6483162281,0.634769,2.223,107.64,0.181963,-0.188983,0.841271,-0.449364,-0.9717,-0.0124683,2.15432,2.30188,0.531196,-0.2,0.3,0,12771,50.026,25.721,12867.2
6483262630,0.634769,2.223,107.647,0.157784,-0.158131,0.848028,-0.498538,-0.674818,-0.0245505,1.81401,2.3408,0.643015,-0.2,0.3,0,12771,50.026,25.721,12867.2
6483362974,0.634769,2.223,107.646,0.124451,-0.125401,0.854124,-0.545953,-0.432961,-0.0248442,1.45383,1.93578,0.471165,-0.2,0.3,0,12771,50.026,25.721,12867.2
6483463313,0.634769,2.223,107.644,0.0914108,-0.0962791,0.856969,-0.595864,-0.240724,-0.0206424,1.09317,1.56391,0.0970712,-0.2,0.3,0,12771,50.026,25.721,12867.2
6483563648,0.634769,2.223,107.655,0.0575098,-0.0774751,0.857841,-0.655687,-0.0767216,-0.00914046,0.859901,1.39399,0.136661,-0.2,0.3,0,12771,50.026,25.721,12867.2
6483664081,0.634769,2.223,107.659,0.0252901,-0.0595766,0.858297,-0.689764,0.0554188,-0.0013287,0.732101,0.920608,0.104614,0.5,-2.7,0,12771,50.026,25.721,12867.2
6483764436,0.634769,2.223,107.657,-0.0146632,-0.0445005,0.860205,-0.714636,0.149009,0.0171687,0.533543,0.583899,0.0111676,0.5,-2.7,0,12771,50.026,27.121,13567.6
6483864810,0.634769,2.223,107.67,-0.14525,-0.0498392,0.864009,-0.722437,0.208691,0.0510935,0.390897,-0.00872471,-0.241904,0.5,-2.7,0,12771,50.026,27.121,13567.6
6483965162,0.634769,2.223,107.679,-0.269052,-0.0682985,0.867622,-0.610201,0.169292,-0.0430421,0.554207,-1.662,-0.671864,0.5,-2.7,0,12771,50.026,27.121,13567.6
6484065509,0.634769,2.223,107.679,-0.351208,-0.0805471,0.870598,-0.386974,0.0703374,-0.06742,0.705437,-2.42964,0.897618,0.5,-2.7,0,12771,50.026,27.121,13567.6
6484165849,0.634769,2.223,107.667,-0.390817,-0.0849339,0.870436,-0.109751,-0.070933,-0.071723,0.766308,-2.92359,1.37689,0.5,-2.7,0,12771,50.026,27.121,13567.6
6484266208,0.634769,2.223,107.66,-0.401977,-0.0883403,0.870705,0.18966,-0.229387,-0.0496788,0.769608,-3.05826,1.54958,0.5,-2.7,0,12771,50.026,27.121,13567.6
6484366571,0.634769,2.223,107.643,-0.400336,-0.0938202,0.871196,0.503988,-0.394373,-0.0412426,0.824892,-3.04745,1.78276,0.5,-2.7,0,12771,50.026,27.121,13567.6
6484466974,0.634769,2.223,107.638,-0.387072,-0.0968836,0.872013,0.817019,-0.542653,-0.00995952,0.97264,-3.07653,1.45809,0.5,-2.7,0,12771,50.026,27.121,13567.6
6484567281,0.634769,2.223,107.654,-0.349957,-0.0896289,0.869928,1.11108,-0.668983,0.00852327,0.93657,-2.73248,1.30279,0.5,-2.7,0,12771,50.026,27.121,13567.6
6484667651,0.634769,2.223,107.684,-0.306508,-0.0821428,0.867545,1.36215,-0.772811,0.0187417,0.892743,-2.38203,0.834869,-4.2,3.9,0,12771,50.026,27.121,13567.6
6484768060,0.634769,2.223,107.698,-0.258625,-0.0677161,0.864981,1.57724,-0.861134,0.0232029,0.776924,-2.04241,0.671579,-4.2,3.9,0,12771,49.912,27.531,13741.3
6484868413,0.634769,2.223,107.698,-0.05688,0.0517024,0.859907,1.7707,-0.929958,0.0956474,0.669337,-1.52736,0.482227,-4.2,3.9,0,12771,49.912,27.531,13741.3
6484968766,0.634769,2.223,107.754,0.206545,0.180852,0.879382,1.63525,-0.947724,0.167074,-1.05033,1.21701,1.18083,-4.2,3.9,0,12771,49.912,27.531,13741.3
6485070563,0.634769,2.223,107.774,0.358297,0.255144,0.903034,1.13871,-0.870265,0.13217,-2.40345,3.94254,0.307514,-4.2,3.9,0,12771,49.912,27.531,13741.3
6485175014,0.634769,2.223,107.769,0.4098,0.29207,0.914859,0.663403,-0.794901,-0.044514,-2.46641,4.01353,1.35271,-4.2,3.9,0,12771,49.912,27.531,13741.3
6485275410,0.634769,2.223,107.766,0.413207,0.295103,0.910503,0.0996339,-0.724491,-0.0916583,-2.79364,4.25231,2.28821,-4.2,3.9,0,12771,49.912,27.531,13741.3
6485377332,0.634769,2.223,107.752,0.405345,0.293243,0.907238,-0.445129,-0.646936,-0.136952,-2.75474,4.25916,1.95544,-4.2,3.9,0,12771,49.912,27.531,13741.3
6485477736,0.634769,2.223,107.708,0.404197,0.282862,0.900556,-0.986419,-0.575164,-0.201718,-2.76379,4.17306,1.86952,-4.2,3.9,0,12771,49.912,27.531,13741.3
6485578090,0.634769,2.223,107.65,0.392695,0.260913,0.889529,-1.54122,-0.470823,-0.224657,-2.34107,4.06099,2.67214,-4.2,3.9,0,12771,49.912,27.531,13741.3
6485678491,0.634769,2.223,107.611,0.372681,0.249555,0.883858,-2.13205,-0.347142,-0.16834,-2.36256,4.31142,3.16723,-2.4,0.6,0,12771,49.912,27.531,13741.3
6485778844,0.634769,2.223,107.592,0.312284,0.233099,0.872893,-2.66243,-0.225272,-0.124464,-2.17401,4.00864,2.48445,-2.4,0.6,0,12771,49.981,24.959,12474.8
6485879202,0.634769,2.223,107.586,0.0720371,0.13615,0.835203,-3.1296,-0.130931,-0.0146883,-1.71528,3.25224,2.00016,-2.4,0.6,0,12771,49.981,24.959,12474.8
6485979564,0.634768,2.223,107.607,-0.190033,0.0466798,0.838917,-3.23797,-0.142478,0.0465703,-0.524545,0.00520967,-0.330796,-2.4,0.6,0,12771,49.981,24.959,12474.8
6486079917,0.634768,2.223,107.623,-0.313122,0.0187555,0.853032,-3.09912,-0.264134,0.00743762,0.236031,-2.08109,0.592705,-2.4,0.6,0,12771,49.981,24.959,12474.8
6486180303,0.634768,2.223,107.64,-0.337388,0.019225,0.858262,-2.88004,-0.447151,0.0175371,0.219452,-2.77044,1.25612,-2.4,0.6,0,12771,49.981,24.959,12474.8
6486280641,0.634768,2.223,107.645,-0.303974,0.0312585,0.858175,-2.66676,-0.623099,0.0251125,0.169448,-2.65944,0.975947,-2.4,0.6,0,12771,49.981,24.959,12474.8
6486380993,0.634768,2.223,107.647,-0.253781,0.0400909,0.857093,-2.50485,-0.783419,0.0303806,-0.0628732,-2.23991,0.721315,-2.4,0.6,0,12771,49.981,24.959,12474.8
6486481958,0.634768,2.223,107.655,-0.210029,0.0438458,0.855864,-2.38236,-0.911648,0.0349001,-0.0906768,-1.74304,0.430097,-2.4,0.6,0,12771,49.981,24.959,12474.8
6486584356,0.634768,2.223,107.662,-0.171939,0.0449378,0.854886,-2.29374,-1.01279,0.0306235,-0.0762393,-1.32299,0.154753,-2.4,0.6,0,12771,49.981,24.959,12474.8
6486689671,0.634768,2.223,107.667,-0.138562,0.0458212,0.854483,-2.20977,-1.10725,0.00896841,-0.092027,-0.879195,0.268916,-1,-3,0,12771,49.981,24.959,12474.8
6486789944,0.634768,2.223,107.66,-0.125158,0.0340996,0.85421,-2.16544,-1.17292,0.00976037,-0.182981,-0.587204,0.440639,-1,-3,0,12727,50,24.899,12449.5
6486890164,0.634768,2.223,107.651,-0.204301,-0.0301657,0.855376,-2.10027,-1.2183,0.0155695,0.259285,-0.833154,-0.327581,-1,-3,0,12727,50,24.899,12449.5
6486990525,0.634768,2.223,107.637,-0.314103,-0.0876447,0.868107,-1.89045,-1.27829,-0.0506727,0.962767,-1.97459,0.432154,-1,-3,0,12727,50,24.899,12449.5
6487090854,0.634768,2.223,107.617,-0.384475,-0.121581,0.879896,-1.55258,-1.36844,-0.0623922,1.44206,-2.66688,1.61042,-1,-3,0,12727,50,24.899,12449.5
6487191255,0.634768,2.223,107.611,-0.423178,-0.129716,0.885678,-1.16405,-1.49846,-0.0292099,1.47802,-3.36452,1.44835,-1,-3,0,12727,50,24.899,12449.5
6487291581,0.634768,2.223,107.604,-0.438766,-0.124404,0.886109,-0.7612,-1.61131,-0.0363322,1.59679,-3.20371,1.82467,-1,-3,0,12727,50,24.899,12449.5
6487391931,0.634768,2.223,107.604,-0.443102,-0.110301,0.883264,-0.344955,-1.74609,-0.00868539,1.52179,-3.34733,2.14388,-1,-3,0,12727,50,24.899,12449.5
6487492303,0.634768,2.223,107.618,-0.443219,-0.0948873,0.87931,0.052128,-1.89239,0.0053271,1.34073,-3.41583,1.72494,-1,-3,0,12727,50,24.899,12449.5
6487592639,0.634768,2.223,107.636,-0.41498,-0.0758705,0.874143,0.420014,-2.04415,0.00901453,1.10451,-3.15349,1.78293,-1,-3,0,12727,50,24.899,12449.5
6487693038,0.634768,2.223,107.646,-0.368054,-0.053942,0.867964,0.743508,-2.1874,0.024988,0.896378,-2.81212,1.41639,3.7,-2.3,0,12727,50,24.899,12449.5
6487793401,0.634768,2.223,107.659,-0.307078,-0.0547165,0.868346,1.01239,-2.32199,0.0399046,0.543717,-2.34637,1.47088,3.7,-2.3,0,12727,50,24.899,12449.5
6487893722,0.634768,2.223,107.678,-0.176229,-0.194005,0.869585,1.26101,-2.40033,0.177117,1.1299,-1.77161,1.02896,3.7,-2.3,0,12727,50.063,26.486,13259.7
6487994102,0.634768,2.223,107.699,-0.0733895,-0.328045,0.862392,1.4561,-2.21728,0.113549,2.87356,-0.0756572,-0.263088,3.7,-2.3,0,12727,50.063,26.486,13259.7
6488094447,0.634768,2.223,107.706,-0.0407372,-0.405725,0.860999,1.67026,-1.91628,-0.00879969,3.80681,0.475875,0.420492,3.7,-2.3,0,12727,50.063,26.486,13259.7
6488194763,0.634768,2.223,107.693,-0.0313737,-0.430672,0.861065,1.9396,-1.54725,-0.0714955,4.19889,0.554474,1.5327,3.7,-2.3,0,12727,50.063,26.486,13259.7
6488295185,0.634768,2.223,107.678,-0.0302435,-0.438962,0.86455,2.20969,-1.14985,-0.0905745,4.2178,0.632297,2.1036,3.7,-2.3,0,12727,50.063,26.486,13259.7
6488395603,0.634768,2.223,107.656,-0.0365007,-0.433348,0.867783,2.46871,-0.755529,-0.0925607,4.21882,0.611198,1.71044,3.7,-2.3,0,12727,50.063,26.486,13259.7
6488495950,0.634768,2.223,107.641,-0.0480644,-0.419397,0.869375,2.72799,-0.365203,-0.0897837,4.03476,0.60284,1.96089,3.7,-2.3,0,12727,50.063,26.486,13259.7
6488596327,0.634768,2.223,107.63,-0.0680331,-0.404319,0.871682,2.96999,-0.00549233,-0.0703446,3.76239,0.521098,1.83786,3.7,-2.3,0,12727,50.063,26.486,13259.7
6488696736,0.634768,2.223,107.637,-0.0848746,-0.359814,0.87302,3.2203,0.328427,-0.04387,3.6496,0.289535,1.38204,0.4,-4.2,0,12727,50.063,26.486,13259.7
6488797091,0.634769,2.223,107.651,-0.107535,-0.284496,0.870695,3.42168,0.602586,-0.0104747,2.98652,0.243735,1.57315,0.4,-4.2,0,12727,50.063,26.486,13259.7
6488897443,0.634769,2.223,107.673,-0.176279,-0.0309204,0.869671,3.62153,0.808707,0.157675,2.18451,-0.218431,0.879399,0.4,-4.2,0,12727,49.957,26.088,13032.8
6488997778,0.634769,2.223,107.706,-0.254712,0.177568,0.839547,3.62658,0.70124,0.124624,-1.33781,-1.23317,-1.28179,0.4,-4.2,0,12727,49.957,26.088,13032.8
6489098122,0.634769,2.223,107.726,-0.316226,0.262823,0.813111,3.56533,0.446206,-0.0506825,-2.50673,-1.567,0.243677,0.4,-4.2,0,12727,49.957,26.088,13032.8
6489199385,0.634769,2.223,107.731,-0.34853,0.291157,0.798117,3.51197,0.0734766,-0.0859106,-2.92789,-1.87056,1.79084,0.4,-4.2,0,12727,49.957,26.088,13032.8
6489306381,0.634769,2.223,107.744,-0.364095,0.289544,0.792973,3.46001,-0.338904,-0.0925751,-3.12595,-2.06693,1.84638,0.4,-4.2,0,12727,49.957,26.088,13032.8
6489408626,0.634769,2.223,107.745,-0.354312,0.256551,0.798655,3.41,-0.762237,-0.103117,-3.2232,-2.32358,1.39974,0.4,-4.2,0,12727,49.957,26.088,13032.8
6489508987,0.634769,2.223,107.743,-0.323973,0.209975,0.811206,3.39092,-1.14277,-0.0796564,-2.59497,-2.11052,1.60644,0.4,-4.2,0,12727,49.957,26.088,13032.8
6489609355,0.634769,2.223,107.747,-0.292183,0.161607,0.824194,3.35633,-1.51114,-0.0512607,-2.06603,-1.62831,0.79938,0.4,-4.2,0,12727,49.957,26.088,13032.8
6489709785,0.634769,2.223,107.744,-0.259452,0.107351,0.837405,3.35204,-1.7505,-0.0258157,-1.46044,-1.45576,0.744676,1.3,4.4,0,12727,49.957,26.088,13032.8
6489810168,0.634769,2.223,107.747,-0.222599,0.0622714,0.84528,3.38428,-1.92561,0.00234162,-0.733809,-1.18987,1.03989,1.3,4.4,0,12727,49.957,26.088,13032.8
6489910529,0.634769,2.223,107.752,-0.0135281,0.0119186,0.855946,3.39796,-2.02644,0.0920302,-0.288033,-0.337741,0.643691,1.3,4.4,0,12727,49.865,27.307,13616.6
6490010888,0.634769,2.223,107.769,0.25587,-0.0198805,0.856421,3.20916,-1.86521,0.180525,0.299079,2.62269,1.36877,1.3,4.4,0,12727,49.865,27.307,13616.6
6490111396,0.634769,2.223,107.772,0.377815,-0.0215016,0.858217,2.88471,-1.58447,0.143958,0.298503,4.42428,0.351979,1.3,4.4,0,12727,49.865,27.307,13616.6
6490213357,0.634769,2.223,107.765,0.398312,-0.0348484,0.854026,2.55582,-1.30774,-0.0206402,0.220353,4.23697,1.03374,1.3,4.4,0,12727,49.865,27.307,13616.6
6490313751,0.634769,2.223,107.76,0.409003,-0.0465306,0.84999,2.20828,-0.969866,-0.0507128,0.446567,4.58961,1.5063,1.3,4.4,0,12727,49.865,27.307,13616.6
6490414082,0.634769,2.223,107.746,0.417222,-0.0443144,0.851795,1.88371,-0.627557,-0.131898,0.548194,4.42388,1.52594,1.3,4.4,0,12727,49.865,27.307,13616.6
6490514428,0.634769,2.223,107.71,0.429499,-0.0365099,0.85368,1.51954,-0.257859,-0.151081,0.500106,4.73864,2.01537,1.3,4.4,0,12727,49.865,27.307,13616.6
6490614772,0.634769,2.223,107.663,0.44265,-0.0277222,0.856836,1.12791,0.113748,-0.17618,0.280413,4.73175,2.36874,1.3,4.4,0,12727,49.865,27.307,13616.6
6490715230,0.634769,2.223,107.622,0.455116,-0.0211946,0.859224,0.7084,0.493197,-0.199905,0.231821,4.93377,2.34612,-4.2,-4,0,12727,49.865,27.307,13616.6
6490815554,0.634769,2.223,107.605,0.45704,0.001601,0.865345,0.274516,0.895602,-0.187245,0.341952,4.77661,3.31418,-4.2,-4,0,12727,49.865,27.307,13616.6
6490915872,0.634769,2.223,107.603,0.35385,0.117691,0.877568,-0.244818,1.30809,-0.00217298,-0.22747,5.03222,4.21586,-4.2,-4,0,12727,49.864,26.939,13432.9
6491016265,0.634769,2.223,107.612,0.111901,0.218752,0.855884,-0.686132,1.46323,0.062897,-1.78056,3.68795,-0.0332811,-4.2,-4,0,12727,49.864,26.939,13432.9
6491116624,0.634769,2.223,107.623,-0.143879,0.269074,0.828093,-0.896245,1.35747,-0.0785487,-2.47933,0.205594,-0.751469,-4.2,-4,0,12727,49.864,26.939,13432.9
6491216980,0.634769,2.223,107.614,-0.320838,0.289694,0.807391,-0.936982,1.08068,-0.210061,-2.40409,-1.71283,1.41053,-4.2,-4,0,12727,49.864,26.939,13432.9
6491317310,0.634769,2.223,107.607,-0.405302,0.283135,0.800894,-0.91462,0.620957,-0.172863,-2.72031,-2.74182,2.90579,-4.2,-4,0,12727,49.864,26.939,13432.9
6491417643,0.634769,2.223,107.61,-0.427295,0.269976,0.805262,-0.836791,0.124804,-0.095293,-2.55801,-3.05814,3.20143,-4.2,-4,0,12727,49.864,26.939,13432.9
6491517969,0.634769,2.223,107.597,-0.422429,0.253479,0.814702,-0.743747,-0.353729,-0.0341584,-2.5499,-3.31123,2.445,-4.2,-4,0,12727,49.864,26.939,13432.9
6491618273,0.634769,2.223,107.568,-0.409561,0.233088,0.823631,-0.628973,-0.795284,0.00219242,-2.11141,-3.08125,2.51682,-4.2,-4,0,12727,49.864,26.939,13432.9
6491718680,0.634769,2.223,107.578,-0.398563,0.217885,0.828941,-0.497022,-1.19554,0.0263192,-1.80094,-2.98919,2.19452,4.2,1.8,0,12727,49.864,26.939,13432.9
6491819023,0.634769,2.223,107.607,-0.369654,0.188013,0.837094,-0.373701,-1.58487,0.0550851,-1.78473,-2.84643,1.85857,4.2,1.8,0,12727,49.864,26.939,13432.9
6491919443,0.634769,2.223,107.624,-0.226588,-0.00290884,0.854519,-0.236397,-1.95762,0.179767,-1.37209,-2.66847,1.50583,4.2,1.8,0,12712,50.007,25.981,12992.3
6492019814,0.634769,2.223,107.647,-0.0221042,-0.250676,0.851842,-0.0978023,-1.96707,0.181792,1.36788,-0.586577,0.485967,4.2,1.8,0,12712,50.007,25.981,12992.3
6492120187,0.634769,2.223,107.678,0.097977,-0.383029,0.83004,0.0519175,-1.65148,0.130715,3.88943,1.37574,-0.338329,4.2,1.8,0,12712,50.007,25.981,12992.3
6492220529,0.634769,2.223,107.707,0.154772,-0.435262,0.812936,0.186383,-1.27051,-0.0678757,4.12744,1.83841,0.773814,4.2,1.8,0,12712,50.007,25.981,12992.3
6492320841,0.634769,2.223,107.7,0.191833,-0.450137,0.805031,0.354266,-0.776969,-0.0963695,4.40036,2.10892,2.53161,4.2,1.8,0,12712,50.007,25.981,12992.3
6492421140,0.634769,2.223,107.683,0.216396,-0.444132,0.803931,0.509234,-0.225203,-0.0991785,4.53067,2.41415,2.55346,4.2,1.8,0,12712,50.007,25.981,12992.3
6492521548,0.634769,2.223,107.671,0.228788,-0.428527,0.805477,0.620376,0.335321,-0.0974003,4.34335,2.76597,2.51279,4.2,1.8,0,12712,50.007,25.981,12992.3
6492621856,0.634769,2.223,107.654,0.227139,-0.413976,0.808443,0.722025,0.895607,-0.0868238,4.16357,2.71107,2.75866,4.2,1.8,0,12712,50.007,25.981,12992.3
6492722267,0.634769,2.223,107.645,0.217988,-0.398323,0.813514,0.799259,1.45485,-0.0495339,3.96394,2.78001,2.56031,-1.5,-4.3,0,12712,50.007,25.981,12992.3
6492822628,0.634769,2.223,107.644,0.188695,-0.366962,0.821433,0.867945,1.97787,-0.0284654,3.60209,2.5815,2.39228,-1.5,-4.3,0,12712,50.007,25.981,12992.3
6492922946,0.634769,2.223,107.626,0.0415943,-0.190161,0.863067,0.941427,2.47341,0.0598696,3.37671,2.27135,2.13651,-1.5,-4.3,0,12712,50.007,25.981,12992.3
6493023299,0.634769,2.223,107.61,-0.17388,0.0674504,0.859347,0.984697,2.60994,0.061457,0.622018,0.0802162,-0.197471,-1.5,-4.3,0,12712,49.961,19.164,9574.53
6493123629,0.634769,2.223,107.614,-0.319115,0.204529,0.823893,1.01448,2.40049,-0.0365098,-1.80416,-1.98797,-0.174798,-1.5,-4.3,0,12712,49.961,19.164,9574.53
6493223977,0.634769,2.223,107.625,-0.395766,0.264982,0.799791,1.0689,2.02224,-0.0671457,-2.49354,-2.78337,1.72375,-1.5,-4.3,0,12712,49.961,19.164,9574.53
6493324370,0.634769,2.223,107.657,-0.424638,0.289547,0.787943,1.13611,1.56051,-0.0581413,-2.83327,-3.14743,2.34666,-1.5,-4.3,0,12712,49.961,19.164,9574.53
6493424715,0.634769,2.223,107.71,-0.4246,0.292678,0.785431,1.19762,1.05946,-0.0330351,-3.07049,-3.37491,2.31342,-1.5,-4.3,0,12712,49.961,19.164,9574.53
6493525086,0.634769,2.223,107.72,-0.414311,0.278795,0.790584,1.25193,0.580982,-0.0155952,-2.84632,-3.13727,2.29837,-1.5,-4.3,0,12712,49.961,19.164,9574.53
6493625417,0.634769,2.223,107.72,-0.404642,0.264916,0.796804,1.30546,0.117771,-1.45063e-05,-2.78498,-2.99076,2.14817,-1.5,-4.3,0,12712,49.961,19.164,9574.53
6493725823,0.634769,2.223,107.721,-0.395491,0.251762,0.802356,1.36132,-0.305691,-0.00677935,-2.47602,-2.90154,1.5964,-1.2,0.1,0,12712,49.961,19.164,9574.53
6493826185,0.634769,2.223,107.731,-0.376669,0.2388,0.805977,1.42668,-0.72632,-0.0257005,-2.34014,-2.86552,1.58746,-1.2,0.1,0,12712,49.961,19.164,9574.53
6493926505,0.634769,2.223,107.725,-0.189671,0.252452,0.83636,1.48802,-1.17224,0.0817313,-2.19429,-2.47587,3.07425,-1.2,0.1,0,12712,49.961,19.164,9574.53
6494026834,0.634769,2.223,107.742,0.130974,0.249344,0.88348,1.33119,-1.44619,0.214178,-2.40726,-0.0852053,1.97193,-1.2,0.1,0,12684,49.961,21.932,10957.4
6494127196,0.634769,2.223,107.769,0.353572,0.210148,0.896522,0.888091,-1.45911,0.354768,-2.23435,3.07461,2.48689,-1.2,0.1,0,12684,49.961,21.932,10957.4
6494227543,0.634769,2.223,107.803,0.424008,0.178109,0.888984,0.393849,-1.2823,0.33612,-1.52731,4.74761,1.62824,-1.2,0.1,0,12684,49.961,21.932,10957.4
6494327881,0.634769,2.223,107.852,0.360383,0.137567,0.86915,-0.047205,-1.0894,0.201318,-1.44026,4.99162,-0.387566,-1.2,0.1,0,12684,49.961,21.932,10957.4
6494428260,0.634769,2.223,107.881,0.223181,0.0833647,0.85059,-0.320509,-0.95414,-0.100245,-0.804937,3.52491,-2.5164,-1.2,0.1,0,12684,49.961,21.932,10957.4
6494528556,0.634769,2.223,107.872,0.100403,0.0509247,0.848073,-0.49017,-0.850375,-0.306898,-0.250212,2.00275,-0.674407,-1.2,0.1,0,12684,49.961,21.932,10957.4
6494628932,0.634769,2.223,107.846,0.013877,0.0187733,0.849406,-0.594828,-0.774406,-0.366763,0.130084,0.853655,-0.0706011,-1.2,0.1,0,12684,49.961,21.932,10957.4
6494729354,0.634769,2.223,107.778,-0.0201485,0.0097352,0.853696,-0.611211,-0.722443,-0.33067,0.362784,0.40914,0.500957,-1.3,0.3,0,12684,49.961,21.932,10957.4
6494829715,0.634769,2.223,107.701,-0.0224744,0.021545,0.855409,-0.629642,-0.676138,-0.282971,0.344248,0.308357,0.812834,-1.3,0.3,0,12684,49.961,21.932,10957.4
6494930110,0.634769,2.223,107.653,-0.00120209,0.0426886,0.855621,-0.680902,-0.632237,-0.19619,0.0830783,0.636653,0.572143,-1.3,0.3,0,12684,49.961,21.932,10957.4
6495030469,0.634769,2.223,107.613,-0.00429313,0.054101,0.855136,-0.754031,-0.58986,-0.14835,-0.110854,0.674353,0.666644,-1.3,0.3,0,12684,49.961,21.932,10957.4
6495130864,0.634769,2.223,107.582,-0.0125364,0.0609126,0.854379,-0.818184,-0.561429,-0.0944949,-0.192633,0.541172,0.595862,-1.3,0.3,0,12684,49.961,21.932,10957.4
6495231225,0.634769,2.223,107.559,-0.0235425,0.0666402,0.85371,-0.872814,-0.553081,-0.0612625,-0.262901,0.361438,0.67273,-1.3,0.3,0,12684,49.961,21.932,10957.4
6495331574,0.634769,2.223,107.564,-0.0297689,0.0716165,0.853811,-0.917854,-0.549974,-0.0305582,-0.284451,0.306828,0.379143,-1.3,0.3,0,12684,49.961,21.932,10957.4
6495431920,0.634769,2.223,107.58,-0.0375446,0.0727503,0.854937,-0.962933,-0.558808,0.000258401,-0.395832,0.210505,0.28066,-1.3,0.3,0,12684,49.961,21.932,10957.4
6495532313,0.634769,2.223,107.593,-0.0421686,0.0700372,0.855945,-0.995863,-0.566622,0.0203867,-0.335374,0.165913,0.245688,-1.3,0.3,0,12668,49.724,28.457,14150
6495632674,0.634769,2.223,107.612,-0.0490323,0.0682511,0.85582,-1.03016,-0.5751,0.0319676,-0.359131,0.163087,0.120206,-1.3,0.3,0,12668,49.724,28.457,14150
6495733093,0.634769,2.223,107.617,-0.0551169,0.0690871,0.856034,-1.05175,-0.590591,0.0265849,-0.316861,0.0143564,0.0660396,4,-3.2,0,12668,49.724,28.457,14150
6495833450,0.634769,2.223,107.62,-0.0683204,0.0431261,0.85295,-1.0834,-0.607327,0.00273762,-0.409274,0.0801411,0.0131076,4,-3.2,0,12668,49.724,28.457,14150
6495933808,0.634769,2.223,107.634,-0.141098,-0.105094,0.857231,-1.08133,-0.608302,0.0465782,0.369715,-0.194446,0.0198802,4,-3.2,0,12668,49.724,28.457,14150
6496034217,0.634769,2.223,107.646,-0.228992,-0.248136,0.880059,-0.869007,-0.529617,-0.0135598,2.14272,-1.20769,-0.0548689,4,-3.2,0,12668,49.724,28.457,14150
6496134574,0.634769,2.223,107.654,-0.275706,-0.316402,0.895747,-0.518279,-0.411419,-0.0462228,2.97995,-1.69258,1.41837,4,-3.2,0,12668,49.724,28.457,14150
6496234889,0.634769,2.223,107.654,-0.303537,-0.342174,0.902606,-0.0986139,-0.279695,-0.0365886,3.36583,-2.0855,1.83335,4,-3.2,0,12668,49.724,28.457,14150
6496335187,0.634769,2.223,107.642,-0.314438,-0.343675,0.902538,0.350702,-0.161596,-0.0343221,3.40772,-2.19825,2.0383,4,-3.2,0,12668,49.724,28.457,14150
6496435537,0.634769,2.223,107.632,-0.311913,-0.334353,0.898577,0.785014,-0.0627137,-0.0362856,3.15561,-2.19042,2.10744,4,-3.2,0,12668,49.724,28.457,14150
6496535884,0.634769,2.223,107.636,-0.294963,-0.327464,0.897034,1.21274,0.0381431,-0.0109258,3.09945,-2.17193,1.8472,4,-3.2,0,12639,49.965,26.393,13187.3
6496636273,0.634769,2.223,107.641,-0.286759,-0.3267,0.898965,1.61439,0.159974,0.00274626,3.13194,-1.83309,1.67781,4,-3.2,0,12639,49.965,26.393,13187.3
6496736622,0.634769,2.223,107.645,-0.288529,-0.313818,0.897699,1.9985,0.283106,0.00391899,3.0951,-1.80714,1.36351,-4.4,-2.5,0,12639,49.965,26.393,13187.3
6496836913,0.634769,2.223,107.645,-0.277758,-0.276834,0.895335,2.37825,0.388093,0.00327472,2.9583,-1.85966,1.49571,-4.4,-2.5,0,12639,49.965,26.393,13187.3
6496937257,0.634769,2.223,107.656,-0.188626,-0.0397779,0.878346,2.76278,0.478148,0.138452,2.47677,-1.7927,1.38926,-4.4,-2.5,0,12639,49.965,26.393,13187.3
6497037603,0.634769,2.223,107.681,-0.0954741,0.257542,0.856994,2.77943,0.384391,0.153505,-1.35148,-0.609034,-0.399641,-4.4,-2.5,0,12639,49.965,26.393,13187.3
6497139377,0.634769,2.223,107.702,-0.0522393,0.390039,0.847179,2.57093,0.163118,0.0510458,-3.50783,0.215496,-0.291806,-4.4,-2.5,0,12639,49.965,26.393,13187.3
6497244573,0.63477,2.223,107.703,-0.053106,0.447455,0.840778,2.28879,-0.121215,-0.0310353,-3.95965,0.329632,1.52754,-4.4,-2.5,0,12639,49.965,26.393,13187.3
6497344940,0.63477,2.223,107.719,-0.0606102,0.467449,0.835907,1.96522,-0.454818,-0.0686854,-4.44353,0.264841,1.4903,-4.4,-2.5,0,12639,49.965,26.393,13187.3
6497445296,0.63477,2.223,107.744,-0.072468,0.465696,0.832642,1.65386,-0.791948,-0.113917,-4.24754,0.163739,1.88278,-4.4,-2.5,0,12639,49.965,26.393,13187.3
6497545692,0.63477,2.223,107.73,-0.0787769,0.443812,0.831616,1.34866,-1.151,-0.0936157,-4.03865,-0.0238014,2.20013,-4.4,-2.5,0,12639,49.949,26.821,13396.8
6497646071,0.63477,2.223,107.706,-0.0851602,0.422789,0.831587,1.05006,-1.48265,-0.0721051,-3.88989,0.106378,1.90347,-4.4,-2.5,0,12639,49.949,26.821,13396.8
6497746410,0.63477,2.223,107.694,-0.0983834,0.409932,0.83154,0.761246,-1.80885,-0.0602789,-3.70573,0.030664,1.65,-3.4,0.4,0,12639,49.949,26.821,13396.8
6497846786,0.63477,2.223,107.684,-0.097646,0.395687,0.831533,0.497817,-2.12036,-0.0421021,-3.36908,0.0137806,1.91412,-3.4,0.4,0,12639,49.949,26.821,13396.8
6497947056,0.63477,2.223,107.682,0.0513056,0.344844,0.859886,0.208973,-2.45357,0.0694395,-3.31515,0.101412,2.73531,-3.4,0.4,0,12639,49.949,26.821,13396.8
6498047359,0.63477,2.223,107.701,0.210422,0.294206,0.889783,-0.168194,-2.58392,0.118642,-3.05542,2.1601,0.285265,-3.4,0.4,0,12639,49.949,26.821,13396.8
6498147674,0.63477,2.223,107.718,0.275665,0.267159,0.895185,-0.559818,-2.56973,-0.00344627,-2.35734,3.22291,0.297709,-3.4,0.4,0,12639,49.949,26.821,13396.8
6498248076,0.63477,2.223,107.713,0.268477,0.23889,0.88894,-0.99689,-2.51553,-0.0508,-2.01244,3.39929,1.36038,-3.4,0.4,0,12639,49.949,26.821,13396.8
6498348441,0.63477,2.223,107.706,0.222847,0.194925,0.876102,-1.39171,-2.45288,-0.0623307,-1.68903,3.14805,0.971429,-3.4,0.4,0,12639,49.949,26.821,13396.8
6498448749,0.63477,2.223,107.709,0.166982,0.154937,0.86722,-1.68608,-2.39365,-0.0628761,-1.19976,2.41371,0.598134,-3.4,0.4,0,12639,49.949,26.821,13396.8
6498549076,0.63477,2.223,107.683,0.116931,0.120052,0.862485,-1.9422,-2.32129,-0.06528,-0.65629,1.85651,0.261866,-3.4,0.4,0,12639,49.949,26.821,13396.8
6498649351,0.634769,2.223,107.646,0.0785887,0.102702,0.860102,-2.05846,-2.27461,-0.0719387,-0.398404,1.43422,0.210048,-3.4,0.4,0,12639,49.878,26.401,13168.3
6498749735,0.634769,2.223,107.619,0.0522227,0.0991533,0.860705,-2.21111,-2.21282,-0.053703,-0.281722,1.17086,0.119121,-0.6,-1.3,0,12639,49.878,26.401,13168.3
6498850104,0.634769,2.223,107.596,0.0244135,0.077247,0.858553,-2.30596,-2.18106,-0.047523,-0.328438,0.836989,0.522536,-0.6,-1.3,0,12639,49.878,26.401,13168.3
6498950465,0.634769,2.223,107.587,-0.0909035,-0.115029,0.860168,-2.33856,-2.12872,0.0314706,0.606139,0.323749,0.912957,-0.6,-1.3,0,12639,49.878,26.401,13168.3
6499050798,0.634769,2.223,107.581,-0.210272,-0.278191,0.88787,-2.09857,-1.97644,0.0147386,2.9067,-1.04918,0.0818248,-0.6,-1.3,0,12639,49.878,26.401,13168.3
6499151110,0.634769,2.223,107.593,-0.28409,-0.340551,0.911885,-1.70138,-1.79161,-0.0515159,3.69612,-1.77287,1.83855,-0.6,-1.3,0,12639,49.878,26.401,13168.3
6499251484,0.634769,2.223,107.597,-0.28391,-0.320252,0.913235,-1.21836,-1.60927,-0.0352064,3.85782,-2.11608,2.54812,-0.6,-1.3,0,12639,49.878,26.401,13168.3
6499351795,0.634769,2.223,107.583,-0.245508,-0.249376,0.897923,-0.806248,-1.4631,0.00535234,3.3126,-1.88948,1.58076,-0.6,-1.3,0,12639,49.878,26.401,13168.3
6499453381,0.634769,2.223,107.57,-0.204697,-0.176165,0.882222,-0.505472,-1.34734,0.0235195,2.47796,-1.3917,0.960544,-0.6,-1.3,0,12639,49.878,26.401,13168.3
6499554227,0.634769,2.223,107.564,-0.172868,-0.111884,0.870519,-0.275401,-1.27384,0.0246032,1.73111,-1.12479,0.821329,-0.6,-1.3,0,12639,49.878,26.401,13168.3
6499654561,0.634769,2.223,107.561,-0.152545,-0.0674484,0.863629,-0.108592,-1.22406,0.0256832,1.2362,-0.893,0.0637379,-0.6,-1.3,0,12639,49.783,27.108,13495.2
6499754945,0.634769,2.223,107.573,-0.143219,-0.0336949,0.858769,0.0166177,-1.19701,0.0293229,0.789436,-0.672443,0.401019,2.7,-3.1,0,12639,49.783,27.108,13495.2
6499855264,0.634769,2.223,107.592,-0.141247,-0.0350577,0.855064,0.115994,-1.19586,0.0328446,0.37468,-0.644241,0.23034,2.7,-3.1,0,12639,49.783,27.108,13495.2
6499955617,0.634769,2.223,107.594,-0.172055,-0.142918,0.861005,0.231526,-1.18489,0.0422308,0.915904,-0.755729,-0.023512,2.7,-3.1,0,12639,49.783,27.108,13495.2
6500055969,0.634769,2.223,107.594,-0.213129,-0.244212,0.877867,0.459832,-1.09902,0.00420675,2.08014,-1.12874,0.572984,2.7,-3.1,0,12639,49.783,27.108,13495.2
6500156354,0.634769,2.223,107.584,-0.245417,-0.305588,0.891345,0.784743,-0.970685,-0.0253913,2.85713,-1.42492,1.03026,2.7,-3.1,0,12639,49.783,27.108,13495.2
6500256707,0.634769,2.223,107.575,-0.261433,-0.330221,0.898518,1.154,-0.818984,-0.0294532,3.26675,-1.57626,1.51005,2.7,-3.1,0,12639,49.783,27.108,13495.2
6500357060,0.634769,2.223,107.565,-0.263683,-0.329235,0.900164,1.54468,-0.659608,-0.0187008,3.20921,-1.53862,1.99649,2.7,-3.1,0,12639,49.783,27.108,13495.2
6500457457,0.634769,2.223,107.556,-0.268702,-0.319759,0.899582,1.91558,-0.511336,-0.00178555,3.10329,-1.5675,1.81403,2.7,-3.1,0,12639,49.783,27.108,13495.2
6500557794,0.634769,2.223,107.562,-0.27001,-0.299492,0.895659,2.27461,-0.373835,0.0254929,3.0506,-1.64608,1.28442,2.7,-3.1,0,12639,49.783,27.108,13495.2
6500658110,0.634769,2.223,107.575,-0.254363,-0.260918,0.887017,2.60413,-0.267317,0.048558,2.70592,-1.63852,1.0985,2.7,-3.1,0,12639,49.89,25.485,12714.5
6500758509,0.634769,2.223,107.59,-0.23482,-0.222693,0.879776,2.88692,-0.176824,0.0625721,2.29599,-1.35456,0.908889,-2.5,-4.8,0,12639,49.89,25.485,12714.5
6500858866,0.63477,2.223,107.601,-0.208354,-0.153803,0.870142,3.13426,-0.0928798,0.0600309,1.93746,-1.02661,1.28214,-2.5,-4.8,0,12639,49.89,25.485,12714.5
6500959235,0.63477,2.223,107.611,-0.170435,0.0755644,0.859969,3.35282,-0.0610909,0.256692,1.21582,-1.14425,1.18825,-2.5,-4.8,0,12639,49.89,25.485,12714.5
6501059583,0.63477,2.223,107.638,-0.159527,0.275077,0.842032,3.29953,-0.210921,0.22024,-1.99956,-0.725773,-0.757499,-2.5,-4.8,0,12639,49.89,25.485,12714.5
6501159882,0.63477,2.223,107.671,-0.174312,0.368622,0.823631,3.14701,-0.457251,0.089038,-3.40395,-0.613551,-0.682216,-2.5,-4.8,0,12639,49.89,25.485,12714.5
6501260281,0.63477,2.223,107.683,-0.214593,0.402847,0.810356,2.965,-0.758937,-0.0553311,-3.48627,-0.639731,1.02958,-2.5,-4.8,0,12639,49.89,25.485,12714.5
6501360612,0.63477,2.223,107.696,-0.240296,0.404536,0.803648,2.77802,-1.15078,-0.0882407,-3.8582,-1.0087,1.65183,-2.5,-4.8,0,12639,49.89,25.485,12714.5
6501460949,0.63477,2.223,107.716,-0.257153,0.394683,0.79999,2.60542,-1.55196,-0.109803,-3.70778,-1.18097,1.80973,-2.5,-4.8,0,12639,49.89,25.485,12714.5
6501561411,0.63477,2.223,107.693,-0.267901,0.376334,0.801234,2.44134,-1.96189,-0.105225,-3.59487,-1.21155,1.92627,-2.5,-4.8,0,12639,49.89,25.485,12714.5
6501666600,0.63477,2.223,107.656,-0.282183,0.364596,0.800846,2.29731,-2.36539,-0.0998969,-3.41634,-1.30015,1.97301,-2.5,-4.8,0,12639,49.881,24.676,12308.6
6501767041,0.63477,2.223,107.651,-0.290191,0.351142,0.802309,2.15893,-2.76989,-0.0869231,-3.37155,-1.40536,1.71033,2.5,-1.9,0,12639,49.881,24.676,12308.6
6501867404,0.63477,2.223,107.647,-0.299352,0.325535,0.806872,2.02412,-3.17481,-0.0713827,-3.27198,-1.39977,1.68837,2.5,-1.9,0,12639,49.881,24.676,12308.6
6501967764,0.63477,2.223,107.644,-0.19893,0.149377,0.834231,1.90923,-3.5747,-0.0347447,-2.95699,-1.24078,2.02627,2.5,-1.9,0,12639,49.881,24.676,12308.6
6502068118,0.63477,2.223,107.66,-0.034333,-0.122117,0.850092,1.86307,-3.69949,0.0654359,-0.538178,-0.203987,0.967888,2.5,-1.9,0,12639,49.881,24.676,12308.6
6502168504,0.63477,2.223,107.679,0.0764729,-0.294295,0.839641,1.88367,-3.45239,0.114722,2.41817,1.61543,0.141572,2.5,-1.9,0,12639,49.881,24.676,12308.6
6502268862,0.63477,2.223,107.673,0.117627,-0.375815,0.831273,1.92816,-3.09681,0.00626676,3.36309,1.99166,0.626065,2.5,-1.9,0,12639,49.881,24.676,12308.6
6502369210,0.63477,2.223,107.66,0.136828,-0.412399,0.828293,2.02204,-2.64943,-0.0175283,3.92096,2.14519,1.84639,2.5,-1.9,0,12639,49.881,24.676,12308.6
6502469614,0.63477,2.223,107.636,0.142264,-0.41962,0.829528,2.13145,-2.15225,-0.0472436,4.11871,2.29187,2.06261,2.5,-1.9,0,12639,49.881,24.676,12308.6
6502569907,0.63477,2.223,107.61,0.133274,-0.419618,0.833286,2.23326,-1.65058,-0.0600085,4.07819,2.32285,2.10967,2.5,-1.9,0,12639,49.881,24.676,12308.6
6502670273,0.63477,2.223,107.589,0.109868,-0.396054,0.840271,2.34423,-1.15024,-0.0655939,4.021,2.24295,2.19909,2.5,-1.9,0,12639,49.824,26.238,13072.8
6502770669,0.63477,2.223,107.572,0.0749986,-0.349073,0.8484,2.47568,-0.611642,-0.0538825,3.64206,1.83077,1.31761,3.9,1.1,0,12639,49.824,26.238,13072.8
6502871303,0.63477,2.223,107.569,0.0510232,-0.291399,0.852502,2.57103,-0.234568,-0.036829,2.87022,1.51719,1.50661,3.9,1.1,0,12639,49.824,26.238,13072.8
6502975126,0.63477,2.223,107.577,0.14623,-0.253738,0.83035,2.6148,0.0968518,0.0103801,2.22796,1.8549,1.41292,3.9,1.1,0,12639,49.824,26.238,13072.8
6503075469,0.63477,2.223,107.597,0.254221,-0.24257,0.821532,2.55645,0.492512,0.0432047,2.13395,2.88994,1.453,3.9,1.1,0,12639,49.824,26.238,13072.8
6503175856,0.63477,2.223,107.609,0.31021,-0.240745,0.82069,2.42592,0.945084,0.0284021,2.1815,3.70423,1.17171,3.9,1.1,0,12639,49.824,26.238,13072.8
6503276240,0.634771,2.223,107.615,0.328082,-0.24713,0.820162,2.26544,1.41985,0.00865614,2.1776,3.97377,1.59289,3.9,1.1,0,12639,49.824,26.238,13072.8
6503377424,0.634771,2.223,107.623,0.318413,-0.248902,0.823173,2.09827,1.90189,-0.0125563,2.21918,4.0022,1.74329,3.9,1.1,0,12639,49.824,26.238,13072.8
6503477834,0.634771,2.223,107.624,0.267513,-0.225298,0.834272,1.9472,2.35207,-0.0404817,1.99626,3.67594,1.39325,3.9,1.1,0,12639,49.824,26.238,13072.8
6503578202,0.634771,2.223,107.617,0.206994,-0.198354,0.84199,1.82546,2.73657,-0.0416535,1.89525,3.12862,0.982422,3.9,1.1,0,12639,49.824,26.238,13072.8
6503678562,0.634771,2.223,107.619,0.146076,-0.168327,0.848197,1.72477,3.04503,-0.0482659,1.43987,2.49188,0.799558,3.9,1.1,0,12639,49.824,26.238,13072.8
6503778903,0.634771,2.223,107.622,0.0933439,-0.14158,0.851879,1.65774,3.28935,-0.0369981,1.21719,1.91398,0.47447,-2.5,-4.1,0,12594,49.844,25.03,12476
6503879256,0.634771,2.223,107.627,0.037157,-0.0948642,0.85282,1.60232,3.47085,-0.021978,0.903156,1.47867,0.503645,-2.5,-4.1,0,12594,49.844,25.03,12476
6503979582,0.634771,2.223,107.631,-0.111936,0.0983184,0.850677,1.56633,3.57998,0.0495558,0.152451,0.796501,0.531326,-2.5,-4.1,0,12594,49.844,25.03,12476
6504079925,0.634771,2.223,107.641,-0.239258,0.241331,0.82648,1.50731,3.37083,0.0146226,-2.17626,-1.22194,-0.337608,-2.5,-4.1,0,12594,49.844,25.03,12476
6504180231,0.634771,2.223,107.639,-0.317453,0.317765,0.803808,1.44768,3.00138,-0.0500418,-2.94723,-1.7602,1.83223,-2.5,-4.1,0,12594,49.844,25.03,12476
6504280523,0.634771,2.223,107.643,-0.3504,0.355227,0.790645,1.38623,2.49504,-0.0308116,-3.77636,-2.47192,2.3698,-2.5,-4.1,0,12594,49.844,25.03,12476
6504380890,0.634771,2.223,107.659,-0.358011,0.366399,0.785783,1.32298,1.95257,-0.0273859,-3.82988,-2.56426,2.59905,-2.5,-4.1,0,12594,49.844,25.03,12476
6504481214,0.634771,2.223,107.655,-0.353293,0.360823,0.786554,1.25465,1.41306,-0.0145447,-3.80544,-2.55183,2.54767,-2.5,-4.1,0,12594,49.844,25.03,12476
6504581574,0.634771,2.223,107.647,-0.348872,0.349393,0.79021,1.18477,0.893443,-0.0123459,-3.67251,-2.28092,2.38945,-2.5,-4.1,0,12594,49.844,25.03,12476
6504681872,0.634771,2.223,107.651,-0.343691,0.339327,0.793872,1.12316,0.393939,-0.00680371,-3.59649,-2.33123,1.98693,-2.5,-4.1,0,12594,49.844,25.03,12476
6504782272,0.634771,2.223,107.661,-0.339319,0.323826,0.798259,1.07635,-0.0930517,-0.0153093,-3.35875,-2.34406,2.01012,-1.5,3.8,0,12594,49.824,24.641,12277.1
6504882641,0.634771,2.223,107.668,-0.324667,0.306116,0.80343,1.03916,-0.567562,-0.000659907,-3.16174,-2.20611,2.0471,-1.5,3.8,0,12594,49.824,24.641,12277.1
6504982960,0.634771,2.223,107.672,-0.138706,0.260211,0.847651,1.00442,-1.04324,0.0974746,-2.86339,-1.95534,2.83023,-1.5,3.8,0,12594,49.824,24.641,12277.1
6505083321,0.634771,2.223,107.689,0.165177,0.168925,0.886019,0.836643,-1.27625,0.164334,-2.3348,0.433567,0.59561,-1.5,3.8,0,12594,49.824,24.641,12277.1
6505183669,0.634771,2.223,107.705,0.367362,0.0964484,0.880623,0.487897,-1.20019,0.167381,-1.33809,3.57085,0.503438,-1.5,3.8,0,12594,49.824,24.641,12277.1
6505284043,0.634771,2.223,107.71,0.446493,0.0618147,0.86863,0.121551,-0.984376,0.00724698,-0.520579,4.66254,0.495775,-1.5,3.8,0,12594,49.824,24.641,12277.1
6505384358,0.634771,2.223,107.703,0.475439,0.0505454,0.862564,-0.302094,-0.695305,-0.0869188,-0.452869,4.95121,2.0278,-1.5,3.8,0,12594,49.824,24.641,12277.1
6505484711,0.634771,2.223,107.679,0.474846,0.0586205,0.863676,-0.76123,-0.374914,-0.117816,-0.419051,4.99275,2.57876,-1.5,3.8,0,12594,49.824,24.641,12277.1
6505585051,0.634771,2.223,107.65,0.469572,0.0780173,0.870267,-1.22452,-0.0645466,-0.141614,-0.572942,5.08432,2.21945,-1.5,3.8,0,12594,49.824,24.641,12277.1
6505685394,0.634771,2.223,107.63,0.452825,0.0886815,0.874037,-1.71463,0.24028,-0.139096,-0.772558,4.97823,2.8056,-1.5,3.8,0,12594,49.824,24.641,12277.1
6505785788,0.634771,2.223,107.617,0.431006,0.0955209,0.876721,-2.19723,0.531695,-0.10484,-0.805909,4.72416,2.68534,-4.8,-4.1,0,12594,49.807,25.852,12876.1
6505886192,0.634771,2.223,107.607,0.355661,0.094535,0.873672,-2.67142,0.80318,-0.0694406,-0.91604,4.50393,2.56802,-4.8,-4.1,0,12594,49.807,25.852,12876.1
6505986557,0.634771,2.223,107.603,0.119143,0.135588,0.856003,-3.06328,1.02088,0.0466484,-0.927778,3.67938,1.42304,-4.8,-4.1,0,12594,49.807,25.852,12876.1
6506086906,0.634771,2.223,107.612,-0.198218,0.163366,0.832853,-3.21912,0.994224,0.0445363,-1.34909,0.250176,-0.292865,-4.8,-4.1,0,12594,49.807,25.852,12876.1
6506187253,0.634771,2.223,107.616,-0.377521,0.173654,0.825247,-3.14431,0.74546,-0.0125148,-1.44785,-2.57957,0.529332,-4.8,-4.1,0,12594,49.807,25.852,12876.1
6506287593,0.63477,2.223,107.623,-0.456544,0.180253,0.823216,-2.96882,0.380159,-0.0414585,-1.57857,-3.60929,1.95688,-4.8,-4.1,0,12594,49.807,25.852,12876.1
6506387945,0.63477,2.223,107.63,-0.478399,0.182205,0.824989,-2.731,-0.0557326,-0.0354649,-1.64552,-4.15348,2.44138,-4.8,-4.1,0,12594,49.807,25.852,12876.1
6506488316,0.63477,2.223,107.617,-0.470223,0.180813,0.827343,-2.49329,-0.496093,-0.0235617,-1.64268,-4.05264,2.54847,-4.8,-4.1,0,12594,49.807,25.852,12876.1
6506588693,0.63477,2.223,107.592,-0.45252,0.18001,0.828759,-2.2573,-0.927694,-0.0056486,-1.59479,-3.93922,2.43042,-4.8,-4.1,0,12594,49.807,25.852,12876.1
6506689026,0.63477,2.223,107.59,-0.436745,0.182969,0.827726,-1.99566,-1.41154,-0.0014273,-1.48027,-3.61151,2.20063,-4.8,-4.1,0,12594,49.807,25.852,12876.1
6506789485,0.63477,2.223,107.599,-0.422224,0.186919,0.826669,-1.79707,-1.81105,0.00812709,-1.63448,-3.5898,1.78432,1.4,1,0,12594,49.674,31.005,15401.4
6506889843,0.63477,2.223,107.599,-0.395148,0.18147,0.830653,-1.61693,-2.19196,0.0178517,-1.59584,-3.26958,1.79818,1.4,1,0,12594,49.674,31.005,15401.4
6506990217,0.63477,2.223,107.598,-0.259465,0.0384189,0.847775,-1.43797,-2.54404,0.120726,-1.15528,-2.88545,1.52937,1.4,1,0,12594,49.674,31.005,15401.4
6507090569,0.63477,2.223,107.62,-0.0255313,-0.221862,0.8511,-1.28069,-2.5432,0.152476,1.32963,-0.61007,0.632721,1.4,1,0,12594,49.674,31.005,15401.4
6507190880,0.63477,2.223,107.642,0.125413,-0.374118,0.828817,-1.1358,-2.19596,0.137307,3.7934,1.53206,0.151794,1.4,1,0,12594,49.674,31.005,15401.4
6507291280,0.63477,2.223,107.653,0.190884,-0.437624,0.811469,-0.999676,-1.75275,-0.0112946,4.21578,2.06381,1.32153,1.4,1,0,12594,49.674,31.005,15401.4
6507391655,0.63477,2.223,107.656,0.21969,-0.455914,0.80472,-0.854215,-1.18386,-0.0324442,4.60571,2.5438,2.58204,1.4,1,0,12594,49.674,31.005,15401.4
6507492052,0.63477,2.223,107.646,0.229026,-0.451917,0.805723,-0.724424,-0.606824,-0.0586874,4.62087,2.68086,2.30629,1.4,1,0,12594,49.674,31.005,15401.4
6507592418,0.63477,2.223,107.631,0.22071,-0.433984,0.811089,-0.604786,-0.0251511,-0.0743936,4.45221,2.72103,2.72315,1.4,1,0,12594,49.674,31.005,15401.4
6507692739,0.63477,2.223,107.63,0.185809,-0.376545,0.826023,-0.494746,0.526882,-0.0535442,4.08045,2.47986,2.37454,1.4,1,0,12594,49.674,31.005,15401.4
6507793112,0.63477,2.223,107.627,0.1299,-0.303955,0.839901,-0.419412,0.984182,-0.0244299,3.35307,2.22851,1.5979,-0.6,5,0,12594,49.667,29.135,14470.5
6507893478,0.63477,2.223,107.618,0.0902459,-0.223607,0.848137,-0.347146,1.34388,-0.0117796,2.66862,1.5535,1.28017,-0.6,5,0,12594,49.667,29.135,14470.5
6507993837,0.63477,2.223,107.622,0.187786,-0.0689177,0.844618,-0.316397,1.63031,0.0798208,1.72978,1.62276,0.747951,-0.6,5,0,12594,49.667,29.135,14470.5
6508094153,0.63477,2.223,107.632,0.292079,0.0576812,0.860417,-0.526947,1.84123,0.028352,-0.148237,2.96846,0.0796274,-0.6,5,0,12594,49.667,29.135,14470.5
6508194576,0.63477,2.223,107.631,0.361779,0.134817,0.880732,-0.863236,2.03617,-0.0402586,-0.970023,3.61394,1.11726,-0.6,5,0,12594,49.667,29.135,14470.5
6508294931,0.63477,2.223,107.625,0.397764,0.173161,0.893167,-1.30228,2.23056,-0.058473,-1.45916,4.06796,1.86068,-0.6,5,0,12594,49.667,29.135,14470.5
6508395327,0.63477,2.223,107.629,0.410884,0.187343,0.898553,-1.79621,2.41371,-0.0575815,-1.69193,4.17611,2.30747,-0.6,5,0,12594,49.667,29.135,14470.5
6508495683,0.63477,2.223,107.622,0.4019,0.187708,0.898639,-2.31197,2.58252,-0.0450958,-1.89204,4.27791,2.27526,-0.6,5,0,12594,49.667,29.135,14470.5
6508597628,0.63477,2.223,107.609,0.352832,0.167782,0.89062,-2.8038,2.7356,-0.0266493,-1.78688,4.0917,2.04859,-0.6,5,0,12594,49.667,29.135,14470.5
6508697938,0.63477,2.223,107.606,0.287226,0.142683,0.881379,-3.22273,2.86681,0.00849276,-1.50637,3.4227,1.65264,-0.6,5,0,12594,49.667,29.135,14470.5
6508798325,0.63477,2.223,107.613,0.217246,0.112304,0.872998,-3.55363,2.95769,0.0242578,-1.24468,2.68868,0.819461,1.8,3.2,0,12594,49.519,30.476,15091.4
6508898685,0.63477,2.223,107.617,0.137954,0.0584007,0.863076,-3.79848,3.02804,0.0371685,-0.877592,1.99677,0.708291,1.8,3.2,0,12594,49.519,30.476,15091.4
6508999042,0.63477,2.223,107.622,-0.0342397,-0.136289,0.862862,-3.94747,3.09147,0.098073,-0.000669461,1.05822,0.188036,1.8,3.2,0,12594,49.519,30.476,15091.4
6509100431,0.63477,2.223,107.633,-0.176154,-0.279821,0.884244,-3.77749,3.19352,0.0494955,2.29561,-0.998421,-0.408051,1.8,3.2,0,12594,49.519,30.476,15091.4
6509205630,0.63477,2.223,107.623,-0.23587,-0.332129,0.89534,-3.4434,3.31257,-0.0411074,3.2651,-1.85644,1.12054,1.8,3.2,0,12594,49.519,30.476,15091.4
6509305983,0.63477,2.223,107.604,-0.238911,-0.323654,0.891141,-3.00655,3.42688,-0.027522,3.49615,-2.28075,2.04472,1.8,3.2,0,12594,49.519,30.476,15091.4
6509406333,0.63477,2.223,107.579,-0.205241,-0.278125,0.879037,-2.60396,3.52746,-0.0156803,3.1931,-2.13037,1.55365,1.8,3.2,0,12594,49.519,30.476,15091.4
6509506683,0.634769,2.223,107.554,-0.157911,-0.220576,0.868158,-2.27635,3.61041,-0.00243698,2.616,-1.64624,1.14533,1.8,3.2,0,12594,49.519,30.476,15091.4
6509607007,0.634769,2.223,107.529,-0.113934,-0.168573,0.861659,-2.02922,3.6706,0.00729969,2.01114,-1.26016,0.665885,1.8,3.2,0,12594,49.519,30.476,15091.4
6509707302,0.634769,2.223,107.531,-0.0807917,-0.127485,0.858816,-1.84938,3.72263,0.0164039,1.45077,-0.834241,0.367438,1.8,3.2,0,12594,49.519,30.476,15091.4
6509811423,0.634769,2.223,107.541,-0.0561255,-0.0932946,0.857525,-1.69958,3.77259,0.0393696,0.967184,-0.424642,0.519637,-3.4,2.1,0,12594,49.562,29.399,14570.7
6509914008,0.634769,2.223,107.554,-0.0421279,-0.0361751,0.855822,-1.61231,3.80533,0.0418241,0.762404,-0.273919,0.230505,-3.4,2.1,0,12594,49.562,29.399,14570.7
6510014433,0.634769,2.223,107.571,-0.0653693,0.170845,0.852246,-1.58684,3.79044,0.11036,-0.464428,-0.158736,0.257929,-3.4,2.1,0,12594,49.562,29.399,14570.7
6510114775,0.634769,2.223,107.579,-0.0964467,0.319762,0.843274,-1.69834,3.56686,0.0517201,-2.63279,-0.511942,0.0941245,-3.4,2.1,0,12594,49.562,29.399,14570.7
6510215116,0.634769,2.223,107.593,-0.114755,0.406392,0.835505,-1.86901,3.23345,0.00774761,-3.58266,-0.713489,1.22766,-3.4,2.1,0,12594,49.562,29.399,14570.7
6510315461,0.634769,2.223,107.622,-0.123994,0.442965,0.832221,-2.08914,2.82716,0.00320693,-4.08966,-0.809843,1.82318,-3.4,2.1,0,12594,49.562,29.399,14570.7
6510415856,0.634769,2.223,107.648,-0.125304,0.452081,0.831342,-2.32616,2.39866,-0.00265296,-4.2548,-0.786749,2.0236,-3.4,2.1,0,12594,49.562,29.399,14570.7
6510516220,0.634769,2.223,107.649,-0.124681,0.446667,0.831725,-2.56655,1.96869,0.00253057,-4.27594,-0.808601,1.95894,-3.4,2.1,0,12594,49.562,29.399,14570.7
6510616551,0.634769,2.223,107.635,-0.123156,0.436692,0.832498,-2.80176,1.5483,0.000982199,-4.12616,-0.753825,1.99947,-3.4,2.1,0,12594,49.562,29.399,14570.7
6510716908,0.634769,2.223,107.633,-0.121823,0.427001,0.83354,-3.01306,1.13647,-0.0126665,-3.98868,-0.911482,1.77313,-3.4,2.1,0,12594,49.562,29.399,14570.7
6510817299,0.634769,2.223,107.634,-0.112996,0.395311,0.836585,-3.23244,0.730438,-0.0111742,-3.88901,-0.862694,1.67279,-5,-4.5,0,12594,49.562,29.399,14570.7
6510917646,0.634769,2.223,107.628,-0.121277,0.319463,0.839077,-3.43188,0.373182,0.00690646,-3.37148,-0.629931,1.50725,-5,-4.5,0,12578,49.578,29.006,14380.6
6511017996,0.634769,2.223,107.63,-0.222993,0.227248,0.823264,-3.54986,0.080458,0.0444958,-2.2718,-1.00808,0.999989,-5,-4.5,0,12578,49.578,29.006,14380.6
6511118351,0.634769,2.223,107.636,-0.32607,0.164722,0.826412,-3.50179,-0.210441,0.0366315,-1.45663,-2.23075,0.818043,-5,-4.5,0,12578,49.578,29.006,14380.6
6511218719,0.634769,2.223,107.631,-0.387601,0.132283,0.834279,-3.34541,-0.513845,-0.0149019,-0.908967,-3.08606,0.924263,-5,-4.5,0,12578,49.578,29.006,14380.6
6511319000,0.634769,2.223,107.628,-0.416938,0.116459,0.840275,-3.12138,-0.850038,-0.0178904,-0.689019,-3.34663,2.00991,-5,-4.5,0,12578,49.578,29.006,14380.6
6511419357,0.634769,2.223,107.632,-0.424557,0.111727,0.84329,-2.86424,-1.19251,-0.0151468,-0.645931,-3.73387,1.58302,-5,-4.5,0,12578,49.578,29.006,14380.6
6511519728,0.634769,2.223,107.624,-0.420334,0.112631,0.843247,-2.61102,-1.52014,-0.0247464,-0.5564,-3.5079,1.87456,-5,-4.5,0,12578,49.578,29.006,14380.6
6511620093,0.634769,2.223,107.609,-0.411876,0.117795,0.841281,-2.35831,-1.84367,-0.0165174,-0.596879,-3.48276,1.86268,-5,-4.5,0,12578,49.578,29.006,14380.6
6511720444,0.634769,2.223,107.599,-0.401777,0.126715,0.837796,-2.11713,-2.15838,-0.0195289,-0.628385,-3.46464,1.44699,-5,-4.5,0,12578,49.578,29.006,14380.6
6511820775,0.634769,2.223,107.593,-0.389713,0.13583,0.835654,-1.89221,-2.46701,-0.0115085,-0.685361,-3.11884,1.79093,3.9,-4.4,0,12578,49.578,29.006,14380.6
6511921417,0.634769,2.223,107.591,-0.372949,0.133076,0.838231,-1.68654,-2.76619,0.0022379,-0.777068,-3.04926,1.47186,3.9,-4.4,0,12533,49.583,28.83,14294.8
6512023093,0.634769,2.223,107.59,-0.309457,-0.0447795,0.863212,-1.4906,-3.0771,0.0762602,-0.854348,-2.8283,2.20415,3.9,-4.4,0,12533,49.583,28.83,14294.8
6512123381,0.634769,2.223,107.611,-0.234593,-0.247297,0.877313,-1.19586,-3.09831,0.146063,1.99024,-2.01317,0.779348,3.9,-4.4,0,12533,49.583,28.83,14294.8
6512223651,0.634769,2.223,107.632,-0.196967,-0.364113,0.890431,-0.866587,-2.91946,0.0928995,3.63081,-1.23874,0.431364,3.9,-4.4,0,12533,49.583,28.83,14294.8
6512324053,0.634769,2.223,107.643,-0.185654,-0.413682,0.897806,-0.508376,-2.64534,-0.00780498,4.35084,-0.809485,1.1771,3.9,-4.4,0,12533,49.583,28.83,14294.8
6512424450,0.634769,2.223,107.648,-0.180425,-0.425399,0.902017,-0.0896614,-2.31446,-0.00713972,4.58749,-0.781744,2.33072,3.9,-4.4,0,12533,49.583,28.83,14294.8
6512524783,0.634769,2.223,107.652,-0.180625,-0.416803,0.904645,0.301758,-1.99979,-0.0236013,4.52781,-0.847578,1.54995,3.9,-4.4,0,12533,49.583,28.83,14294.8
6512625129,0.634769,2.223,107.65,-0.184341,-0.405238,0.906911,0.689569,-1.68596,-0.0414866,4.44669,-0.822165,1.74494,3.9,-4.4,0,12533,49.583,28.83,14294.8
6512725495,0.634769,2.223,107.646,-0.193281,-0.393839,0.906417,1.07299,-1.3861,-0.0484219,4.2039,-0.853087,1.86092,3.9,-4.4,0,12533,49.583,28.83,14294.8
6512826030,0.634769,2.223,107.642,-0.203026,-0.376614,0.904972,1.43859,-1.10482,-0.0605324,3.99003,-0.921667,1.62913,-1.9,-4.6,0,12533,49.583,28.83,14294.8
6512926444,0.634769,2.223,107.632,-0.211033,-0.344386,0.902103,1.79316,-0.844389,-0.0568635,3.66921,-0.96014,1.65032,-1.9,-4.6,0,12533,49.536,29.731,14727.5
6513026823,0.634769,2.223,107.629,-0.20113,-0.147191,0.893389,2.17813,-0.593325,0.0723328,3.3981,-0.963314,2.93195,-1.9,-4.6,0,12533,49.536,29.731,14727.5
6513127202,0.634769,2.223,107.64,-0.220578,0.116254,0.859703,2.31458,-0.569479,0.0885542,0.314334,-1.20748,-0.729356,-1.9,-4.6,0,12533,49.536,29.731,14727.5
6513227579,0.634769,2.223,107.645,-0.24822,0.251769,0.827302,2.29236,-0.756051,-0.0209722,-1.86554,-1.34484,-0.0279244,-1.9,-4.6,0,12533,49.536,29.731,14727.5
6513327943,0.634769,2.223,107.662,-0.269312,0.313945,0.806879,2.22385,-1.05652,-0.0340282,-2.7694,-1.50995,1.22356,-1.9,-4.6,0,12533,49.536,29.731,14727.5
6513428313,0.634769,2.223,107.701,-0.286952,0.327195,0.797021,2.12933,-1.4237,-0.0234552,-3.20469,-1.65473,1.3977,-1.9,-4.6,0,12533,49.536,29.731,14727.5
6513528656,0.634769,2.223,107.713,-0.301378,0.312034,0.795315,2.04431,-1.78708,-0.0293128,-3.10997,-1.84654,1.18599,-1.9,-4.6,0,12533,49.536,29.731,14727.5
6513629013,0.634769,2.223,107.71,-0.314839,0.290859,0.79781,1.97509,-2.23062,-0.0189047,-2.78164,-1.92864,1.61791,-1.9,-4.6,0,12533,49.536,29.731,14727.5
6513729363,0.634769,2.223,107.726,-0.321309,0.268832,0.801184,1.9505,-2.58159,-0.00976859,-2.48637,-2.1196,1.27937,-1.9,-4.6,0,12533,49.536,29.731,14727.5
6513829909,0.634769,2.223,107.75,-0.309716,0.235477,0.809577,1.93963,-2.9199,-0.00064458,-2.2342,-2.011,1.24919,-2.3,-0.9,0,12533,49.536,29.731,14727.5
6513930314,0.634769,2.223,107.756,-0.276474,0.19219,0.820584,1.9535,-3.22143,-0.00183782,-1.73154,-2.03624,1.21846,-2.3,-0.9,0,12505,49.455,30.993,15327.6
6514030643,0.634769,2.223,107.753,-0.0548293,0.168969,0.852829,1.95177,-3.49488,0.15674,-1.55911,-1.34246,1.26791,-2.3,-0.9,0,12505,49.455,30.993,15327.6
6514131001,0.634769,2.223,107.776,0.235988,0.150276,0.880218,1.71596,-3.50719,0.21868,-1.1844,1.86487,1.39755,-2.3,-0.9,0,12505,49.455,30.993,15327.6
6514231372,0.634769,2.223,107.804,0.390303,0.126492,0.881575,1.27171,-3.32592,0.260552,-1.07885,4.27399,1.66688,-2.3,-0.9,0,12505,49.455,30.993,15327.6
6514331749,0.634769,2.223,107.832,0.417899,0.112791,0.875123,0.829408,-3.07196,0.178505,-0.759097,5.02878,0.663165,-2.3,-0.9,0,12505,49.455,30.993,15327.6
6514432111,0.634769,2.223,107.847,0.354132,0.120186,0.872121,0.466343,-2.87306,-0.0470379,-0.890639,4.44391,-1.09544,-2.3,-0.9,0,12505,49.455,30.993,15327.6
6514532470,0.634769,2.223,107.838,0.269396,0.126968,0.870874,0.156357,-2.73358,-0.240318,-0.808438,3.17248,0.708961,-2.3,-0.9,0,12505,49.455,30.993,15327.6
6514632807,0.634769,2.223,107.806,0.200831,0.119947,0.865518,-0.156035,-2.62948,-0.253576,-0.995564,2.78816,0.513049,-2.3,-0.9,0,12505,49.455,30.993,15327.6
6514733151,0.634769,2.223,107.755,0.151712,0.112972,0.861357,-0.406625,-2.53529,-0.301364,-0.784369,2.28719,0.31549,-2.3,-0.9,0,12505,49.455,30.993,15327.6
6514833558,0.634769,2.223,107.686,0.103189,0.0974368,0.857095,-0.642036,-2.46638,-0.295605,-0.80294,1.87617,1.27694,-0.8,-4.7,0,12505,49.455,30.993,15327.6
6514933853,0.634769,2.223,107.626,0.0531588,0.0626165,0.853368,-0.834889,-2.41427,-0.221285,-0.609606,1.49642,1.22734,-0.8,-4.7,0,12505,49.477,29.54,14615.5
6515034216,0.634769,2.223,107.583,-0.121411,-0.0283482,0.852079,-0.939416,-2.35638,-0.137599,-0.00121265,0.635322,0.48201,-0.8,-4.7,0,12505,49.477,29.54,14615.5
6515134574,0.634769,2.223,107.567,-0.259225,-0.098551,0.864849,-0.818142,-2.3611,-0.138188,0.831408,-1.26703,0.197929,-0.8,-4.7,0,12505,49.477,29.54,14615.5
6515234929,0.634769,2.223,107.559,-0.356274,-0.13435,0.877653,-0.542739,-2.40648,-0.144879,1.39723,-2.29855,1.56729,-0.8,-4.7,0,12505,49.477,29.54,14615.5
6515335233,0.634769,2.223,107.564,-0.398523,-0.144775,0.883744,-0.173426,-2.48607,-0.0683317,1.63,-2.85604,2.24518,-0.8,-4.7,0,12505,49.477,29.54,14615.5
