timestamp,lat,log,alt,roll,pitch,yaw,vel_x,vel_y,vel_z,acc_x,acc_y,acc_z,act_vx,act_vy,act_yr,capacity,vol,cur,power
202600741,0.634769,2.223,89.0379,0.0033707,-0.00943256,0.859595,0.016599,0.131915,-0.018974,0.0979161,0.0122204,0.01674,-2,-1.4,0,12150,48.897,25.059,12253.1
202701262,0.634769,2.223,89.0347,0.000767114,-0.0106558,0.859367,0.0160144,0.129372,-0.0193554,0.0257181,0.0402692,0.0302759,-2,-1.4,0,12150,48.897,25.059,12253.1
202801695,0.634769,2.223,89.0294,-0.00447381,-0.00809365,0.858403,0.0291798,0.130793,-0.0218519,0.172586,-0.0791631,-0.136635,-2,-1.4,0,12150,48.897,25.059,12253.1
202902037,0.634769,2.223,89.0212,-0.0797646,0.118809,0.852819,0.031801,0.126258,0.0295399,-0.224682,-0.150455,0.464162,-2,-1.4,0,12150,48.897,25.059,12253.1
203002311,0.634769,2.223,89.0184,-0.166158,0.234982,0.839698,0.000393653,-0.0839788,0.0042672,-1.86356,-1.22863,-0.101785,-2,-1.4,0,12150,48.897,25.059,12253.1
203102604,0.634769,2.223,89.0166,-0.221718,0.303283,0.825939,-0.0394745,-0.415457,-0.0364439,-2.60691,-1.75506,1.2197,-2,-1.4,0,12150,48.897,25.059,12253.1
203202897,0.634769,2.223,89.0128,-0.229275,0.308824,0.825093,-0.0796098,-0.826058,-0.0391724,-2.99101,-2.13949,1.59965,-2,-1.4,0,12150,48.897,25.059,12253.1
203303214,0.634769,2.223,89.015,-0.202879,0.278706,0.8324,-0.109669,-1.21311,-0.0196743,-2.73202,-1.98714,1.46073,-2,-1.4,0,12150,48.897,25.059,12253.1
203403666,0.634769,2.223,89.0179,-0.169015,0.235458,0.840321,-0.146856,-1.54244,-0.0124811,-2.47469,-1.68139,0.946584,-2,-1.4,0,12150,48.897,25.059,12253.1
203504068,0.634769,2.223,89.0197,-0.135888,0.189513,0.847051,-0.171049,-1.80753,-0.000265129,-1.94122,-1.39327,0.679991,-2,-1.4,0,12150,48.882,25.163,12300.2
203604495,0.634769,2.223,89.0179,-0.104101,0.147035,0.852072,-0.187532,-2.01639,0.00702171,-1.49464,-1.10977,0.199132,3.1,-3.7,0,12150,48.882,25.163,12300.2
203704804,0.634769,2.223,89.0171,-0.0907564,0.0816746,0.852753,-0.206522,-2.15631,-0.00319032,-1.15339,-0.598839,0.175156,3.1,-3.7,0,12150,48.882,25.163,12300.2
203805174,0.634769,2.223,89.0122,-0.131863,-0.134678,0.86326,-0.173286,-2.24732,0.0196833,0.143248,-0.81073,0.483909,3.1,-3.7,0,12150,48.882,25.163,12300.2
203905533,0.634769,2.223,89.0131,-0.160147,-0.286864,0.881978,0.0710592,-2.157,0.00219725,2.50541,-1.11557,0.124888,3.1,-3.7,0,12150,48.882,25.163,12300.2
204005893,0.634769,2.223,89.0116,-0.184335,-0.371981,0.896187,0.405327,-1.99446,-0.0528946,3.41368,-1.27427,1.43281,3.1,-3.7,0,12150,48.882,25.163,12300.2
204106234,0.634769,2.223,88.995,-0.197825,-0.405571,0.904058,0.834125,-1.77537,-0.0438942,3.96313,-1.45476,2.43095,3.1,-3.7,0,12150,48.882,25.163,12300.2
204206595,0.634769,2.223,88.9708,-0.206924,-0.407517,0.906558,1.28098,-1.53485,-0.0319574,4.13189,-1.47891,2.42202,3.1,-3.7,0,12150,48.882,25.163,12300.2
204306939,0.634769,2.223,88.9493,-0.21295,-0.392903,0.90624,1.72794,-1.30994,-0.0282822,3.97136,-1.58518,2.42931,3.1,-3.7,0,12150,48.882,25.163,12300.2
204407289,0.634769,2.223,88.9328,-0.218062,-0.374904,0.904851,2.15745,-1.11361,-0.016276,3.74205,-1.6519,2.17431,3.1,-3.7,0,12150,48.882,25.163,12300.2
204507624,0.634769,2.223,88.9214,-0.22272,-0.361054,0.90357,2.57339,-0.940314,-0.00262232,3.50446,-1.73168,2.00422,3.1,-3.7,0,12150,48.882,25.163,12300.2
204608048,0.634769,2.223,88.9218,-0.228945,-0.349431,0.902129,2.98765,-0.782483,0.00425552,3.37674,-1.75439,1.77425,-2.4,-3.4,0,12150,48.882,25.163,12300.2
204708442,0.634769,2.223,88.9285,-0.213144,-0.277765,0.892937,3.39549,-0.633567,0.0175577,3.26541,-1.81572,1.93488,-2.4,-3.4,0,12150,48.882,25.163,12300.2
204808800,0.634769,2.223,88.9393,-0.149178,0.00183314,0.87203,3.73128,-0.558804,0.124265,1.96265,-1.6895,1.32637,-2.4,-3.4,0,12150,48.882,25.163,12300.2
204909102,0.634769,2.223,88.9568,-0.0834174,0.260966,0.855642,3.72316,-0.726613,0.14099,-1.94298,-0.913349,-0.417197,-2.4,-3.4,0,12150,48.882,25.163,12300.2
205009903,0.634769,2.223,88.9767,-0.0476009,0.389275,0.851716,3.53235,-0.998171,0.0526151,-3.42071,-0.270607,0.716277,-2.4,-3.4,0,12150,48.882,25.163,12300.2
205112549,0.634769,2.223,89.0096,-0.0370981,0.457566,0.849282,3.2506,-1.34375,0.0138613,-4.31977,-0.044902,1.49001,-2.4,-3.4,0,12136,48.867,25.231,12329.6
205212949,0.634769,2.223,89.0669,-0.0418631,0.48379,0.845454,2.92846,-1.73022,2.224e-06,-4.65421,-0.12753,1.84409,-2.4,-3.4,0,12136,48.867,25.231,12329.6
205313304,0.634769,2.223,89.1097,-0.0514564,0.47856,0.841793,2.59213,-2.13375,-0.00264312,-4.57051,-0.0619047,2.12543,-2.4,-3.4,0,12136,48.867,25.231,12329.6
205413658,0.634769,2.223,89.108,-0.0596711,0.454943,0.840136,2.27195,-2.53145,-0.00605305,-4.71685,-0.181495,1.54005,-2.4,-3.4,0,12136,48.867,25.231,12329.6
205514009,0.634769,2.223,89.1129,-0.0602986,0.39478,0.842519,1.97802,-2.90687,-0.0166626,-4.11404,-0.214659,1.85065,-2.4,-3.4,0,12136,48.867,25.231,12329.6
205614403,0.634769,2.223,89.1228,-0.0570019,0.32094,0.846926,1.73013,-3.2259,-0.00586234,-3.54806,-0.237578,0.961297,-2.3,1.8,0,12136,48.867,25.231,12329.6
205714719,0.634769,2.223,89.1223,-0.0391871,0.246551,0.850512,1.53373,-3.47363,-0.0124075,-2.73527,-0.206286,0.547504,-2.3,1.8,0,12136,48.867,25.231,12329.6
205815084,0.634769,2.223,89.0999,0.125512,0.149333,0.873069,1.3626,-3.66728,0.0992393,-2.0102,0.0882115,1.20053,-2.3,1.8,0,12136,48.867,25.231,12329.6
205915453,0.634769,2.223,89.0902,0.300698,0.0809101,0.875967,1.13423,-3.61454,0.0241983,-0.871146,2.38513,-0.539056,-2.3,1.8,0,12136,48.867,25.231,12329.6
206015827,0.634769,2.223,89.0789,0.401032,0.048568,0.86895,0.744753,-3.38415,-0.0920427,-0.337747,3.714,1.32513,-2.3,1.8,0,12136,48.859,28.354,13853.5
206116217,0.634769,2.223,89.0619,0.451881,0.0375223,0.863792,0.340361,-3.08819,-0.108897,-0.180831,4.41874,2.07553,-2.3,1.8,0,12136,48.859,28.354,13853.5
206216577,0.634769,2.223,89.0432,0.467987,0.0387912,0.861379,-0.0944911,-2.74942,-0.112003,-0.0727102,4.64464,2.58335,-2.3,1.8,0,12136,48.859,28.354,13853.5
206316940,0.634769,2.223,89.0127,0.463891,0.0436421,0.859738,-0.533765,-2.41516,-0.107084,-0.158004,4.5673,2.73289,-2.3,1.8,0,12136,48.859,28.354,13853.5
206417278,0.634769,2.223,88.9644,0.454103,0.048797,0.859623,-0.962923,-2.07912,-0.0896731,-0.150225,4.48584,2.78588,-2.3,1.8,0,12136,48.859,28.354,13853.5
206517668,0.634769,2.223,88.9296,0.436735,0.0559161,0.861348,-1.38925,-1.75668,-0.0626857,-0.27832,4.39563,2.55926,-2.3,1.8,0,12136,48.859,28.354,13853.5
206618027,0.634769,2.223,88.9305,0.375931,0.0542364,0.860306,-1.77624,-1.46675,-0.042067,-0.254143,3.94217,2.15668,-2.6,2.7,0,12136,48.859,28.354,13853.5
206718388,0.634769,2.223,88.9329,0.318933,0.0582466,0.860696,-2.09563,-1.22808,0.00377692,-0.196298,3.09194,1.88037,-2.6,2.7,0,12136,48.859,28.354,13853.5
206818742,0.634769,2.223,88.9309,0.320457,0.0711674,0.864862,-2.38137,-1.01731,0.0223792,-0.338953,3.26009,0.743988,-2.6,2.7,0,12136,48.859,28.354,13853.5
206919082,0.634769,2.223,88.9404,0.296938,0.0787227,0.866395,-2.66636,-0.827737,0.0204925,-0.432447,2.92755,1.09437,-2.6,2.7,0,12136,48.859,28.354,13853.5
207019447,0.634769,2.223,88.964,0.264776,0.0806927,0.867368,-2.9302,-0.662394,0.0275888,-0.472535,2.71088,0.736288,-2.6,2.7,0,12136,48.859,28.354,13853.5
207119790,0.634769,2.223,88.9844,0.222918,0.0775744,0.867317,-3.15401,-0.528586,0.0396222,-0.41207,2.19408,0.505354,-2.6,2.7,0,12136,48.652,28.944,14081.8
207220126,0.634769,2.223,89.0061,0.181024,0.072146,0.866841,-3.33394,-0.425935,0.0425104,-0.35556,1.79083,0.290765,-2.6,2.7,0,12136,48.652,28.944,14081.8
207320480,0.634769,2.223,89.0258,0.14367,0.0675602,0.8668,-3.47827,-0.346893,0.0385541,-0.387555,1.38951,0.168114,-2.6,2.7,0,12136,48.652,28.944,14081.8
207420869,0.634769,2.223,89.0471,0.115337,0.0626404,0.865995,-3.58639,-0.294341,0.0411565,-0.338486,1.04732,-0.23696,-2.6,2.7,0,12136,48.652,28.944,14081.8
207521195,0.634769,2.223,89.0681,0.0932678,0.0581047,0.864635,-3.65901,-0.249788,0.0279924,-0.178604,0.755988,-0.141758,-2.6,2.7,0,12136,48.652,28.944,14081.8
207621608,0.634769,2.223,89.0834,0.0761332,0.0529598,0.864153,-3.70927,-0.219207,0.0372308,-0.0773813,0.528054,0.046305,3.2,-4.2,0,12136,48.652,28.944,14081.8
207721970,0.634769,2.223,89.0974,0.0408209,0.0269014,0.861393,-3.7358,-0.203591,0.0374111,-0.106264,0.329207,0.210823,3.2,-4.2,0,12136,48.652,28.944,14081.8
207822357,0.634769,2.223,89.1088,-0.130039,-0.117555,0.869137,-3.70003,-0.181934,0.0950685,0.683456,-0.42514,0.537816,3.2,-4.2,0,12136,48.652,28.944,14081.8
207922779,0.634769,2.223,89.1239,-0.277968,-0.223794,0.895128,-3.38656,-0.169999,0.0544891,2.18793,-2.3389,0.204566,3.2,-4.2,0,12136,48.652,28.944,14081.8
208023131,0.634768,2.223,89.1293,-0.365128,-0.277538,0.915428,-2.9355,-0.161556,-0.0213744,2.85286,-3.19197,1.66287,3.2,-4.2,0,12136,48.652,28.944,14081.8
208123472,0.634768,2.223,89.1174,-0.412875,-0.305438,0.927105,-2.37057,-0.174794,-0.0587247,3.17039,-3.78457,2.5433,3.2,-4.2,0,12136,48.692,30.19,14700.1
208223814,0.634768,2.223,89.0953,-0.433144,-0.325458,0.934561,-1.75692,-0.188547,-0.118067,3.31252,-3.88207,3.03079,3.2,-4.2,0,12136,48.692,30.19,14700.1
208324211,0.634768,2.223,89.0676,-0.438833,-0.330264,0.935365,-1.08711,-0.19783,-0.121704,3.55709,-4.08006,3.3551,3.2,-4.2,0,12136,48.692,30.19,14700.1
208425409,0.634768,2.223,89.0377,-0.430706,-0.323049,0.931226,-0.423583,-0.205776,-0.123305,3.55278,-4.08844,3.28935,3.2,-4.2,0,12136,48.692,30.19,14700.1
208527736,0.634768,2.223,89.016,-0.41448,-0.310515,0.925386,0.226518,-0.229834,-0.1061,3.28342,-3.95064,3.49096,3.2,-4.2,0,12136,48.692,30.19,14700.1
208628146,0.634768,2.223,89.0023,-0.391061,-0.296395,0.918359,0.847561,-0.246823,-0.0835167,3.21686,-3.84975,3.04337,4.4,-2.3,0,12136,48.692,30.19,14700.1
208728510,0.634768,2.223,88.9904,-0.342599,-0.293955,0.909616,1.41859,-0.269242,-0.0542641,2.94761,-3.67253,2.65699,4.4,-2.3,0,12136,48.692,30.19,14700.1
208828887,0.634768,2.223,88.9886,-0.231729,-0.338695,0.889199,1.92937,-0.240285,-0.0121206,3.07849,-2.7961,2.28525,4.4,-2.3,0,12136,48.692,30.19,14700.1
208929247,0.634769,2.223,88.9886,-0.134007,-0.377298,0.878461,2.35248,-0.0881196,-0.00998227,3.61299,-1.7603,1.45269,4.4,-2.3,0,12136,48.692,30.19,14700.1
209029599,0.634769,2.223,88.9953,-0.0679308,-0.394622,0.873275,2.71184,0.146696,-0.0174268,3.69933,-0.789186,1.60077,4.4,-2.3,0,12136,48.692,30.19,14700.1
209129923,0.634769,2.223,88.9978,-0.0331429,-0.398496,0.872252,3.02698,0.437309,-0.0145818,3.78599,-0.223868,1.67047,4.4,-2.3,0,12091,48.734,29.963,14602.2
209230296,0.634769,2.223,89.0022,-0.0201022,-0.367283,0.872927,3.3182,0.746438,0.00402464,3.74902,-0.0478985,1.61374,4.4,-2.3,0,12091,48.734,29.963,14602.2
209330658,0.634769,2.223,89.013,-0.0192057,-0.313478,0.873187,3.5602,1.01366,0.0308294,3.18538,-0.0178791,1.21489,4.4,-2.3,0,12091,48.734,29.963,14602.2
209431014,0.634769,2.223,89.0305,-0.0221813,-0.261578,0.872281,3.75097,1.21722,0.0342516,2.60567,-0.0723631,0.476217,4.4,-2.3,0,12091,48.734,29.963,14602.2
209531350,0.634769,2.223,89.0511,-0.022075,-0.219429,0.870172,3.89938,1.38182,0.0357989,2.07094,-0.0158516,0.33226,4.4,-2.3,0,12091,48.734,29.963,14602.2
209631709,0.634769,2.223,89.0766,-0.0238239,-0.183712,0.869104,4.01132,1.5088,0.029476,1.65267,-0.0432894,0.0821903,3.3,-2.3,0,12091,48.734,29.963,14602.2
209732671,0.634769,2.223,89.0965,-0.0243112,-0.142515,0.86798,4.09723,1.60043,0.0258409,1.20129,-0.0547563,0.0870586,3.3,-2.3,0,12091,48.734,29.963,14602.2
209834701,0.634769,2.223,89.1375,-0.0286353,-0.0459276,0.866221,4.1456,1.66565,0.0493592,0.577799,-0.00964488,-0.347901,3.3,-2.3,0,12091,48.734,29.963,14602.2
209935065,0.634769,2.223,89.1486,-0.035516,0.0241392,0.86318,4.12738,1.64074,0.0102173,-0.353543,-0.0856348,-0.619395,3.3,-2.3,0,12091,48.734,29.963,14602.2
210035418,0.634769,2.223,89.1548,-0.0389101,0.0598277,0.860231,4.07473,1.55694,-0.0128856,-0.94459,-0.234451,0.0854959,3.3,-2.3,0,12091,48.734,29.963,14602.2
210135736,0.634769,2.223,89.1589,-0.0408991,0.0695469,0.85879,4.00491,1.45376,-0.0266784,-1.13279,-0.231576,-0.119246,3.3,-2.3,0,12091,48.734,29.963,14602.2
210236112,0.634769,2.223,89.1584,-0.0417816,0.0622471,0.85846,3.92229,1.34628,-0.0365888,-1.20787,-0.176608,-0.414775,3.3,-2.3,0,12091,48.753,27.116,13219.9
210336431,0.634769,2.223,89.1504,-0.0427194,0.0440047,0.858595,3.84876,1.24398,-0.0507387,-1.06257,-0.196379,-0.00626076,3.3,-2.3,0,12091,48.753,27.116,13219.9
210436794,0.63477,2.223,89.1412,-0.0422765,0.0229539,0.858851,3.78924,1.14919,-0.0521809,-0.907785,-0.226368,-0.00748197,3.3,-2.3,0,12091,48.753,27.116,13219.9
210537198,0.63477,2.223,89.1312,-0.0423205,-0.00273127,0.859966,3.73734,1.07573,-0.06437,-0.624264,-0.166951,-0.0510999,3.3,-2.3,0,12091,48.753,27.116,13219.9
210637604,0.63477,2.223,89.1217,-0.0425329,-0.0219927,0.861229,3.70702,1.02592,-0.0765636,-0.365518,-0.178028,-0.125475,-3.3,-5,0,12091,48.753,27.116,13219.9
210737984,0.63477,2.223,89.1156,-0.0444863,-0.0199242,0.859674,3.6935,0.977108,-0.0591468,-0.0240463,-0.155249,0.656091,-3.3,-5,0,12091,48.753,27.116,13219.9
210838296,0.63477,2.223,89.122,-0.0890724,0.148211,0.854308,3.66682,0.900971,0.013003,-0.987398,-0.408226,0.25898,-3.3,-5,0,12091,48.753,27.116,13219.9
210938669,0.63477,2.223,89.1248,-0.135698,0.294722,0.839008,3.52787,0.616922,-0.0375018,-2.96748,-0.87369,0.257122,-3.3,-5,0,12091,48.753,27.116,13219.9
211039022,0.63477,2.223,89.1278,-0.169557,0.390393,0.822872,3.34617,0.211662,-0.0677159,-3.82282,-1.18409,1.7529,-3.3,-5,0,12091,48.753,27.116,13219.9
211139392,0.63477,2.223,89.144,-0.191958,0.434553,0.811281,3.12568,-0.284208,-0.0736278,-4.44184,-1.42254,2.27021,-3.3,-5,0,12091,48.585,30.671,14901.5
211239746,0.63477,2.223,89.1538,-0.203561,0.449828,0.804848,2.89781,-0.796268,-0.080011,-4.57323,-1.43481,2.3983,-3.3,-5,0,12091,48.585,30.671,14901.5
211340466,0.63477,2.223,89.1277,-0.209045,0.445186,0.803028,2.67436,-1.31121,-0.0986705,-4.58305,-1.4985,2.25494,-3.3,-5,0,12091,48.585,30.671,14901.5
211440792,0.63477,2.223,89.1038,-0.216492,0.431436,0.802855,2.46926,-1.82304,-0.107583,-4.36894,-1.53479,2.64136,-3.3,-5,0,12091,48.585,30.671,14901.5
211541200,0.63477,2.223,89.1042,-0.224443,0.414813,0.804674,2.27881,-2.33156,-0.0941835,-4.18067,-1.61031,2.57385,-3.3,-5,0,12091,48.585,30.671,14901.5
211643226,0.63477,2.223,89.1002,-0.233828,0.389475,0.808418,2.12432,-2.80244,-0.0904386,-3.77085,-1.66005,1.97209,-0.7,-3.6,0,12091,48.585,30.671,14901.5
211743597,0.63477,2.223,89.0745,-0.217587,0.333125,0.820941,1.99885,-3.27291,-0.0757632,-3.85657,-1.88154,1.97185,-0.7,-3.6,0,12091,48.585,30.671,14901.5
211843967,0.63477,2.223,89.0634,-0.115754,0.109172,0.85109,1.89755,-3.6552,-0.0168632,-2.6499,-1.11044,2.22497,-0.7,-3.6,0,12091,48.585,30.671,14901.5
211944351,0.63477,2.223,89.0801,-0.0342412,-0.0561942,0.859689,1.89925,-3.71138,0.0221787,-0.0779723,-0.285625,-0.496583,-0.7,-3.6,0,12091,48.585,30.671,14901.5
212044714,0.63477,2.223,89.0839,0.00286081,-0.139133,0.861214,1.94782,-3.61454,-0.0253548,1.28182,0.352485,-0.0870663,-0.7,-3.6,0,12091,48.585,30.671,14901.5
212145081,0.63477,2.223,89.0738,0.0145244,-0.162202,0.86204,2.02378,-3.45431,-0.0296695,1.78369,0.478806,0.320428,-0.7,-3.6,0,12091,48.585,30.671,14901.5
212245433,0.63477,2.223,89.0639,0.0105698,-0.144664,0.863597,2.10228,-3.28087,-0.0469696,1.80355,0.561142,0.0666192,-0.7,-3.6,0,12091,48.81,23.56,11499.6
212345785,0.63477,2.223,89.0588,-0.00196561,-0.10946,0.864287,2.16051,-3.14939,-0.0333276,1.33446,0.393533,0.324995,-0.7,-3.6,0,12091,48.81,23.56,11499.6
212446155,0.63477,2.223,89.0558,-0.0138721,-0.0796432,0.864506,2.20761,-3.04381,-0.0322217,1.03003,0.307017,-0.0357557,-0.7,-3.6,0,12091,48.81,23.56,11499.6
212547440,0.63477,2.223,89.0538,-0.0227668,-0.0565654,0.863855,2.23929,-2.96826,-0.0391918,0.711406,0.262534,-0.102705,-0.7,-3.6,0,12091,48.81,23.56,11499.6
212652190,0.63477,2.223,89.0497,-0.0306098,-0.0358591,0.86334,2.27209,-2.89811,-0.0328326,0.592237,0.167375,0.173971,1.3,3.4,0,12091,48.81,23.56,11499.6
212752562,0.63477,2.223,89.0507,-0.0252738,-0.0213996,0.861419,2.29054,-2.86279,-0.0334441,0.275797,0.0625243,0.124708,1.3,3.4,0,12091,48.81,23.56,11499.6
212852980,0.63477,2.223,89.0555,0.139889,-0.0529774,0.856708,2.29373,-2.82458,0.0130154,0.242167,0.466897,0.555108,1.3,3.4,0,12091,48.81,23.56,11499.6
212953345,0.63477,2.223,89.0579,0.30197,-0.0938146,0.845917,2.16285,-2.59099,-0.00395029,0.864741,2.70184,0.030278,1.3,3.4,0,12091,48.81,23.56,11499.6
213053703,0.63477,2.223,89.0564,0.400556,-0.11911,0.835381,1.95802,-2.24945,-0.061301,1.10572,3.61989,1.37056,1.3,3.4,0,12091,48.81,23.56,11499.6
213154098,0.634771,2.223,89.056,0.449492,-0.128242,0.830485,1.67854,-1.8098,-0.0553618,1.21432,4.38622,2.33733,1.3,3.4,0,12091,48.81,23.56,11499.6
213254477,0.634771,2.223,89.0548,0.461134,-0.128773,0.830215,1.37116,-1.3324,-0.0529782,1.25472,4.67153,2.70861,1.3,3.4,0,12091,48.812,25.786,12586.7
213354834,0.634771,2.223,89.0433,0.457248,-0.126611,0.831512,1.06987,-0.863175,-0.0459227,1.29672,4.6126,2.42245,1.3,3.4,0,12091,48.812,25.786,12586.7
213455190,0.634771,2.223,89.0343,0.448679,-0.123067,0.833905,0.770096,-0.401389,-0.0401491,1.34529,4.52897,2.51004,1.3,3.4,0,12091,48.812,25.786,12586.7
213555520,0.634771,2.223,89.0397,0.438961,-0.119032,0.836018,0.469373,0.0470692,-0.0339883,1.22942,4.49091,2.27218,1.3,3.4,0,12091,48.812,25.786,12586.7
213655979,0.634771,2.223,89.0377,0.427105,-0.114675,0.837767,0.184443,0.47367,-0.0251878,1.17455,4.20319,2.16211,1.4,2.7,0,12091,48.812,25.786,12586.7
213756376,0.634771,2.223,89.0324,0.414875,-0.119409,0.83611,-0.0875078,0.885387,-0.0225971,1.14425,4.16564,1.85786,1.4,2.7,0,12091,48.812,25.786,12586.7
213856692,0.634771,2.223,89.0323,0.38192,-0.136478,0.834409,-0.353582,1.28737,-0.0275763,1.23951,3.91314,2.02152,1.4,2.7,0,12091,48.812,25.786,12586.7
213957060,0.634771,2.223,89.0432,0.330744,-0.129496,0.839326,-0.56451,1.67775,-0.00495801,1.33572,3.51612,1.59662,1.4,2.7,0,12091,48.812,25.786,12586.7
214057440,0.634771,2.223,89.0527,0.274521,-0.117805,0.843142,-0.730931,2.00311,-0.00537873,1.32053,3.12534,0.507466,1.4,2.7,0,12091,48.812,25.786,12586.7
214157797,0.63477,2.223,89.0513,0.221068,-0.100669,0.847251,-0.859412,2.26231,-0.00395349,1.00455,2.328,0.84126,1.4,2.7,0,12091,48.812,25.786,12586.7
214258154,0.63477,2.223,89.0581,0.173359,-0.0836401,0.851121,-0.959185,2.47358,0.00721502,0.87059,1.90184,0.366315,1.4,2.7,0,12091,48.623,28.687,13948.5
214358519,0.63477,2.223,89.0729,0.13604,-0.0683163,0.854306,-1.02942,2.6255,-0.000799244,0.656311,1.36231,0.132729,1.4,2.7,0,12091,48.623,28.687,13948.5
214458849,0.63477,2.223,89.0852,0.10786,-0.0569568,0.856335,-1.09226,2.73324,0.000226656,0.339606,1.07485,-0.0810736,1.4,2.7,0,12091,48.623,28.687,13948.5
214559182,0.63477,2.223,89.0998,0.0855234,-0.0489477,0.858276,-1.13735,2.80676,-0.00786833,0.287931,0.745878,-0.223517,1.4,2.7,0,12091,48.623,28.687,13948.5
214659607,0.63477,2.223,89.1043,0.0702898,-0.0415418,0.858936,-1.16222,2.86505,-0.0144557,0.289935,0.586411,-0.0021548,-2,-0.2,0,12091,48.623,28.687,13948.5
214759934,0.63477,2.223,89.1025,0.0499421,-0.0205536,0.858271,-1.18362,2.91149,-0.0210524,0.323954,0.413939,0.296215,-2,-0.2,0,12091,48.623,28.687,13948.5
214860335,0.63477,2.223,89.1104,-0.0803937,0.13831,0.852396,-1.20313,2.87439,0.0410557,-0.746813,-0.286982,0.39081,-2,-0.2,0,12091,48.623,28.687,13948.5
214960691,0.63477,2.223,89.1148,-0.207479,0.257103,0.833587,-1.22483,2.5587,0.0133861,-2.50116,-1.90106,0.301042,-2,-0.2,0,12091,48.623,28.687,13948.5
215061020,0.63477,2.223,89.1131,-0.287371,0.324148,0.817016,-1.22555,2.12095,-0.0384266,-3.09129,-2.5428,1.84504,-2,-0.2,0,12091,48.623,28.687,13948.5
215161297,0.63477,2.223,89.1201,-0.333849,0.359225,0.806587,-1.21233,1.57525,-0.0313262,-3.52541,-3.0965,2.37668,-2,-0.2,0,12091,48.623,28.687,13948.5
215261670,0.63477,2.223,89.1204,-0.351508,0.376281,0.804012,-1.19429,0.999054,-0.0569499,-3.64063,-3.18416,2.48358,-2,-0.2,0,12046,48.659,28.308,13774.4
215362038,0.63477,2.223,89.0959,-0.344049,0.372118,0.808532,-1.18348,0.530253,-0.0739784,-3.71456,-3.25923,2.57313,-2,-0.2,0,12046,48.659,28.308,13774.4
215462400,0.63477,2.223,89.0779,-0.292288,0.326145,0.82693,-1.16492,-0.156166,-0.0902397,-3.59894,-3.0663,2.34691,-2,-0.2,0,12046,48.659,28.308,13774.4
215562757,0.63477,2.223,89.0747,-0.221657,0.263739,0.844432,-1.1373,-0.621351,-0.0887223,-2.87544,-2.73685,1.46109,-2,-0.2,0,12046,48.659,28.308,13774.4
215664481,0.63477,2.223,89.0721,-0.146018,0.200443,0.854858,-1.12538,-0.974959,-0.0811438,-2.21244,-1.89181,0.983165,-1.1,-5,0,12046,48.659,28.308,13774.4
215765013,0.63477,2.223,89.0624,-0.104788,0.130142,0.858764,-1.1354,-1.22074,-0.0555354,-1.52602,-1.09137,0.863888,-1.1,-5,0,12046,48.659,28.308,13774.4
215865450,0.63477,2.223,89.0608,-0.207172,0.0359506,0.853048,-1.09609,-1.39877,-0.0135163,-0.647945,-1.35766,0.649337,-1.1,-5,0,12046,48.659,28.308,13774.4
215965902,0.63477,2.223,89.0682,-0.326875,-0.0269403,0.862962,-0.879389,-1.58399,-0.016007,0.281187,-2.66604,0.591684,-1.1,-5,0,12046,48.659,28.308,13774.4
216066372,0.63477,2.223,89.0653,-0.402166,-0.059897,0.874419,-0.544001,-1.8037,-0.0589085,0.65559,-3.5777,1.35205,-1.1,-5,0,12046,48.659,28.308,13774.4
216167409,0.63477,2.223,89.0441,-0.438655,-0.0727062,0.881188,-0.126999,-2.05029,-0.0566267,0.87085,-3.97378,2.2699,-1.1,-5,0,12046,48.659,28.308,13774.4
216267727,0.63477,2.223,89.0294,-0.44641,-0.070025,0.882063,0.31479,-2.30224,-0.0547106,0.91466,-4.23238,2.19485,-1.1,-5,0,12015,48.564,30.104,14619.7
216368098,0.63477,2.223,89.0212,-0.44091,-0.0612063,0.880128,0.737039,-2.55767,-0.0482303,0.721591,-4.09394,2.23992,-1.1,-5,0,12015,48.564,30.104,14619.7
216468413,0.63477,2.223,89.0103,-0.434081,-0.0502505,0.876527,1.1377,-2.80488,-0.0417964,0.673651,-4.03975,1.96595,-1.1,-5,0,12015,48.564,30.104,14619.7
216568785,0.63477,2.223,89.0025,-0.41482,-0.0380823,0.872412,1.51623,-3.0505,-0.0389307,0.54871,-3.89768,1.89687,-1.1,-5,0,12015,48.564,30.104,14619.7
216669193,0.63477,2.223,88.9994,-0.361833,-0.0281174,0.869119,1.85197,-3.29012,-0.0403754,0.268468,-3.42707,1.79861,-0.6,0.5,0,12015,48.564,30.104,14619.7
216769510,0.63477,2.223,89.002,-0.265487,-0.0240677,0.863252,2.14419,-3.4839,0.00816098,0.298251,-3.03006,1.43889,-0.6,0.5,0,12015,48.564,30.104,14619.7
216869878,0.63477,2.223,89.0155,0.033688,-0.0359319,0.858623,2.32129,-3.60034,0.0713528,0.202148,-1.47387,0.404011,-0.6,0.5,0,12015,48.564,30.104,14619.7
216970194,0.63477,2.223,89.0385,0.307483,-0.0481058,0.852037,2.22228,-3.43811,0.0683454,0.522186,2.35652,-0.107311,-0.6,0.5,0,12015,48.564,30.104,14619.7
217070551,0.63477,2.223,89.0589,0.445323,-0.0518641,0.847017,1.95896,-3.11182,-0.00929829,0.628925,4.11238,1.25597,-0.6,0.5,0,12015,48.564,30.104,14619.7
217170900,0.63477,2.223,89.0857,0.507572,-0.0527679,0.844186,1.59154,-2.7003,-0.0370967,0.583963,5.02311,2.27145,-0.6,0.5,0,12015,48.564,30.104,14619.7
217271263,0.63477,2.223,89.0996,0.516721,-0.0502619,0.84402,1.16843,-2.24604,-0.0423645,0.558809,5.30744,2.92993,-0.6,0.5,0,12015,48.564,30.104,14619.7
217371626,0.634771,2.223,89.0884,0.500351,-0.0470748,0.844821,0.754208,-1.79391,-0.039927,0.521603,5.16701,2.83297,-0.6,0.5,0,12015,48.607,27.149,13196.3
217472889,0.634771,2.223,89.0836,0.440745,-0.0404613,0.846863,0.356995,-1.36755,-0.039689,0.477833,4.84091,2.64305,-0.6,0.5,0,12015,48.607,27.149,13196.3
217582079,0.634771,2.223,89.0968,0.347098,-0.0311089,0.850205,0.0123972,-0.994581,-0.0157781,0.425493,4.27837,1.6946,-0.6,0.5,0,12015,48.607,27.149,13196.3
217682474,0.63477,2.223,89.1064,0.25709,-0.0195036,0.854028,-0.244724,-0.715611,-0.00817733,0.395584,3.22454,0.75068,2.2,-1,0,12015,48.607,27.149,13196.3
217782827,0.63477,2.223,89.1071,0.171972,-0.0233,0.853848,-0.473391,-0.488182,-0.00876235,0.0179402,2.11704,0.643247,2.2,-1,0,12015,48.607,27.149,13196.3
217883155,0.63477,2.223,89.1097,0.0284977,-0.156053,0.859278,-0.572813,-0.330937,0.0566573,0.807208,1.11948,0.234752,2.2,-1,0,12015,48.607,27.149,13196.3
217984836,0.63477,2.223,89.1228,-0.103839,-0.287904,0.878549,-0.42818,-0.170331,-0.021158,2.38527,-0.512939,-0.263523,2.2,-1,0,12015,48.607,27.149,13196.3
218086033,0.63477,2.223,89.1198,-0.176803,-0.366876,0.893402,-0.129156,0.00329447,-0.0753065,3.19527,-1.41148,1.12147,2.2,-1,0,12015,48.607,27.149,13196.3
218186384,0.63477,2.223,89.0951,-0.205401,-0.400214,0.899408,0.273314,0.201228,-0.0925379,3.74754,-1.85853,1.88465,2.2,-1,0,12015,48.607,27.149,13196.3
218286740,0.63477,2.223,89.0657,-0.19444,-0.374169,0.891459,0.716009,0.405178,-0.088148,3.81856,-1.90256,2.3616,2.2,-1,0,12015,48.607,27.149,13196.3
218387095,0.63477,2.223,89.0413,-0.162432,-0.320322,0.88046,1.10389,0.56321,-0.063299,3.30019,-1.82066,1.62181,2.2,-1,0,12015,48.544,28.838,13999.1
218487452,0.63477,2.223,89.0278,-0.125053,-0.262326,0.871884,1.41079,0.689214,-0.0505668,2.62836,-1.41016,1.29896,2.2,-1,0,12015,48.544,28.838,13999.1
218587840,0.63477,2.223,89.0296,-0.0929387,-0.208529,0.866714,1.64407,0.790587,-0.0418925,2.04085,-1.04654,0.737164,2.2,-1,0,12015,48.544,28.838,13999.1
218688293,0.63477,2.223,89.0336,-0.0654456,-0.1634,0.86363,1.82392,0.863496,-0.059599,1.45464,-0.764771,0.779842,0.7,0.3,0,12015,48.544,28.838,13999.1
218788665,0.63477,2.223,89.0498,-0.0299206,-0.105104,0.862217,1.9575,0.92186,0.00241685,1.16037,-0.53621,0.897553,0.7,0.3,0,12015,48.544,28.838,13999.1
218889006,0.634771,2.223,89.0789,0.0880798,0.0504225,0.86198,1.99836,0.948503,0.0653565,-0.0756986,0.208317,-0.134421,0.7,0.3,0,12015,48.544,28.838,13999.1
218990870,0.634771,2.223,89.112,0.1784,0.140416,0.87359,1.81851,0.926088,0.0048792,-1.48225,1.46892,-0.396203,0.7,0.3,0,12015,48.544,28.838,13999.1
219091208,0.634771,2.223,89.1474,0.220176,0.178792,0.881645,1.5483,0.904261,-0.0146734,-1.98647,2.01138,0.440392,0.7,0.3,0,12015,48.544,28.838,13999.1
219191561,0.634771,2.223,89.1961,0.214144,0.1725,0.881211,1.23767,0.886053,-0.0192453,-2.04839,2.22189,0.587546,0.7,0.3,0,12015,48.544,28.838,13999.1
219291909,0.634771,2.223,89.2267,0.180848,0.141929,0.876339,0.946437,0.856148,-0.0088878,-1.9674,1.98013,0.181769,0.7,0.3,0,12015,48.544,28.838,13999.1
219392318,0.634771,2.223,89.2266,0.142887,0.105354,0.870986,0.73368,0.837445,-0.0358991,-1.39942,1.52216,-0.127289,0.7,0.3,0,12001,48.446,30.592,14820.6
219492659,0.634771,2.223,89.2225,0.113166,0.0752288,0.867052,0.561426,0.821306,-0.0649813,-1.1319,1.23061,-0.19276,0.7,0.3,0,12001,48.446,30.592,14820.6
219593001,0.634771,2.223,89.2299,0.0855386,0.050547,0.864497,0.421749,0.803646,-0.0688059,-0.851993,0.943326,0.012843,0.7,0.3,0,12001,48.446,30.592,14820.6
219693412,0.634771,2.223,89.2261,0.063786,0.0233664,0.86237,0.310934,0.792774,-0.0900002,-0.607077,0.702988,-0.30859,0.4,3.3,0,12001,48.446,30.592,14820.6
219795775,0.634771,2.223,89.2001,0.0750296,0.00890372,0.859462,0.236889,0.789045,-0.0980498,-0.285208,0.392702,0.284411,0.4,3.3,0,12001,48.446,30.592,14820.6
219899205,0.634771,2.223,89.1778,0.196439,0.0108037,0.861477,0.148759,0.814624,-0.0880428,-0.177026,1.01068,0.0288794,0.4,3.3,0,12001,48.446,30.592,14820.6
219999556,0.634771,2.223,89.1726,0.315558,0.0185806,0.863717,-0.0530229,0.943689,-0.134869,-0.20092,2.40166,0.361096,0.4,3.3,0,12001,48.446,30.592,14820.6
220099915,0.634771,2.223,89.155,0.391912,0.0280253,0.867642,-0.361082,1.13506,-0.149628,-0.429217,3.30036,1.52149,0.4,3.3,0,12001,48.446,30.592,14820.6
220200361,0.634771,2.223,89.1307,0.42916,0.0270119,0.867917,-0.73856,1.37216,-0.131946,-0.426996,3.81071,2.11659,0.4,3.3,0,12001,48.446,30.592,14820.6
220300738,0.634771,2.223,89.1106,0.414042,0.0216047,0.86699,-1.12321,1.63846,-0.127487,-0.335113,4.06247,2.06254,0.4,3.3,0,12001,48.446,30.592,14820.6
220401100,0.634771,2.223,89.0978,0.354616,0.0144574,0.865432,-1.47969,1.88526,-0.084028,-0.30561,3.67099,2.04292,0.4,3.3,0,12001,48.462,29.956,14517.3
220501441,0.634771,2.223,89.0938,0.289203,0.00609566,0.863958,-1.7578,2.07462,-0.049807,-0.257724,2.93305,1.22113,0.4,3.3,0,12001,48.462,29.956,14517.3
220602919,0.634771,2.223,89.1039,0.227845,-0.00453381,0.861646,-1.97286,2.22428,-0.0235465,-0.200416,2.31648,0.730929,0.4,3.3,0,12001,48.462,29.956,14517.3
220707737,0.634771,2.223,89.1157,0.177064,-0.0143522,0.85933,-2.15373,2.35774,0.0030561,-0.0195063,1.61392,0.236442,-1.5,3.1,0,12001,48.462,29.956,14517.3
220808116,0.63477,2.223,89.1234,0.135768,-0.000609368,0.858552,-2.25058,2.45117,0.000956554,0.206152,1.16821,0.616423,-1.5,3.1,0,12001,48.462,29.956,14517.3
220908448,0.63477,2.223,89.1365,0.0773716,0.142561,0.860024,-2.35126,2.48252,0.0683092,-0.802123,0.729643,0.228337,-1.5,3.1,0,12001,48.462,29.956,14517.3
221008822,0.63477,2.223,89.1619,0.0436848,0.244935,0.863504,-2.50375,2.34225,0.0063805,-2.22029,0.145284,-0.410695,-1.5,3.1,0,12001,48.462,29.956,14517.3
221109180,0.63477,2.223,89.1789,0.0358465,0.278124,0.866561,-2.69397,2.13437,-0.0355712,-2.73093,-0.00133079,0.496964,-1.5,3.1,0,12001,48.462,29.956,14517.3
221209571,0.63477,2.223,89.1881,0.0330387,0.266296,0.86905,-2.89073,1.92307,-0.0502064,-2.75653,0.100996,0.33925,-1.5,3.1,0,12001,48.462,29.956,14517.3
221309901,0.63477,2.223,89.1978,0.031316,0.23183,0.869771,-3.06218,1.73151,-0.072138,-2.4241,0.0831812,0.313975,-1.5,3.1,0,12001,48.462,29.956,14517.3
221410272,0.63477,2.223,89.202,0.0306074,0.19003,0.868966,-3.19083,1.57274,-0.0741577,-1.90951,-0.0241877,0.217864,-1.5,3.1,0,12001,48.588,27.028,13132.4
221510641,0.63477,2.223,89.2029,0.0302507,0.156154,0.868539,-3.29113,1.44147,-0.0865853,-1.53475,-0.0732985,0.0254247,-1.5,3.1,0,12001,48.588,27.028,13132.4
221610981,0.63477,2.223,89.1996,0.031395,0.123844,0.867242,-3.37139,1.34077,-0.0857735,-1.14787,-0.0207559,0.161792,-1.5,3.1,0,12001,48.588,27.028,13132.4
221711482,0.63477,2.223,89.1948,0.0367156,0.0990952,0.866609,-3.42757,1.24872,-0.0898017,-0.988679,-0.0771156,0.119269,-3.3,0.9,0,12001,48.588,27.028,13132.4
221811865,0.63477,2.223,89.187,0.0211969,0.0935924,0.862785,-3.47995,1.19376,-0.0800826,-0.625151,0.183761,0.420853,-3.3,0.9,0,12001,48.588,27.028,13132.4
221912290,0.63477,2.223,89.1744,-0.106674,0.175376,0.847849,-3.50863,1.09992,-0.0432229,-1.00518,-0.489904,0.379804,-3.3,0.9,0,12001,48.588,27.028,13132.4
222012603,0.63477,2.223,89.171,-0.233914,0.24828,0.830518,-3.48016,0.817474,-0.078476,-1.89302,-2.05873,0.506584,-3.3,0.9,0,12001,48.588,27.028,13132.4
222112967,0.63477,2.223,89.1686,-0.311047,0.294506,0.81953,-3.41141,0.413422,-0.118475,-2.37582,-2.91476,1.54046,-3.3,0.9,0,12001,48.588,27.028,13132.4
222213277,0.63477,2.223,89.1597,-0.322737,0.292926,0.826767,-3.32181,-0.0763493,-0.123102,-2.72717,-3.32379,2.13662,-3.3,0.9,0,12001,48.588,27.028,13132.4
222313616,0.63477,2.223,89.1504,-0.268839,0.242313,0.847054,-3.22344,-0.541005,-0.084185,-2.41662,-3.1137,2.04306,-3.3,0.9,0,12001,48.588,27.028,13132.4
222417456,0.63477,2.223,89.1388,-0.205116,0.190677,0.859762,-3.14346,-0.873332,-0.0999826,-1.82691,-2.47066,0.760443,-3.3,0.9,0,12001,48.588,27.028,13132.4
222517818,0.63477,2.223,89.1319,-0.146792,0.148782,0.864453,-3.0751,-1.12935,-0.077939,-1.30505,-1.90716,0.93711,-3.3,0.9,0,12001,48.521,29.915,14515.1
222618220,0.63477,2.223,89.1308,-0.097081,0.124341,0.864935,-3.01172,-1.31319,-0.0552593,-0.82097,-1.41356,0.553994,-3.3,0.9,0,12001,48.521,29.915,14515.1
222718641,0.63477,2.223,89.1358,-0.0570729,0.113705,0.863695,-2.98493,-1.45601,-0.0458314,-0.847142,-0.916674,0.134118,-2.7,1.5,0,12001,48.521,29.915,14515.1
222819005,0.634769,2.223,89.1358,-0.0187426,0.0868033,0.865141,-2.9824,-1.57577,-0.0549447,-0.871242,-0.695893,0.531142,-2.7,1.5,0,12001,48.521,29.915,14515.1
222919366,0.634769,2.223,89.1377,0.0342486,0.0322601,0.866038,-2.98061,-1.62735,-0.0162704,-0.215815,-0.196821,0.0550711,-2.7,1.5,0,12001,48.521,29.915,14515.1
223019665,0.634769,2.223,89.1497,0.0786887,-0.00469113,0.862413,-2.97865,-1.59493,-0.0447939,0.316552,0.375808,-0.195959,-2.7,1.5,0,12001,48.521,29.915,14515.1
223120059,0.634769,2.223,89.1604,0.0952097,-0.0188297,0.859461,-2.99093,-1.50499,-0.047554,0.626581,0.728714,0.204195,-2.7,1.5,0,12001,48.521,29.915,14515.1
223220413,0.634769,2.223,89.1609,0.0928984,-0.0111561,0.858762,-2.99799,-1.41377,-0.0459486,0.600787,0.706626,-0.0663908,-2.7,1.5,0,12001,48.521,29.915,14515.1
223320768,0.634769,2.223,89.1577,0.0819398,0.00363778,0.858583,-3.01119,-1.3339,-0.056122,0.471317,0.605965,0.0586994,-2.7,1.5,0,12001,48.521,29.915,14515.1
223421104,0.634769,2.223,89.1588,0.0687343,0.0183705,0.859162,-3.03342,-1.27457,-0.0682163,0.278572,0.576776,-0.164985,-2.7,1.5,0,12001,48.521,29.915,14515.1
223521451,0.634769,2.223,89.1575,0.0543054,0.0242802,0.859916,-3.04521,-1.22911,-0.0602829,0.233889,0.366562,0.148026,-2.7,1.5,0,12001,48.649,24.027,11688.9
223621759,0.634769,2.223,89.155,0.0443614,0.0263623,0.860438,-3.05095,-1.19678,-0.0584517,0.101181,0.22573,0.0395771,-2.7,1.5,0,12001,48.649,24.027,11688.9
223722123,0.634769,2.223,89.1544,0.0389657,0.0228667,0.860308,-3.05801,-1.17659,-0.0604873,0.0669064,0.111922,-0.0549859,1.7,3.3,0,12001,48.649,24.027,11688.9
223822552,0.634769,2.223,89.1525,0.0384205,0.012163,0.861645,-3.05769,-1.14522,-0.0581244,0.226436,0.149367,0.251323,1.7,3.3,0,12001,48.649,24.027,11688.9
223922949,0.634769,2.223,89.1512,0.0787153,-0.126465,0.859862,-3.05316,-1.10825,-0.0189958,0.579959,0.207925,0.251888,1.7,3.3,0,12001,48.649,24.027,11688.9
224023322,0.634769,2.223,89.1622,0.129519,-0.263988,0.84718,-2.97361,-0.891732,-0.0477601,2.3701,0.859803,-0.240262,1.7,3.3,0,12001,48.649,24.027,11688.9
224123680,0.634769,2.223,89.1727,0.16935,-0.353978,0.832314,-2.84309,-0.553455,-0.107058,3.32245,1.1331,1.20446,1.7,3.3,0,12001,48.649,24.027,11688.9
224224060,0.634769,2.223,89.1658,0.186654,-0.394701,0.822352,-2.68864,-0.126978,-0.120446,3.94144,1.42963,1.59724,1.7,3.3,0,12001,48.649,24.027,11688.9
224324420,0.634769,2.223,89.1512,0.195978,-0.40116,0.818573,-2.50346,0.326091,-0.128969,4.08833,1.26294,2.36632,1.7,3.3,0,12001,48.649,24.027,11688.9
224424767,0.634769,2.223,89.1302,0.207239,-0.389974,0.818772,-2.33673,0.791234,-0.11577,4.09534,1.53748,2.14409,1.7,3.3,0,12001,48.649,24.027,11688.9
224525116,0.634769,2.223,89.1137,0.219806,-0.377139,0.81921,-2.19507,1.2393,-0.104118,3.84423,1.53382,2.0201,1.7,3.3,0,12001,48.661,24.027,11691.8
224625467,0.634769,2.223,89.0998,0.222982,-0.343977,0.823664,-2.06898,1.69232,-0.0932254,3.70685,1.70794,2.12577,1.7,3.3,0,12001,48.661,24.027,11691.8
224725855,0.634769,2.223,89.0945,0.205124,-0.288678,0.831997,-1.97532,2.11103,-0.0643151,3.27315,1.68356,1.59194,4.2,-0.1,0,12001,48.661,24.027,11691.8
224826222,0.634769,2.223,89.1009,0.162618,-0.237751,0.844094,-1.91135,2.4655,-0.0391925,2.67639,1.53587,1.33727,4.2,-0.1,0,12001,48.661,24.027,11691.8
224926553,0.634769,2.223,89.1217,-0.0190571,-0.230344,0.872994,-1.85686,2.75504,0.0646512,2.29795,0.949024,0.79476,4.2,-0.1,0,12001,48.661,24.027,11691.8
225026919,0.634769,2.223,89.1585,-0.172648,-0.242876,0.889045,-1.63264,2.8641,0.0404828,2.31925,-1.28827,-0.185143,4.2,-0.1,0,12001,48.661,24.027,11691.8
225127244,0.634769,2.223,89.1881,-0.253233,-0.253809,0.894,-1.31553,2.90225,-0.0196084,2.25202,-2.2274,0.546342,4.2,-0.1,0,12001,48.661,24.027,11691.8
225227497,0.634769,2.223,89.204,-0.283496,-0.25669,0.891682,-0.944649,2.92701,-0.0579085,2.52035,-2.69272,0.875847,4.2,-0.1,0,12001,48.661,24.027,11691.8
225327775,0.634769,2.223,89.2088,-0.29138,-0.256855,0.888064,-0.478104,2.93012,-0.0834971,2.40215,-2.8197,1.35745,4.2,-0.1,0,12001,48.661,24.027,11691.8
225428137,0.634768,2.223,89.2011,-0.287756,-0.251318,0.882952,-0.177194,2.93137,-0.0946574,2.34429,-2.73663,1.1215,4.2,-0.1,0,12001,48.661,24.027,11691.8
225528462,0.634768,2.223,89.1928,-0.277198,-0.251885,0.879382,0.27407,2.90582,-0.0932492,2.17445,-2.73757,1.34452,4.2,-0.1,0,12001,48.823,23.253,11352.8
225628804,0.634769,2.223,89.1794,-0.256601,-0.263911,0.880273,0.63445,2.90227,-0.104093,2.25648,-2.53816,1.19127,4.2,-0.1,0,12001,48.823,23.253,11352.8
225729184,0.634769,2.223,89.1585,-0.223034,-0.260714,0.878228,0.998716,2.92854,-0.108685,2.474,-2.34892,1.18876,2.6,2.5,0,12001,48.823,23.253,11352.8
225829550,0.634769,2.223,89.1403,-0.160096,-0.229261,0.870342,1.3261,2.96105,-0.0881869,2.18464,-1.98821,1.52222,2.6,2.5,0,12001,48.823,23.253,11352.8
225929911,0.634769,2.223,89.1238,0.0748461,-0.089567,0.844999,1.53566,3.02243,-0.00847959,1.5327,-0.770256,0.934691,2.6,2.5,0,12001,48.823,23.253,11352.8
226030280,0.634769,2.223,89.1176,0.272036,0.0457683,0.860602,1.38142,3.1239,-0.0180228,-0.318268,2.27761,-0.724571,2.6,2.5,0,12001,48.823,23.253,11352.8
226131072,0.634769,2.223,89.1144,0.351916,0.0979124,0.87828,1.06168,3.23305,-0.126076,-1.18586,3.20946,0.685198,2.6,2.5,0,12001,48.823,23.253,11352.8
226231485,0.634769,2.223,89.1174,0.346171,0.0945468,0.881332,0.681018,3.36057,-0.129704,-1.33629,3.43464,1.50548,2.6,2.5,0,12001,48.823,23.253,11352.8
226331826,0.634769,2.223,89.1254,0.287669,0.0643358,0.874599,0.355478,3.46696,-0.11146,-1.11348,2.9545,0.941053,2.6,2.5,0,12001,48.823,23.253,11352.8
226432184,0.634769,2.223,89.1436,0.224481,0.0316882,0.866772,0.123868,3.54728,-0.09256,-0.760927,2.18774,0.491783,2.6,2.5,0,12001,48.823,23.253,11352.8
226532484,0.634769,2.223,89.1584,0.168451,0.00115313,0.861458,-0.0513085,3.60294,-0.0789985,-0.400381,1.59259,0.219945,2.6,2.5,0,12001,48.823,23.418,11433.4
226632818,0.634769,2.223,89.1586,0.128811,-0.0214417,0.858791,-0.164268,3.6766,-0.0602204,0.0504284,1.23757,0.184064,2.6,2.5,0,12001,48.823,23.418,11433.4
226733291,0.634769,2.223,89.1588,0.0975343,-0.0367182,0.856986,-0.220636,3.73379,-0.0591955,0.268283,0.720616,0.264238,0,3.6,0,12001,48.823,23.418,11433.4
226833565,0.634769,2.223,89.1605,0.0841581,-0.0187802,0.858557,-0.255595,3.78887,-0.0419517,0.435157,0.448442,0.445397,0,3.6,0,12001,48.823,23.418,11433.4
226934550,0.634769,2.223,89.1562,0.115253,0.131312,0.863119,-0.309839,3.80658,0.00314368,-0.468366,0.500818,-0.189579,0,3.6,0,12001,48.823,23.418,11433.4
227035798,0.634769,2.223,89.1501,0.164216,0.270209,0.879242,-0.517063,3.70684,-0.0698821,-2.14417,0.921957,-0.00664222,0,3.6,0,12001,48.823,23.418,11433.4
227136245,0.634769,2.223,89.1415,0.19718,0.340716,0.893527,-0.847493,3.54461,-0.0978782,-3.00612,1.22656,1.54599,0,3.6,0,12001,48.823,23.418,11433.4
227240114,0.634769,2.223,89.1292,0.201274,0.339808,0.895603,-1.24603,3.35061,-0.097702,-3.51567,1.4975,1.74606,0,3.6,0,12001,48.823,23.418,11433.4
227340485,0.634769,2.223,89.1207,0.18009,0.294015,0.888414,-1.61175,3.18934,-0.0799581,-3.11591,1.47977,1.37944,0,3.6,0,12001,48.823,23.418,11433.4
227442054,0.634769,2.223,89.1158,0.155404,0.238417,0.8792,-1.90644,3.05946,-0.062447,-2.52441,1.19663,1.10927,0,3.6,0,12001,48.823,23.418,11433.4
227546823,0.634768,2.223,89.1142,0.134957,0.189301,0.87279,-2.13367,2.95752,-0.0520206,-2.00821,0.927649,0.666006,0,3.6,0,12001,48.823,23.418,11433.4
227647191,0.634768,2.223,89.1194,0.121674,0.151289,0.868052,-2.32034,2.88181,-0.0485653,-1.5709,0.772938,0.550388,0,3.6,0,12001,48.823,23.418,11433.4
227747539,0.634768,2.223,89.1221,0.108002,0.121746,0.864748,-2.47403,2.83324,-0.0400815,-1.21008,0.739865,0.355975,0.6,-3.8,0,12001,48.823,23.418,11433.4
227847795,0.634768,2.223,89.123,0.0751069,0.0958944,0.863967,-2.59803,2.79141,-0.0243518,-0.930748,0.562841,0.47967,0.6,-3.8,0,12001,48.823,23.418,11433.4
227948069,0.634768,2.223,89.1244,-0.126191,0.0398832,0.85451,-2.67621,2.74769,0.0347667,-0.682673,-0.0083652,0.574299,0.6,-3.8,0,12001,48.823,23.418,11433.4
228048348,0.634768,2.223,89.1244,-0.310498,0.00466939,0.857357,-2.50326,2.58603,0.0641593,0.0129889,-2.65326,0.271163,0.6,-3.8,0,12001,48.823,23.418,11433.4
228148639,0.634768,2.223,89.1316,-0.415164,0.00154485,0.858769,-2.21623,2.36139,-0.0419314,0.228253,-3.81362,0.548527,0.6,-3.8,0,11956,48.728,25.537,12443.7
228249012,0.634768,2.223,89.1114,-0.464862,0.00735869,0.858124,-1.85107,2.0487,-0.0872777,0.0600613,-4.54971,1.73248,0.6,-3.8,0,11956,48.728,25.537,12443.7
228349379,0.634768,2.223,89.0856,-0.479889,0.0138885,0.855898,-1.46314,1.69571,-0.125092,-0.0487001,-4.6569,2.31789,0.6,-3.8,0,11956,48.728,25.537,12443.7
228450510,0.634768,2.223,89.0496,-0.490162,0.0178479,0.853398,-1.07175,1.34165,-0.143061,-0.0303133,-4.60078,2.464,0.6,-3.8,0,11956,48.728,25.537,12443.7
228551953,0.634768,2.223,89.0083,-0.490663,0.0112789,0.854759,-0.58805,0.87519,-0.148445,-0.215408,-4.83399,2.74611,0.6,-3.8,0,11956,48.728,25.537,12443.7
228652387,0.634768,2.223,88.9695,-0.477527,0.000573784,0.857617,-0.15765,0.502707,-0.135018,0.00269783,-4.72884,2.89949,0.6,-3.8,0,11956,48.728,25.537,12443.7
228754161,0.634768,2.223,88.9469,-0.451104,-0.00795338,0.860797,0.278205,0.142646,-0.104541,0.0945243,-4.54385,2.99105,1.9,-3.1,0,11956,48.728,25.537,12443.7
228854583,0.634768,2.223,88.9315,-0.415494,-0.0318938,0.866983,0.677236,-0.187548,-0.0630509,-0.0702438,-4.31488,2.42963,1.9,-3.1,0,11956,48.728,25.537,12443.7
228956512,0.634768,2.223,88.9303,-0.365275,-0.123761,0.878114,1.06958,-0.444183,-0.00873004,0.637814,-3.86939,2.10332,1.9,-3.1,0,11956,48.728,25.537,12443.7
229056866,0.634768,2.223,88.9386,-0.311088,-0.19671,0.890092,1.47192,-0.567535,0.013462,1.62541,-3.28152,1.54916,1.9,-3.1,0,11956,48.646,26.484,12883.4
229157214,0.634768,2.223,88.9614,-0.249213,-0.218367,0.891997,1.86161,-0.591087,0.0369389,2.17722,-2.6201,1.31157,1.9,-3.1,0,11956,48.646,26.484,12883.4
229257606,0.634768,2.223,88.9865,-0.195779,-0.206086,0.888317,2.18487,-0.565958,0.0517281,2.22295,-2.0201,0.696213,1.9,-3.1,0,11956,48.646,26.484,12883.4
229357953,0.634768,2.223,89.0044,-0.152718,-0.178964,0.88283,2.44521,-0.522002,0.0639127,1.85652,-1.47,0.60834,1.9,-3.1,0,11956,48.646,26.484,12883.4
229458326,0.634768,2.223,89.0152,-0.128173,-0.14981,0.877673,2.64687,-0.477433,0.0594274,1.55739,-1.13546,0.362585,1.9,-3.1,0,11956,48.646,26.484,12883.4
229558667,0.634768,2.223,89.0307,-0.113488,-0.119494,0.872922,2.80472,-0.434264,0.0545089,1.24233,-0.863247,0.139618,1.9,-3.1,0,11956,48.646,26.484,12883.4
229658997,0.634768,2.223,89.0385,-0.103128,-0.0919025,0.869079,2.93377,-0.407192,0.0460987,0.937059,-0.761888,0.17287,1.9,-3.1,0,11956,48.646,26.484,12883.4
229759412,0.634769,2.223,89.0425,-0.0958959,-0.069822,0.866102,3.03059,-0.403464,0.0329161,0.635451,-0.801699,-0.169615,0.5,1.5,0,11956,48.646,26.484,12883.4
229859745,0.634769,2.223,89.0442,-0.0587937,-0.043288,0.860139,3.1115,-0.396666,0.025582,0.551534,-0.715686,0.487019,0.5,1.5,0,11956,48.646,26.484,12883.4
229960101,0.634769,2.223,89.0562,0.161428,0.0370851,0.861762,3.13839,-0.381902,0.0815241,0.101817,0.241886,-0.0259082,0.5,1.5,0,11956,48.646,26.484,12883.4
230060450,0.634769,2.223,89.0655,0.351476,0.0961402,0.876849,2.88483,-0.273572,0.00240059,-0.946004,2.83851,-0.22147,0.5,1.5,0,11956,48.646,26.484,12883.4
230160812,0.634769,2.223,89.0612,0.455903,0.129404,0.890868,2.48189,-0.0901586,-0.0745058,-1.19014,3.99447,1.59802,0.5,1.5,0,11956,48.727,25.692,12518.9
230261132,0.634769,2.223,89.0568,0.493638,0.145736,0.89886,1.959,0.139339,-0.0785517,-1.44528,4.56996,2.80928,0.5,1.5,0,11956,48.727,25.692,12518.9
230361486,0.634769,2.223,89.0552,0.493331,0.148083,0.900002,1.406,0.362177,-0.0684021,-1.58824,4.70386,2.88197,0.5,1.5,0,11956,48.727,25.692,12518.9
230461806,0.634769,2.223,89.0522,0.45576,0.132641,0.892505,0.871553,0.577781,-0.0469346,-1.52464,4.4924,2.79128,0.5,1.5,0,11956,48.727,25.692,12518.9
230562161,0.634769,2.223,89.0416,0.379564,0.101561,0.879177,0.401533,0.780863,-0.0155355,-1.2358,3.97995,2.2616,0.5,1.5,0,11956,48.727,25.692,12518.9
230662502,0.634769,2.223,89.0336,0.299283,0.0677604,0.867941,0.0314404,0.943372,0.00795103,-0.971509,3.26478,1.20309,0.5,1.5,0,11956,48.727,25.692,12518.9
230762882,0.634769,2.223,89.0278,0.227912,0.0389367,0.861476,-0.23804,1.08224,0.0140298,-0.547799,2.48225,0.691446,1.7,4.4,0,11956,48.727,25.692,12518.9
230863233,0.634769,2.223,89.024,0.177513,0.0118313,0.858341,-0.422252,1.19231,0.0152264,-0.243778,1.74189,0.421579,1.7,4.4,0,11956,48.727,25.692,12518.9
230963532,0.634769,2.223,89.0205,0.21981,-0.0487735,0.854948,-0.565739,1.29065,0.0129807,0.0854165,1.52604,0.0059458,1.7,4.4,0,11956,48.727,25.692,12518.9
231063892,0.634769,2.223,89.0116,0.302028,-0.102148,0.843594,-0.714911,1.48195,-0.0482774,0.656936,2.19479,0.404596,1.7,4.4,0,11956,48.727,25.692,12518.9
231164312,0.634769,2.223,89.0031,0.361958,-0.135734,0.83258,-0.901402,1.77635,-0.0629743,1.11259,2.93432,1.25482,1.7,4.4,0,11911,48.694,28.939,14091.6
231264605,0.634769,2.223,88.9959,0.390027,-0.146217,0.828051,-1.09763,2.13175,-0.0617022,1.35495,3.19923,1.7067,1.7,4.4,0,11911,48.694,28.939,14091.6
231364886,0.634769,2.223,88.9828,0.402762,-0.145283,0.827179,-1.30106,2.50832,-0.0374193,1.41353,3.44355,1.80554,1.7,4.4,0,11911,48.694,28.939,14091.6
231465131,0.634769,2.223,88.9715,0.380037,-0.133921,0.830196,-1.50512,2.88467,-0.0382966,1.3774,3.36107,1.8953,1.7,4.4,0,11911,48.694,28.939,14091.6
231565385,0.634769,2.223,88.9732,0.332106,-0.114021,0.837096,-1.68526,3.22431,-0.00697028,1.21181,2.95702,1.8714,1.7,4.4,0,11911,48.694,28.939,14091.6
231665758,0.634768,2.223,88.9738,0.281647,-0.0893815,0.844117,-1.83426,3.49017,0.00736921,0.861413,2.57006,0.904053,1.7,4.4,0,11911,48.694,28.939,14091.6
231766152,0.634768,2.223,88.9763,0.234966,-0.0691484,0.849428,-1.95883,3.69892,0.0196736,0.648512,2.07889,0.826946,-1.9,2.7,0,11911,48.694,28.939,14091.6
231866503,0.634768,2.223,88.9829,0.189439,-0.0398708,0.8521,-2.0541,3.85364,0.0172098,0.391862,1.53834,0.282882,-1.9,2.7,0,11911,48.694,28.939,14091.6
231966907,0.634768,2.223,89.004,0.0588105,0.140884,0.854462,-2.12629,3.97726,0.10623,0.159869,1.00799,1.24429,-1.9,2.7,0,11911,48.694,28.939,14091.6
232067276,0.634768,2.223,89.0343,-0.0691531,0.286724,0.844099,-2.23058,3.78177,0.156589,-2.32244,-0.680516,0.341599,-1.9,2.7,0,11911,48.694,28.939,14091.6
232167618,0.634768,2.223,89.0507,-0.136563,0.374944,0.836202,-2.31415,3.44909,0.0910948,-3.28249,-1.61752,0.395749,-1.9,2.7,0,11911,48.613,27.108,13178
232267989,0.634768,2.223,89.0625,-0.145977,0.415879,0.836103,-2.4223,3.03698,0.0340334,-3.67819,-1.66065,1.59476,-1.9,2.7,0,11911,48.613,27.108,13178
232368373,0.634768,2.223,89.0894,-0.136865,0.43023,0.841019,-2.55889,2.59483,-0.00594737,-4.15736,-1.72406,1.26938,-1.9,2.7,0,11911,48.613,27.108,13178
232468712,0.634768,2.223,89.0948,-0.111886,0.407272,0.849888,-2.71179,2.15407,-0.0396681,-3.98234,-1.51101,1.66151,-1.9,2.7,0,11911,48.613,27.108,13178
232569043,0.634768,2.223,89.0642,-0.0838244,0.356157,0.857892,-2.86306,1.74043,-0.0624089,-3.73568,-1.29883,1.52659,-1.9,2.7,0,11911,48.613,27.108,13178
232669416,0.634768,2.223,89.0437,-0.0568403,0.286007,0.863848,-2.99105,1.38984,-0.06136,-3.15941,-1.09035,1.09109,-1.9,2.7,0,11911,48.613,27.108,13178
232769824,0.634768,2.223,89.0411,-0.0326034,0.218117,0.866815,-3.08314,1.12058,-0.0665611,-2.41205,-0.830396,0.65766,-3.6,-4.7,0,11911,48.613,27.108,13178
232870994,0.634768,2.223,89.0368,-0.0274586,0.16519,0.867115,-3.14696,0.883168,-0.035849,-1.48759,-0.589778,1.11873,-3.6,-4.7,0,11911,48.613,27.108,13178
232974861,0.634768,2.223,89.0262,-0.177422,0.126275,0.848274,-3.14305,0.703946,0.0421631,-1.08907,-1.20144,0.710138,-3.6,-4.7,0,11911,48.613,27.108,13178
233075200,0.634768,2.223,89.024,-0.316963,0.106296,0.842991,-2.98523,0.437153,0.0127271,-0.84686,-2.80881,0.637269,-3.6,-4.7,0,11911,48.613,27.108,13178
233175624,0.634768,2.223,89.0204,-0.403816,0.0990585,0.845488,-2.72061,0.0958627,-0.0381919,-0.689283,-3.87404,1.49691,-3.6,-4.7,0,11911,48.589,28.258,13730.3
233275988,0.634768,2.223,89.0121,-0.438834,0.0970462,0.848619,-2.38256,-0.291285,-0.0556151,-0.584149,-4.55312,1.9057,-3.6,-4.7,0,11911,48.589,28.258,13730.3
233376406,0.634768,2.223,88.9953,-0.450426,0.0958953,0.850577,-2.04291,-0.69695,-0.0583408,-0.683045,-4.43283,2.45884,-3.6,-4.7,0,11911,48.589,28.258,13730.3
233476763,0.634768,2.223,88.9807,-0.447954,0.095388,0.852035,-1.68367,-1.09977,-0.047704,-0.581638,-4.61914,2.25441,-3.6,-4.7,0,11911,48.589,28.258,13730.3
233577128,0.634768,2.223,88.9629,-0.437416,0.0992676,0.851558,-1.34012,-1.485,-0.0682889,-0.571699,-4.49852,2.0577,-3.6,-4.7,0,11911,48.589,28.258,13730.3
233677495,0.634768,2.223,88.9526,-0.422926,0.109852,0.849191,-1.00279,-1.86685,-0.0507323,-0.606132,-4.20779,2.46328,-3.6,-4.7,0,11911,48.589,28.258,13730.3
233777871,0.634768,2.223,88.9571,-0.401581,0.124329,0.845204,-0.701766,-2.24494,-0.0228299,-0.794619,-4.05455,1.96769,3.4,2.1,0,11911,48.589,28.258,13730.3
233878241,0.634768,2.223,88.9625,-0.355625,0.114793,0.848524,-0.44317,-2.60512,-0.0202474,-1.0526,-3.78793,1.55918,3.4,2.1,0,11911,48.589,28.258,13730.3
233978581,0.634768,2.223,88.9713,-0.16654,-0.042224,0.861434,-0.198055,-2.93065,0.0847319,-0.640593,-3.2231,1.36258,3.4,2.1,0,11911,48.589,28.258,13730.3
234078929,0.634768,2.223,88.9934,0.100452,-0.247642,0.843017,-0.0380682,-2.88438,0.098062,1.74477,-0.353809,0.0734527,3.4,2.1,0,11911,48.589,28.258,13730.3
234179272,0.634768,2.223,89.0129,0.267524,-0.346314,0.814732,0.0439923,-2.51243,0.0105831,3.51605,2.1091,0.305576,3.4,2.1,0,11880,48.69,25.861,12591.7
234279648,0.634768,2.223,89.0182,0.347535,-0.384616,0.797405,0.0903205,-2.00276,-0.066502,3.77735,2.82231,2.36184,3.4,2.1,0,11880,48.69,25.861,12591.7
234379986,0.634768,2.223,89.0153,0.365997,-0.392166,0.794888,0.102237,-1.38732,-0.0659224,3.92086,3.33257,3.17725,3.4,2.1,0,11880,48.69,25.861,12591.7
234480354,0.634768,2.223,89.0132,0.353247,-0.385837,0.79928,0.117371,-0.760926,-0.0440568,4.06337,3.28995,3.10782,3.4,2.1,0,11880,48.69,25.861,12591.7
234580763,0.634768,2.223,88.996,0.330741,-0.375713,0.804299,0.145435,-0.160007,-0.029831,3.95623,3.06909,2.90987,3.4,2.1,0,11880,48.69,25.861,12591.7
234681090,0.634768,2.223,88.9844,0.313122,-0.367358,0.808563,0.170911,0.410232,-0.0231366,3.70155,2.91688,2.66972,3.4,2.1,0,11880,48.69,25.861,12591.7
234781490,0.634768,2.223,88.9909,0.298078,-0.358662,0.811659,0.199214,0.954839,-0.0176966,3.59327,2.75206,2.48664,-2.8,-4.7,0,11880,48.69,25.861,12591.7
234881832,0.634768,2.223,88.9948,0.258865,-0.32551,0.822038,0.239562,1.47734,0.00141524,3.67032,2.55658,2.16384,-2.8,-4.7,0,11880,48.69,25.861,12591.7
234982191,0.634768,2.223,88.9982,0.0762642,-0.13564,0.862763,0.274521,1.92898,0.0693986,2.8045,2.01893,1.77157,-2.8,-4.7,0,11880,48.69,25.861,12591.7
235082539,0.634768,2.223,89.0164,-0.145285,0.106394,0.855368,0.305193,1.996,0.122435,0.0365782,-0.356801,-0.106061,-2.8,-4.7,0,11880,48.69,25.861,12591.7
235182897,0.634768,2.223,89.0476,-0.277846,0.235052,0.825747,0.337156,1.73851,0.0564207,-2.03832,-2.27004,0.262409,-2.8,-4.7,0,11880,48.69,25.861,12591.7
235283221,0.634768,2.223,89.0764,-0.345741,0.294244,0.804327,0.379802,1.34176,0.0167863,-2.80248,-2.98098,1.53789,-2.8,-4.7,0,11880,48.607,29.14,14164.1
235383558,0.634768,2.223,89.1356,-0.375675,0.31556,0.794335,0.432343,0.869585,-0.00522274,-3.18645,-3.47926,1.65388,-2.8,-4.7,0,11880,48.607,29.14,14164.1
235483901,0.634768,2.223,89.1712,-0.388395,0.314071,0.792121,0.495445,0.376639,-0.0298032,-3.09979,-3.57477,1.90881,-2.8,-4.7,0,11880,48.607,29.14,14164.1
235584305,0.634768,2.223,89.1497,-0.384833,0.302871,0.79486,0.570933,-0.127638,-0.0535057,-2.97854,-3.69279,2.04114,-2.8,-4.7,0,11880,48.607,29.14,14164.1
235684617,0.634768,2.223,89.1325,-0.376328,0.293136,0.797347,0.651382,-0.62264,-0.0634103,-2.86056,-3.50713,2.2245,-2.8,-4.7,0,11880,48.607,29.14,14164.1
235785042,0.634768,2.223,89.1359,-0.365472,0.280684,0.801544,0.738623,-1.11882,-0.0529283,-2.70767,-3.48494,2.25227,-3.1,0.7,0,11880,48.607,29.14,14164.1
235885403,0.634768,2.223,89.1331,-0.323871,0.272764,0.80496,0.833052,-1.59706,-0.0500675,-2.45982,-3.40865,2.08849,-3.1,0.7,0,11880,48.607,29.14,14164.1
235985771,0.634768,2.223,89.116,-0.109396,0.290204,0.838178,0.877107,-2.07538,0.0999083,-2.47403,-2.67822,2.85258,-3.1,0.7,0,11880,48.607,29.14,14164.1
236086101,0.634768,2.223,89.1118,0.167152,0.290125,0.887379,0.682629,-2.33353,0.0710952,-3.4177,0.465471,-0.722965,-3.1,0.7,0,11880,48.607,29.14,14164.1
236186477,0.634768,2.223,89.1019,0.333315,0.274476,0.905269,0.36438,-2.37882,-0.104369,-2.36269,2.46278,0.626709,-3.1,0.7,0,11880,48.607,29.14,14164.1
236286821,0.634768,2.223,89.0844,0.408445,0.265469,0.910154,-0.116145,-2.35239,-0.132694,-2.45382,3.53898,2.3935,-3.1,0.7,0,11880,48.519,31.759,15409.1
236387154,0.634768,2.223,89.0819,0.42105,0.259017,0.907597,-0.653148,-2.27035,-0.125567,-2.38622,4.09796,2.54637,-3.1,0.7,0,11880,48.519,31.759,15409.1
236487521,0.634768,2.223,89.0688,0.369559,0.231892,0.893404,-1.17268,-2.17767,-0.100415,-2.17618,3.92957,2.55381,-3.1,0.7,0,11880,48.519,31.759,15409.1
236587870,0.634768,2.223,89.0295,0.292496,0.196811,0.880087,-1.59843,-2.1019,-0.0586938,-1.82841,3.24384,1.88845,-3.1,0.7,0,11880,48.519,31.759,15409.1
236688286,0.634768,2.223,89.0095,0.221031,0.161635,0.872033,-1.92303,-2.04583,-0.0130442,-1.50455,2.54998,1.23265,-3.1,0.7,0,11880,48.519,31.759,15409.1
236788680,0.634768,2.223,89.0194,0.158328,0.130582,0.867634,-2.15072,-2.00938,-0.00906666,-1.03969,1.75798,0.445193,3.4,-4.8,0,11880,48.519,31.759,15409.1
236889049,0.634768,2.223,89.0254,0.106937,0.100154,0.863502,-2.32052,-1.9798,-0.00342425,-0.816493,1.23861,0.30667,3.4,-4.8,0,11880,48.519,31.759,15409.1
236989898,0.634768,2.223,89.0249,-0.0398496,-0.0739502,0.86007,-2.45372,-1.96664,0.033902,-0.565435,0.773882,0.704446,3.4,-4.8,0,11880,48.519,31.759,15409.1
237091172,0.634768,2.223,89.0366,-0.185445,-0.231242,0.88473,-2.26118,-1.88365,0.0776933,2.10487,-1.32066,-0.0275463,3.4,-4.8,0,11880,48.519,31.759,15409.1
237191542,0.634768,2.223,89.0514,-0.27341,-0.312987,0.908072,-1.90672,-1.79398,-0.00302558,2.96931,-2.27715,0.931185,3.4,-4.8,0,11880,48.519,31.759,15409.1
237291901,0.634768,2.223,89.0456,-0.322078,-0.345214,0.920589,-1.33518,-1.66943,-0.0392378,3.58742,-2.9036,2.04074,3.4,-4.8,0,11880,48.465,30.314,14691.7
237392350,0.634768,2.223,89.0161,-0.336711,-0.352565,0.924415,-0.809248,-1.57643,-0.0661168,3.51417,-2.99552,2.5669,3.4,-4.8,0,11880,48.465,30.314,14691.7
237492682,0.634768,2.223,88.986,-0.330689,-0.348204,0.922592,-0.268184,-1.47568,-0.0755675,3.60942,-2.9649,2.72851,3.4,-4.8,0,11880,48.465,30.314,14691.7
237593025,0.634768,2.223,88.9638,-0.320609,-0.338016,0.919321,0.270839,-1.3778,-0.0630381,3.58154,-2.93193,2.62521,3.4,-4.8,0,11880,48.465,30.314,14691.7
237693399,0.634768,2.223,88.9462,-0.305195,-0.325183,0.914765,0.786035,-1.28578,-0.0465253,3.32831,-2.83727,2.4612,3.4,-4.8,0,11880,48.465,30.314,14691.7
237793784,0.634768,2.223,88.9284,-0.29522,-0.315613,0.911538,1.2731,-1.19907,-0.0295203,3.17409,-2.6221,2.26142,-3.5,2.3,0,11880,48.465,30.314,14691.7
237894141,0.634768,2.223,88.9133,-0.275612,-0.296317,0.905307,1.74819,-1.10909,-0.0243675,3.20367,-2.58703,1.96583,-3.5,2.3,0,11880,48.465,30.314,14691.7
237994538,0.634768,2.223,88.9104,-0.115788,-0.137232,0.869518,2.17923,-1.01609,0.0393409,2.74674,-2.10601,1.70784,-3.5,2.3,0,11880,48.465,30.314,14691.7
238094896,0.634768,2.223,88.9177,0.140794,0.110844,0.870787,2.23109,-0.954658,0.116796,0.153581,0.500831,-0.533932,-3.5,2.3,0,11880,48.465,30.314,14691.7
238195230,0.634768,2.223,88.9272,0.299608,0.244201,0.898309,1.95966,-0.93695,0.00647317,-1.93755,2.4959,0.464521,-3.5,2.3,0,11880,48.465,30.314,14691.7
238295565,0.634768,2.223,88.9445,0.37985,0.312101,0.919678,1.49815,-0.91198,-0.0207881,-2.81721,3.50784,2.18574,-3.5,2.3,0,11867,48.456,29.588,14337.2
238395914,0.634768,2.223,89.0036,0.402939,0.338546,0.927166,0.934962,-0.898482,0.00325871,-3.19791,3.7938,2.82958,-3.5,2.3,0,11867,48.456,29.588,14337.2
238496300,0.634768,2.223,89.043,0.395259,0.340542,0.925206,0.371677,-0.901616,0.0218287,-3.34408,3.76028,2.51219,-3.5,2.3,0,11867,48.456,29.588,14337.2
238596654,0.634768,2.223,89.0146,0.377404,0.334727,0.921843,-0.170432,-0.90169,0.0166576,-3.1583,3.61632,2.56079,-3.5,2.3,0,11867,48.456,29.588,14337.2
238696998,0.634768,2.223,88.9989,0.362546,0.330027,0.919023,-0.702185,-0.902907,0.0182598,-3.03,3.49927,2.50217,-3.5,2.3,0,11867,48.456,29.588,14337.2
238797395,0.634768,2.223,89.0305,0.34657,0.324257,0.9158,-1.21163,-0.923296,0.0183523,-3.0357,3.24073,2.06711,1.7,3.2,0,11867,48.456,29.588,14337.2
238897732,0.634768,2.223,89.0486,0.3295,0.299505,0.908806,-1.69004,-0.946017,0.0169821,-2.91163,3.02739,1.74334,1.7,3.2,0,11867,48.456,29.588,14337.2
238998104,0.634768,2.223,89.0291,0.307983,0.0913632,0.882147,-2.1657,-0.941302,0.09496,-2.28166,2.90375,2.56293,1.7,3.2,0,11867,48.456,29.588,14337.2
239098463,0.634768,2.223,89.0265,0.270175,-0.166177,0.849686,-2.35785,-0.714671,0.0944181,1.08084,2.73144,0.112632,1.7,3.2,0,11867,48.456,29.588,14337.2
239198793,0.634768,2.223,89.0479,0.239789,-0.312123,0.828499,-2.36805,-0.363668,0.0103333,2.87047,2.13563,0.779848,1.7,3.2,0,11867,48.456,29.588,14337.2
239299158,0.634768,2.223,89.0464,0.219914,-0.389024,0.815586,-2.28253,0.0593532,-0.0513524,3.66147,1.75019,1.85633,1.7,3.2,0,11867,48.505,29.386,14253.7
239399494,0.634768,2.223,89.0191,0.207482,-0.412612,0.809427,-2.13258,0.548317,-0.0308874,4.24797,1.64625,2.33604,1.7,3.2,0,11867,48.505,29.386,14253.7
239499842,0.634767,2.223,88.9989,0.202928,-0.408555,0.806541,-1.96374,1.01938,-0.0328054,4.15955,1.43163,2.29314,1.7,3.2,0,11867,48.505,29.386,14253.7
239600230,0.634767,2.223,88.9827,0.202972,-0.384612,0.80731,-1.79935,1.47418,-0.0344565,4.03732,1.43325,2.24177,1.7,3.2,0,11867,48.505,29.386,14253.7
239700575,0.634767,2.223,88.9722,0.184319,-0.333303,0.816092,-1.66068,1.89258,-0.0466981,3.54047,1.3716,2.17176,1.7,3.2,0,11867,48.505,29.386,14253.7
239800989,0.634767,2.223,88.9707,0.160429,-0.27248,0.826229,-1.53915,2.26167,0.0131694,3.07597,1.22671,1.71241,0.6,-2.6,0,11867,48.505,29.386,14253.7
239901348,0.634767,2.223,88.9841,0.113837,-0.210013,0.840411,-1.45102,2.54884,0.0365417,2.45138,1.09889,0.938347,0.6,-2.6,0,11867,48.505,29.386,14253.7
240001714,0.634767,2.223,89.0051,-0.113592,-0.106727,0.866522,-1.34877,2.75554,0.135009,1.87262,0.208148,0.96824,0.6,-2.6,0,11867,48.505,29.386,14253.7
240102100,0.634767,2.223,89.0475,-0.330451,-0.00413235,0.859852,-1.11834,2.64151,0.149201,0.351439,-2.89145,-0.144744,0.6,-2.6,0,11867,48.505,29.386,14253.7
240202475,0.634767,2.223,89.0922,-0.438623,0.0528787,0.845492,-0.831589,2.36467,0.043046,-0.348399,-4.15102,0.713979,0.6,-2.6,0,11867,48.505,29.386,14253.7
240302745,0.634767,2.223,89.1205,-0.488868,0.0816685,0.836034,-0.501448,1.99913,-0.0120029,-0.692478,-4.55531,1.87405,0.6,-2.6,0,11867,48.505,29.386,14253.7
240403009,0.634767,2.223,89.135,-0.510675,0.0974114,0.828571,-0.15613,1.57776,-0.0727047,-0.893986,-4.83956,2.1313,0.6,-2.6,0,11867,48.423,30.451,14745.3
240503310,0.634767,2.223,89.1312,-0.515876,0.0974318,0.826758,0.216634,1.11333,-0.0885226,-0.933752,-5.09389,2.57825,0.6,-2.6,0,11867,48.423,30.451,14745.3
240603663,0.634767,2.223,89.0967,-0.496755,0.0868714,0.829253,0.579968,0.645288,-0.124097,-1.06018,-5.03978,2.59544,0.6,-2.6,0,11867,48.423,30.451,14745.3
240704072,0.634767,2.223,89.0616,-0.462429,0.0707099,0.836548,0.933647,0.195983,-0.118639,-0.906963,-4.72083,2.5275,0.6,-2.6,0,11867,48.423,30.451,14745.3
240804478,0.634767,2.223,89.0355,-0.381403,0.0502142,0.845738,1.27297,-0.208513,-0.0850223,-0.64834,-4.2268,2.41185,-1.9,-1.9,0,11867,48.423,30.451,14745.3
240904828,0.634767,2.223,89.0182,-0.280089,0.0561162,0.849533,1.53984,-0.512682,-0.0456114,-0.325199,-3.27017,1.7002,-1.9,-1.9,0,11867,48.423,30.451,14745.3
241005189,0.634767,2.223,89.0136,-0.139059,0.215003,0.850893,1.69552,-0.751879,0.0497126,-0.931319,-2.07367,1.12081,-1.9,-1.9,0,11867,48.423,30.451,14745.3
241107124,0.634768,2.223,89.0187,-0.0409255,0.345348,0.857009,1.57722,-1.02321,0.00229079,-2.88149,-0.57363,0.141399,-1.9,-1.9,0,11867,48.423,30.451,14745.3
241212897,0.634768,2.223,89.0166,0.008407,0.393056,0.859894,1.33654,-1.3297,-0.0721948,-3.59381,0.00465905,1.36264,-1.9,-1.9,0,11867,48.423,30.451,14745.3
241313361,0.634768,2.223,89.0192,0.0221047,0.370842,0.858486,0.964486,-1.69992,-0.0446476,-3.71193,0.430123,1.84067,-1.9,-1.9,0,11867,48.423,30.451,14745.3
241413760,0.634768,2.223,89.05,0.0132499,0.311601,0.855853,0.695925,-1.9606,-0.0184475,-3.22276,0.351044,1.20945,-1.9,-1.9,0,11867,48.31,31.217,15080.9
241514103,0.634768,2.223,89.0666,-0.000437463,0.24153,0.854779,0.496193,-2.16391,-0.00144629,-2.468,0.175678,0.800477,-1.9,-1.9,0,11867,48.31,31.217,15080.9
241614490,0.634768,2.223,89.0503,-0.0125218,0.177424,0.855643,0.364666,-2.30794,0.00386964,-1.73448,0.0211944,0.236986,-1.9,-1.9,0,11867,48.31,31.217,15080.9
