timestamp,lat,log,alt,roll,pitch,yaw,vel_x,vel_y,vel_z,acc_x,acc_y,acc_z,act_vx,act_vy,act_yr,capacity,vol,cur,power
683445595,0.63477,2.223,114.614,-0.0474962,0.0534952,0.944294,0.0070623,0.0227931,0.00231524,0.0282898,0.0526834,-0.0210093,0,-3.2,0,11895,49.176,23.787,11697.5
683546111,0.63477,2.223,114.61,-0.0482247,0.0516498,0.944516,-0.00470021,0.0166381,0.000711162,-0.0926825,0.0430458,0.103195,0,-3.2,0,11895,49.176,23.787,11697.5
683646518,0.63477,2.223,114.609,-0.0547108,0.0486927,0.945737,-0.00973603,0.00816738,0.00499003,-0.0632256,0.0333939,0.10355,0,-3.2,0,11895,49.176,23.787,11697.5
683746879,0.63477,2.223,114.609,-0.154862,0.0398599,0.941787,-0.00721613,-0.000488099,0.0405886,0.0113672,-0.321058,-0.110861,0,-3.2,0,11895,49.176,23.787,11697.5
683847227,0.63477,2.223,114.605,-0.298232,0.0315839,0.939934,0.12031,-0.0858144,-0.0101382,0.109974,-1.76143,-0.0370795,0,-3.2,0,11895,49.151,24.089,11840
683948955,0.63477,2.223,114.593,-0.384152,0.0295655,0.939887,0.360558,-0.242104,-0.0425594,0.201294,-2.74634,0.987151,0,-3.2,0,11895,49.151,24.089,11840
684050882,0.63477,2.223,114.584,-0.434016,0.0322355,0.938861,0.674395,-0.458643,-0.0361073,0.123374,-3.35928,1.75032,0,-3.2,0,11895,49.151,24.089,11840
684151332,0.63477,2.223,114.576,-0.446394,0.0368488,0.937451,1.01449,-0.695062,-0.0231903,0.160302,-3.50961,2.16666,0,-3.2,0,11895,49.151,24.089,11840
684252898,0.63477,2.223,114.558,-0.432497,0.0438735,0.935898,1.35214,-0.932104,-0.0122233,0.15371,-3.57859,1.96115,0,-3.2,0,11895,49.151,24.089,11840
684353208,0.63477,2.223,114.544,-0.384676,0.0483667,0.935582,1.66419,-1.16577,0.00653112,0.0486801,-3.25907,1.8452,0,-3.2,0,11895,49.151,24.089,11840
684453593,0.63477,2.223,114.553,-0.332354,0.0514959,0.935949,1.92258,-1.36566,0.0373385,-0.00447346,-2.88438,1.13408,0,-3.2,0,11895,49.151,24.089,11840
684553914,0.63477,2.223,114.565,-0.283,0.0546117,0.935853,2.12606,-1.53083,0.0486499,-0.0455812,-2.35973,0.591463,0,-3.2,0,11895,49.151,24.089,11840
684654203,0.63477,2.223,114.571,-0.240179,0.0547471,0.936489,2.27976,-1.67014,0.0517699,-0.160767,-1.78255,0.507322,0,-3.2,0,11895,49.151,24.089,11840
684754573,0.63477,2.223,114.576,-0.205922,0.0531757,0.937786,2.39766,-1.77947,0.0595515,-0.179047,-1.25267,0.448338,0,-3.2,0,11895,49.151,24.089,11840
684854916,0.63477,2.223,114.591,-0.179482,0.0504122,0.938837,2.49,-1.85911,0.0517324,-0.0638388,-1.00102,0.0535153,0,-3.2,0,11895,49.147,24.089,11839
684955271,0.63477,2.223,114.604,-0.15452,0.0451869,0.940677,2.55899,-1.92541,0.0524957,-0.103966,-0.738901,0.121958,0,-3.2,0,11895,49.147,24.089,11839
685055628,0.63477,2.223,114.616,-0.134566,0.0402353,0.942383,2.60836,-1.97174,0.0566813,-0.0457289,-0.545313,0.0135107,0,-3.2,0,11895,49.147,24.089,11839
685155978,0.63477,2.223,114.624,-0.120906,0.0377455,0.942679,2.6428,-2.00394,0.0521904,-0.0248319,-0.42222,-0.0443757,0,-3.2,0,11895,49.147,24.089,11839
685256379,0.63477,2.223,114.619,-0.113541,0.0358556,0.94296,2.67208,-2.01859,0.0452514,0.113158,-0.233223,-0.0141822,0,-3.2,0,11895,49.147,24.089,11839
685356742,0.63477,2.223,114.613,-0.105173,0.0379912,0.942957,2.7102,-2.01259,0.0407461,0.257433,-0.22005,0.158706,0,-3.2,0,11895,49.147,24.089,11839
685457118,0.63477,2.223,114.611,-0.10283,0.0390863,0.943171,2.72024,-2.00971,0.0311409,0.150307,-0.0729231,-0.0816331,0,-3,0,11895,49.147,24.089,11839
685558096,0.63477,2.223,114.608,-0.0995418,0.0402987,0.943502,2.73226,-1.99804,0.0148895,0.205807,-0.0869681,-0.0967354,0,-3,0,11895,49.147,24.089,11839
685659330,0.63477,2.223,114.604,-0.0772706,0.0377431,0.944493,2.73886,-1.98026,0.00369224,0.216591,0.0959334,0.0696088,0,-3,0,11895,49.147,24.089,11839
685759696,0.63477,2.223,114.601,-0.0779169,0.0401448,0.944247,2.72116,-1.95168,0.00765022,0.123002,0.144985,-0.406765,0,-3,0,11895,49.147,24.089,11839
685860111,0.63477,2.223,114.597,-0.0775573,0.0422338,0.943966,2.70452,-1.92942,-0.00571243,0.110472,0.183327,0.0364136,0,-3,0,11851,49.149,25.027,12300.5
685960592,0.634771,2.223,114.592,-0.0784223,0.0445488,0.943174,2.694,-1.91498,-0.000590511,0.0732363,0.0874705,0.00227374,0,-3,0,11851,49.149,25.027,12300.5
686067331,0.634771,2.223,114.589,-0.0776663,0.0474719,0.943065,2.67154,-1.89842,-0.00491791,0.00566307,0.0975132,0.10592,0,-3,0,11851,49.149,25.027,12300.5
686167696,0.634771,2.223,114.587,-0.0785658,0.047723,0.943099,2.66378,-1.89114,0.00909989,0.00322412,0.0498788,0.0458474,0,-3,0,11851,49.149,25.027,12300.5
686268085,0.634771,2.223,114.588,-0.0818375,0.0464592,0.943281,2.64911,-1.88055,0.00528749,0.0421494,0.12829,-0.00417194,0,-3,0,11851,49.149,25.027,12300.5
686368422,0.634771,2.223,114.59,-0.0860572,0.0481361,0.943282,2.64042,-1.86541,0.00773229,0.0858773,0.114398,-0.118862,0,-3,0,11851,49.149,25.027,12300.5
686468783,0.634771,2.223,114.59,-0.091078,0.0484709,0.943673,2.63752,-1.84914,0.0201642,0.153399,0.0606411,0.0517531,0,-3,0,11851,49.149,25.027,12300.5
686569202,0.634771,2.223,114.593,-0.096606,0.0493891,0.943458,2.63608,-1.84117,0.01142,0.0739383,-0.0783095,-0.0051245,0,-3,0,11851,49.149,25.027,12300.5
686671084,0.634771,2.223,114.6,-0.0978864,0.0518003,0.943618,2.63272,-1.84204,0.00258155,0.0143496,-0.0790201,-0.0404299,0,-3,0,11851,49.149,25.027,12300.5
686771449,0.634771,2.223,114.604,-0.0999838,0.0503313,0.943731,2.62992,-1.8488,0.00529464,-0.0487818,-0.100935,-0.0656359,0,-3,0,11851,49.149,25.027,12300.5
686871802,0.634771,2.223,114.611,-0.100532,0.0474106,0.94356,2.63441,-1.8509,-0.00321489,0.0631556,-0.103056,-0.0584205,0,-3,0,11851,49.04,26.081,12790.1
686972176,0.634771,2.223,114.621,-0.100709,0.0474469,0.943282,2.64105,-1.85905,0.000192821,-0.00565397,-0.185882,-0.0610143,0,-3,0,11851,49.04,26.081,12790.1
687072513,0.634771,2.223,114.629,-0.0949819,0.0478093,0.942711,2.64966,-1.87066,0.00601763,-0.0172258,-0.152774,0.177866,0,-3,0,11851,49.04,26.081,12790.1
687172840,0.634771,2.223,114.635,-0.0886405,0.0500516,0.942466,2.65115,-1.87513,0.0172363,-0.060029,-0.0199765,-0.0767772,0,-3,0,11851,49.04,26.081,12790.1
687273199,0.634771,2.223,114.64,-0.0912847,0.0559555,0.941624,2.6365,-1.876,0.00549757,-0.112186,0.0227955,-0.280054,0,-3,0,11851,49.04,26.081,12790.1
687373577,0.634771,2.223,114.641,-0.0812518,0.0544384,0.941668,2.62875,-1.89506,-0.00733151,-0.201155,0.0168857,0.212407,0,-3,0,11851,49.04,26.081,12790.1
687473948,0.634771,2.223,114.639,-0.0744822,0.0535542,0.941782,2.60986,-1.9177,0.00550935,-0.257462,0.0260392,0.112883,0,-5,0,11851,49.04,26.081,12790.1
687574241,0.634771,2.223,114.636,-0.0826804,0.0517487,0.942975,2.58771,-1.93263,0.0144666,-0.220184,0.0552622,0.140484,0,-5,0,11851,49.04,26.081,12790.1
687674589,0.634771,2.223,114.635,-0.182862,0.0506941,0.937719,2.5742,-1.94837,0.047985,-0.132827,-0.241313,-0.372641,0,-5,0,11851,49.04,26.081,12790.1
687774947,0.634771,2.223,114.638,-0.288075,0.0445124,0.935891,2.65322,-2.03032,-0.0178474,-0.166216,-1.39653,-0.153425,0,-5,0,11851,49.04,26.081,12790.1
687875307,0.634771,2.223,114.642,-0.351371,0.0356372,0.936277,2.81264,-2.17836,-0.040685,-0.181984,-2.10083,0.661699,0,-5,0,11851,49.04,26.081,12790.1
687975654,0.634771,2.223,114.642,-0.365412,0.0319173,0.938031,3.02626,-2.33298,-0.0401437,0.0410316,-2.56296,0.692865,0,-5,0,11851,49.04,26.081,12790.1
688076049,0.634771,2.223,114.634,-0.351468,0.0300666,0.939863,3.24271,-2.48555,-0.0362599,0.0930427,-2.39569,1.07095,0,-5,0,11851,49.04,26.081,12790.1
688176391,0.634771,2.223,114.631,-0.323368,0.0296007,0.939886,3.43369,-2.62097,-0.0110336,0.144027,-2.02836,1.06543,0,-5,0,11851,49.04,26.081,12790.1
688278370,0.634771,2.223,114.627,-0.291381,0.0300548,0.939967,3.60913,-2.73937,-0.0075614,0.200173,-1.84466,0.952502,0,-5,0,11851,49.04,26.081,12790.1
688385230,0.634771,2.223,114.621,-0.258721,0.0319139,0.940482,3.7775,-2.84625,0.0040997,0.170771,-1.42089,0.581491,0,-5,0,11851,49.216,24.276,11947.7
688485568,0.634772,2.223,114.627,-0.230189,0.0298014,0.941538,3.88812,-2.91434,0.0130135,0.156276,-1.10525,0.397587,0,-5,0,11851,49.216,24.276,11947.7
688585983,0.634772,2.223,114.634,-0.207351,0.0322706,0.941191,3.98487,-2.96342,0.0266243,0.182943,-0.930346,0.362752,0,-5,0,11851,49.216,24.276,11947.7
688686346,0.634772,2.223,114.641,-0.188639,0.0343994,0.940971,4.05864,-3.00629,0.0247672,0.152033,-0.783319,0.10437,0,-5,0,11851,49.216,24.276,11947.7
688787925,0.634772,2.223,114.65,-0.174245,0.037604,0.940301,4.12239,-3.03921,0.0241198,0.1187,-0.552783,0.278391,0,-5,0,11851,49.216,24.276,11947.7
688889414,0.634772,2.223,114.659,-0.15793,0.0371515,0.94047,4.16743,-3.07502,0.0135947,-0.0302145,-0.513369,-0.19829,0,-5,0,11851,49.216,24.276,11947.7
688989781,0.634772,2.223,114.66,-0.143974,0.0359546,0.940764,4.20841,-3.09432,0.011433,0.120892,-0.366561,-0.112388,0,-5,0,11851,49.216,24.276,11947.7
689090155,0.634772,2.223,114.662,-0.131628,0.0353333,0.940382,4.23494,-3.10978,0.0108585,0.0708403,-0.242675,-0.0177221,0,-5,0,11851,49.216,24.276,11947.7
689190528,0.634772,2.223,114.658,-0.126004,0.0382331,0.940295,4.25478,-3.11509,-0.00549858,0.0521777,-0.179899,-0.0622706,0,-5,0,11851,49.216,24.276,11947.7
689290897,0.634772,2.223,114.652,-0.123945,0.0402884,0.939245,4.26374,-3.12989,-0.0124778,-0.0778295,-0.150987,-0.0215486,0,-5,0,11851,49.216,24.276,11947.7
689391265,0.634772,2.223,114.652,-0.123545,0.0363651,0.940126,4.27178,-3.1367,-0.0327118,-0.0189314,-0.124014,-0.0883836,0,-5,0,11851,49.202,22.962,11297.8
689491689,0.634772,2.223,114.649,-0.121588,0.0333622,0.941672,4.29649,-3.12513,-0.0351384,0.233009,-0.162202,-0.0738617,0,-1.6,0,11851,49.202,22.962,11297.8
689592092,0.634772,2.223,114.64,-0.0877983,0.0326588,0.941384,4.31905,-3.1214,-0.0327859,0.174978,-0.179949,0.760146,0,-1.6,0,11851,49.202,22.962,11297.8
689692462,0.634772,2.223,114.64,0.142362,0.0205896,0.950851,4.30404,-3.07082,0.0784044,0.372233,0.692664,1.16344,0,-1.6,0,11851,49.202,22.962,11297.8
689792830,0.634772,2.223,114.649,0.306473,0.0188216,0.951172,4.06855,-2.85247,0.119781,0.345652,3.29015,0.330773,0,-1.6,0,11851,49.202,22.962,11297.8
689893197,0.634773,2.223,114.655,0.360411,0.0349616,0.953379,3.754,-2.59156,0.0337802,0.298671,4.00585,1.01912,0,-1.6,0,11851,49.202,22.962,11297.8
689993563,0.634773,2.223,114.665,0.34612,0.0425315,0.953533,3.3751,-2.31183,0.0395969,0.103214,4.15587,1.90765,0,-1.6,0,11851,49.202,22.962,11297.8
690093906,0.634773,2.223,114.674,0.303851,0.0423469,0.951486,3.03783,-2.07141,-0.00174566,-0.0260949,3.88223,0.395318,0,-1.6,0,11851,49.202,22.962,11297.8
690194257,0.634773,2.223,114.663,0.254876,0.0395865,0.948741,2.74613,-1.85177,-0.0410696,0.0856182,3.39551,0.804129,0,-1.6,0,11851,49.202,22.962,11297.8
690294635,0.634773,2.223,114.646,0.201679,0.0338314,0.94565,2.48597,-1.66191,-0.0491085,0.0368903,3.00258,0.365006,0,-1.6,0,11851,49.202,22.962,11297.8
690394975,0.634773,2.223,114.644,0.157966,0.0302041,0.944733,2.28209,-1.49732,-0.084733,0.164881,2.44379,0.0797303,0,-1.6,0,11851,49.181,23.827,11718.4
690495337,0.634773,2.223,114.644,0.119683,0.0296029,0.94463,2.11203,-1.34752,-0.0933165,0.200617,2.00887,0.422583,0,-1.6,0,11851,49.181,23.827,11718.4
690595687,0.634773,2.223,114.629,0.0848545,0.034467,0.94515,1.95633,-1.22022,-0.0728017,0.118954,1.73242,0.312022,0,-1.6,0,11851,49.181,23.827,11718.4
690696056,0.634773,2.223,114.614,0.0570509,0.0378056,0.945561,1.84217,-1.10432,-0.0863894,0.321526,1.40381,0.218211,0,-1.6,0,11851,49.181,23.827,11718.4
690796344,0.634773,2.223,114.61,0.0267808,0.045582,0.945626,1.73388,-1.00574,-0.0637247,0.187515,1.23171,0.320517,0,-1.6,0,11851,49.181,23.827,11718.4
690896651,0.634773,2.223,114.611,-0.000172009,0.0521523,0.945338,1.65699,-0.939613,-0.0407777,0.0646002,0.829899,-0.0126045,0,-1.6,0,11851,49.181,23.827,11718.4
690997026,0.634773,2.223,114.611,-0.0185125,0.057193,0.945221,1.59587,-0.894691,-0.0370407,0.0272706,0.616927,0.106026,0,-1.6,0,11851,49.181,23.827,11718.4
691097374,0.634773,2.223,114.607,-0.031786,0.0605028,0.945167,1.54324,-0.868229,-0.0256039,-0.0482161,0.477505,0.0010582,0,-1.6,0,11851,49.181,23.827,11718.4
691197790,0.634773,2.223,114.616,-0.04325,0.0613948,0.945568,1.50553,-0.84325,-0.0188215,0.0195511,0.358171,0.140791,0,-1.6,0,11851,49.181,23.827,11718.4
691298128,0.634773,2.223,114.624,-0.0537593,0.0639114,0.945143,1.48623,-0.824364,0.00385587,0.0170408,0.237129,-0.1281,0,-1.6,0,11851,49.181,23.827,11718.4
691398523,0.634773,2.223,114.623,-0.0584991,0.0671793,0.944812,1.47463,-0.813057,-0.00897158,0.0132628,0.147528,-0.171226,0,-1.6,0,11851,49.181,23.827,11718.4
691498941,0.634773,2.223,114.616,-0.0626587,0.0696274,0.944314,1.4594,-0.816473,0.000412188,-0.0820722,0.124563,0.0750031,0,2.8,0,11851,49.35,21.235,10479.5
691599313,0.634773,2.223,114.618,-0.0489794,0.0692952,0.942904,1.44976,-0.820666,0.00229724,-0.0360065,0.144416,0.289359,0,2.8,0,11851,49.35,21.235,10479.5
691699697,0.634773,2.223,114.629,0.127206,0.0547249,0.951684,1.42649,-0.822347,0.0912531,-0.083094,0.531439,0.560279,0,2.8,0,11851,49.35,21.235,10479.5
691800086,0.634773,2.223,114.641,0.283591,0.0463659,0.955699,1.23363,-0.677113,0.0607843,0.0340978,2.78053,-0.224093,0,2.8,0,11851,49.35,21.235,10479.5
691900453,0.634773,2.223,114.636,0.377826,0.0397068,0.955238,0.944023,-0.454289,-0.000485884,0.122419,3.75175,1.08682,0,2.8,0,11851,49.35,21.235,10479.5
692000818,0.634773,2.223,114.638,0.427445,0.0349911,0.953039,0.576034,-0.167197,-0.0254262,0.1876,4.55264,1.56636,0,2.8,0,11851,49.35,21.235,10479.5
692101175,0.634773,2.223,114.63,0.449142,0.0299184,0.949544,0.170762,0.14678,-0.0411865,0.176543,4.75519,1.99259,0,2.8,0,11851,49.35,21.235,10479.5
692201534,0.634773,2.223,114.594,0.452582,0.030798,0.947847,-0.233496,0.471279,-0.0675073,0.304034,4.75182,2.12824,0,2.8,0,11851,49.35,21.235,10479.5
692301896,0.634773,2.223,114.558,0.430858,0.0420373,0.94861,-0.647053,0.803101,-0.0784144,0.29693,4.80074,2.17366,0,2.8,0,11851,49.35,21.235,10479.5
692402227,0.634773,2.223,114.557,0.371967,0.0533612,0.949355,-1.05396,1.11116,-0.0628763,0.199516,4.36149,2.32391,0,2.8,0,11851,49.35,21.235,10479.5
692502613,0.634773,2.223,114.562,0.293742,0.0629186,0.949829,-1.39464,1.36086,-0.0298955,0.096688,3.7599,1.42528,0,2.8,0,11851,49.404,18.942,9358.11
692602953,0.634773,2.223,114.566,0.211847,0.0707061,0.950436,-1.65663,1.53889,-0.00590528,-0.0683019,2.83832,0.640711,0,2.8,0,11851,49.404,18.942,9358.11
692703315,0.634773,2.223,114.575,0.148837,0.0741542,0.95043,-1.85144,1.65872,0.0112528,-0.122075,2.05935,0.462151,0,2.8,0,11851,49.404,18.942,9358.11
692803634,0.634773,2.223,114.607,0.0983746,0.0765132,0.95037,-2.0222,1.75317,0.0319548,-0.179157,1.33617,0.0612689,0,2.8,0,11851,49.404,18.942,9358.11
692903996,0.634773,2.223,114.636,0.0632481,0.0784304,0.950355,-2.11899,1.79033,0.0368206,-0.258701,0.870619,-0.137297,0,2.8,0,11851,49.404,18.942,9358.11
693004395,0.634773,2.223,114.643,0.039932,0.076756,0.950099,-2.195,1.81359,0.0337833,-0.226242,0.616071,-0.00658853,0,2.8,0,11851,49.404,18.942,9358.11
693104702,0.634773,2.223,114.652,0.022463,0.074099,0.94992,-2.25204,1.82876,0.0248906,-0.23344,0.469381,-0.126018,0,2.8,0,11851,49.404,18.942,9358.11
693205056,0.634773,2.223,114.662,0.013299,0.0710462,0.949889,-2.29499,1.82967,0.0345694,-0.221796,0.325917,-0.194241,0,2.8,0,11851,49.404,18.942,9358.11
693305428,0.634773,2.223,114.668,0.00553498,0.0674628,0.949503,-2.32511,1.83164,0.0190476,-0.161758,0.332378,-0.0975473,0,2.8,0,11851,49.404,18.942,9358.11
693405799,0.634773,2.223,114.664,0.00383829,0.0651591,0.949559,-2.34243,1.8285,0.00413678,-0.0902073,0.228784,-0.18325,0,2.8,0,11851,49.404,18.942,9358.11
693506155,0.634773,2.223,114.657,0.00315429,0.064458,0.9492,-2.35553,1.827,-0.00887535,-0.0534755,0.190669,-0.164125,0,-0.5,0,11851,49.304,22.725,11204.3
693606538,0.634773,2.223,114.653,-0.0186672,0.0606161,0.949714,-2.36561,1.83059,-0.00532094,-0.00226765,0.284292,0.420232,0,-0.5,0,11851,49.304,22.725,11204.3
693706951,0.634773,2.223,114.653,-0.181222,0.0471392,0.940738,-2.32814,1.80352,0.0469615,0.078226,-0.652434,-0.377622,0,-0.5,0,11851,49.304,22.725,11204.3
693807328,0.634773,2.223,114.647,-0.335197,0.0420739,0.938393,-2.12567,1.68388,-0.0222653,0.196339,-2.39618,0.14686,0,-0.5,0,11851,49.304,22.725,11204.3
693907676,0.634772,2.223,114.627,-0.424533,0.0424601,0.938636,-1.80441,1.47481,-0.0650705,0.195499,-3.41482,1.58074,0,-0.5,0,11851,49.304,22.725,11204.3
694007984,0.634772,2.223,114.611,-0.463894,0.0469835,0.938207,-1.41385,1.21153,-0.0675402,0.175608,-4.05333,2.02085,0,-0.5,0,11851,49.304,22.725,11204.3
694108487,0.634772,2.223,114.596,-0.43079,0.0523702,0.939022,-1.00494,0.926552,-0.0518438,0.1398,-3.98022,2.51622,0,-0.5,0,11851,49.304,22.725,11204.3
694208936,0.634772,2.223,114.576,-0.360978,0.0593464,0.939024,-0.652499,0.675056,-0.0140794,0.0638037,-3.42742,1.93498,0,-0.5,0,11851,49.304,22.725,11204.3
694309340,0.634772,2.223,114.557,-0.285007,0.0663926,0.938343,-0.387026,0.479673,0.00150655,-0.0363567,-2.69773,1.13643,0,-0.5,0,11851,49.304,22.725,11204.3
694409696,0.634772,2.223,114.567,-0.224252,0.0722122,0.93727,-0.201689,0.326162,0.0160281,-0.147291,-2.05543,0.291869,0,-0.5,0,11851,49.304,22.725,11204.3
694510065,0.634772,2.223,114.585,-0.178467,0.0748169,0.93738,-0.0619794,0.210513,0.0284973,-0.108356,-1.46487,0.270128,0,-0.5,0,11851,49.032,25.758,12629.7
694610430,0.634772,2.223,114.593,-0.1443,0.0744385,0.938483,0.0368705,0.114587,0.0370413,-0.132333,-1.0021,0.278854,0,-0.5,0,11851,49.032,25.758,12629.7
694710785,0.634773,2.223,114.609,-0.118282,0.0695841,0.939851,0.106118,0.043196,0.0411075,-0.138536,-0.648322,0.0297051,0,-0.5,0,11851,49.032,25.758,12629.7
694811171,0.634773,2.223,114.626,-0.101803,0.063274,0.941131,0.160243,-0.0138927,0.0446361,-0.0607107,-0.520302,-0.00971892,0,-0.5,0,11851,49.032,25.758,12629.7
694911534,0.634773,2.223,114.642,-0.0874859,0.060541,0.941781,0.21323,-0.0501803,0.0430691,-0.00779129,-0.397727,-0.352791,0,-0.5,0,11851,49.032,25.758,12629.7
695011890,0.634773,2.223,114.646,-0.0781693,0.0605799,0.942171,0.246973,-0.0838425,0.0307442,-0.0702153,-0.309875,-0.28278,0,-0.5,0,11851,49.032,25.758,12629.7
695112288,0.634773,2.223,114.647,-0.0685199,0.0629045,0.942954,0.275453,-0.108003,0.0162385,-0.0326098,-0.202595,-0.29549,0,-0.5,0,11851,49.032,25.758,12629.7
695212671,0.634773,2.223,114.646,-0.0638101,0.0631923,0.943528,0.296232,-0.131961,0.00807177,-0.0343878,-0.174445,0.160834,0,-0.5,0,11851,49.032,25.758,12629.7
695313934,0.634773,2.223,114.641,-0.0635452,0.0626337,0.943483,0.312271,-0.146379,-0.00285216,-0.0206651,-0.158962,-0.1661,0,-0.5,0,11851,49.032,25.758,12629.7
695415402,0.634773,2.223,114.634,-0.0641661,0.058993,0.943274,0.323785,-0.157384,-0.0155518,0.0179482,-0.113153,-0.112371,0,-0.5,0,11851,49.032,25.758,12629.7
695515789,0.634773,2.223,114.626,-0.0636046,0.0567765,0.943305,0.337922,-0.166166,-0.0207861,0.111281,-0.142646,0.0713326,0,4,0,11851,49.032,25.758,12629.7
695616098,0.634773,2.223,114.624,-0.0415645,0.0552639,0.94226,0.354858,-0.174251,-0.0108283,0.0723821,-0.171752,0.315775,0,4,0,11851,49.088,26.081,12802.6
695716489,0.634773,2.223,114.621,0.13721,0.0432685,0.950521,0.340246,-0.167099,0.0572958,0.0752559,0.421426,0.299148,0,4,0,11851,49.088,26.081,12802.6
695816859,0.634773,2.223,114.634,0.305109,0.0376071,0.954316,0.155424,-0.0130615,0.0196789,0.200748,2.64221,-0.12597,0,4,0,11851,49.088,26.081,12802.6
695918078,0.634773,2.223,114.637,0.405097,0.0377494,0.955366,-0.149348,0.223253,-0.0386342,0.215784,3.78023,1.14153,0,4,0,11851,49.088,26.081,12802.6
696023053,0.634773,2.223,114.639,0.452541,0.0352746,0.954015,-0.543285,0.532676,-0.0506393,0.278987,4.44478,2.17533,0,4,0,11851,49.088,26.081,12802.6
696123402,0.634773,2.223,114.644,0.461985,0.0354703,0.952225,-0.962441,0.863762,-0.0499616,0.326439,4.63115,2.29561,0,4,0,11851,49.088,26.081,12802.6
696223752,0.634773,2.223,114.637,0.448697,0.041601,0.952316,-1.4569,1.26087,-0.0414163,0.305166,4.54163,2.3195,0,4,0,11851,49.088,26.081,12802.6
696324114,0.634772,2.223,114.627,0.404645,0.047809,0.952044,-1.85266,1.57276,-0.0381028,0.253056,4.24106,2.20167,0,4,0,11851,49.088,26.081,12802.6
696424467,0.634772,2.223,114.632,0.330547,0.0547954,0.952306,-2.1401,1.79618,-0.0107727,0.159947,4.0237,1.46025,0,4,0,11851,49.088,26.081,12802.6
696524823,0.634772,2.223,114.647,0.250907,0.0642858,0.953678,-2.46905,2.04253,-0.00921887,0.0565056,2.84405,0.72225,0,4,0,11851,49.088,26.081,12802.6
696625173,0.634772,2.223,114.655,0.178075,0.0741072,0.95466,-2.66169,2.17147,0.0102655,-0.0664756,1.96608,0.389208,0,4,0,11851,48.989,26.11,12791
696725550,0.634772,2.223,114.659,0.127429,0.0796937,0.954455,-2.81256,2.25651,0.0113889,-0.200421,1.46722,0.0867631,0,4,0,11851,48.989,26.11,12791
696825927,0.634772,2.223,114.667,0.095004,0.0810836,0.954154,-2.93587,2.30955,0.00126802,-0.248423,1.08554,0.15293,0,4,0,11851,48.989,26.11,12791
696926296,0.634772,2.223,114.679,0.0742692,0.079854,0.953776,-3.02409,2.3519,0.00987457,-0.14878,0.767883,-0.0856695,0,4,0,11851,48.989,26.11,12791
697027223,0.634772,2.223,114.678,0.0583349,0.0788925,0.953486,-3.08907,2.37508,-0.00404114,-0.181076,0.526515,-0.0536623,0,4,0,11851,48.989,26.11,12791
697128345,0.634772,2.223,114.675,0.0487454,0.0751193,0.953206,-3.14452,2.38637,-0.00885881,-0.195395,0.366248,-0.0468388,0,4,0,11851,48.989,26.11,12791
697228747,0.634772,2.223,114.678,0.0429574,0.069394,0.952143,-3.18542,2.39689,-0.0148899,-0.090242,0.376632,0.0580972,0,4,0,11851,48.989,26.11,12791
697329126,0.634772,2.223,114.681,0.0375602,0.0674409,0.951366,-3.21355,2.40803,-0.0183259,-0.0593561,0.303523,-0.263247,0,4,0,11851,48.989,26.11,12791
697429500,0.634772,2.223,114.679,0.0373774,0.0638061,0.950537,-3.22991,2.4145,-0.0202786,0.0175887,0.208409,0.0562895,0,4,0,11851,48.989,26.11,12791
697529866,0.634772,2.223,114.675,0.0336981,0.061409,0.949987,-3.2474,2.42121,-0.0163779,-0.020396,0.224193,0.142744,0,-4.2,0,11851,48.989,26.11,12791
697630196,0.634772,2.223,114.674,-0.000457601,0.0553981,0.950785,-3.25948,2.42974,-0.0178722,0.0459766,0.273544,0.292522,0,-4.2,0,11851,49.069,25.247,12388.5
697730761,0.634772,2.223,114.673,-0.189607,0.0346064,0.9413,-3.21562,2.40319,0.0435505,0.142059,-0.764654,0.144688,0,-4.2,0,11851,49.069,25.247,12388.5
697831143,0.634772,2.223,114.676,-0.352037,0.0235013,0.941244,-2.98654,2.27739,-0.00991004,0.354031,-2.77017,-0.0345703,0,-4.2,0,11851,49.069,25.247,12388.5
697931521,0.634772,2.223,114.675,-0.452354,0.0186169,0.94335,-2.62259,2.05503,-0.0570385,0.359677,-3.88019,1.7456,0,-4.2,0,11851,49.069,25.247,12388.5
698031834,0.634772,2.223,114.67,-0.49858,0.0162959,0.94505,-2.17393,1.77382,-0.059655,0.386439,-4.54073,2.32769,0,-4.2,0,11851,49.069,25.247,12388.5
698132237,0.634772,2.223,114.665,-0.50379,0.015434,0.946906,-1.69362,1.48309,-0.068843,0.482344,-4.82554,2.42897,0,-4.2,0,11851,49.069,25.247,12388.5
698232582,0.634772,2.223,114.647,-0.491403,0.0151565,0.947734,-1.21125,1.1995,-0.0602972,0.512936,-4.58598,2.72851,0,-4.2,0,11851,49.069,25.247,12388.5
698332929,0.634772,2.223,114.632,-0.471751,0.0203308,0.945979,-0.752518,0.925939,-0.044675,0.493794,-4.38903,2.58345,0,-4.2,0,11851,49.069,25.247,12388.5
698433282,0.634772,2.223,114.638,-0.453542,0.0297377,0.941753,-0.320739,0.668543,-0.0259352,0.439478,-4.15091,2.19749,0,-4.2,0,11851,49.069,25.247,12388.5
698533634,0.634772,2.223,114.643,-0.432549,0.0393557,0.938088,0.0784508,0.423466,-0.0273657,0.365267,-3.97212,1.82095,0,-4.2,0,11851,49.069,25.247,12388.5
698633987,0.634772,2.223,114.641,-0.412712,0.0488403,0.93451,0.451384,0.178956,-0.00454879,0.250443,-3.65159,1.76765,0,-4.2,0,11808,48.977,25.658,12566.5
698734355,0.634772,2.223,114.638,-0.398351,0.0590768,0.930582,0.788622,-0.0591465,-0.00337928,0.130459,-3.43004,1.60855,0,-4.2,0,11808,48.977,25.658,12566.5
698834761,0.634772,2.223,114.64,-0.388627,0.067566,0.92815,1.09596,-0.28878,-0.00156849,0.0406474,-3.17505,1.41467,0,-4.2,0,11808,48.977,25.658,12566.5
698935143,0.634772,2.223,114.645,-0.382764,0.0761692,0.92606,1.38991,-0.51723,-0.000903964,-0.0858433,-3.20493,1.10306,0,-4.2,0,11808,48.977,25.658,12566.5
699035494,0.634772,2.223,114.642,-0.380018,0.0830468,0.924399,1.65811,-0.746514,-0.0130111,-0.264648,-3.06398,1.07817,0,-4.2,0,11808,48.977,25.658,12566.5
699135826,0.634772,2.223,114.64,-0.377765,0.0898585,0.923498,1.92389,-0.973157,-0.00934807,-0.233203,-2.95782,1.08624,0,-4.2,0,11808,48.977,25.658,12566.5
699236226,0.634772,2.223,114.643,-0.36847,0.0942887,0.922264,2.17488,-1.21043,-0.0113456,-0.350256,-2.98427,1.13902,0,-4.2,0,11808,48.977,25.658,12566.5
699336958,0.634772,2.223,114.647,-0.335253,0.0922159,0.924698,2.40327,-1.43827,0.00715775,-0.339916,-2.67929,1.26381,0,-4.2,0,11808,48.977,25.658,12566.5
699438700,0.634772,2.223,114.652,-0.298723,0.0875944,0.927635,2.59145,-1.6328,0.0149413,-0.364658,-2.22665,0.938682,0,-4.2,0,11808,48.977,25.658,12566.5
699539187,0.634772,2.223,114.662,-0.262559,0.0824239,0.930256,2.74604,-1.79478,0.0252421,-0.266753,-1.85129,0.731841,0,-0.9,0,11808,48.977,25.658,12566.5
699639552,0.634772,2.223,114.673,-0.214398,0.0791024,0.930915,2.87176,-1.92182,0.0324729,-0.188129,-1.5486,0.503807,0,-0.9,0,11764,48.946,26.25,12848.3
699739908,0.634772,2.223,114.687,0.0225722,0.0761871,0.947407,2.96695,-2.02426,0.120738,-0.117368,-0.978271,0.750393,0,-0.9,0,11764,48.946,26.25,12848.3
699840315,0.634772,2.223,114.7,0.283883,0.0711363,0.959052,2.79472,-1.92363,0.166396,-0.0516441,2.24436,1.00957,0,-0.9,0,11764,48.946,26.25,12848.3
699940642,0.634772,2.223,114.709,0.375147,0.06968,0.96072,2.44307,-1.67999,0.104545,-0.0432882,4.51539,-0.14616,0,-0.9,0,11764,48.946,26.25,12848.3
700041020,0.634772,2.223,114.719,0.362992,0.0696603,0.958966,2.07481,-1.43709,-0.0307092,-0.131398,4.31458,0.980704,0,-0.9,0,11764,48.946,26.25,12848.3
700141376,0.634772,2.223,114.72,0.304341,0.0573065,0.95265,1.70411,-1.20032,-0.0546827,-0.181995,4.09491,0.897279,0,-0.9,0,11764,48.946,26.25,12848.3
700241713,0.634772,2.223,114.686,0.228577,0.037769,0.945755,1.41397,-0.993067,-0.103491,0.0872375,3.26988,0.631157,0,-0.9,0,11764,48.946,26.25,12848.3
700342040,0.634772,2.223,114.647,0.168367,0.0306877,0.944299,1.19977,-0.799213,-0.103484,0.379078,2.54992,0.667719,0,-0.9,0,11764,48.946,26.25,12848.3
700442296,0.634772,2.223,114.626,0.116882,0.0350666,0.945303,1.02805,-0.639491,-0.10843,0.32977,2.02409,0.414646,0,-0.9,0,11764,48.946,26.25,12848.3
700542623,0.634772,2.223,114.609,0.0666151,0.046795,0.945985,0.885458,-0.513639,-0.0815297,0.19433,1.50968,0.381021,0,-0.9,0,11764,48.946,26.25,12848.3
700642960,0.634772,2.223,114.589,0.0273932,0.0534607,0.945622,0.780038,-0.427892,-0.0675983,0.171063,0.992796,0.325847,0,-0.9,0,11764,48.803,29.163,14232.4
700743305,0.634772,2.223,114.574,-0.00301879,0.0567995,0.944813,0.703543,-0.364128,-0.0435786,0.12106,0.702114,0.691313,0,-0.9,0,11764,48.803,29.163,14232.4
700843659,0.634772,2.223,114.571,-0.0243568,0.0606057,0.944136,0.648661,-0.322976,-0.00843064,0.124814,0.383965,0.294427,0,-0.9,0,11764,48.803,29.163,14232.4
700944046,0.634772,2.223,114.572,-0.0399763,0.0632393,0.943268,0.605433,-0.29403,-0.00493214,0.0205051,0.16702,-0.0656283,0,-0.9,0,11764,48.803,29.163,14232.4
701044407,0.634772,2.223,114.571,-0.0540268,0.0637695,0.942878,0.574125,-0.289649,0.00650854,-0.069055,0.0824965,0.0277441,0,-0.9,0,11764,48.803,29.163,14232.4
701144699,0.634772,2.223,114.576,-0.0648343,0.0635011,0.942598,0.561279,-0.301141,0.0242326,-0.147272,-0.154906,-0.14497,0,-0.9,0,11764,48.803,29.163,14232.4
701245038,0.634772,2.223,114.59,-0.0681315,0.0630145,0.94231,0.559196,-0.30723,0.030155,-0.0416883,-0.1166,0.0794894,0,-0.9,0,11764,48.803,29.163,14232.4
701345337,0.634772,2.223,114.605,-0.0696957,0.0621978,0.942468,0.567129,-0.318778,0.0355091,-0.0232502,-0.232495,-0.0203163,0,-0.9,0,11764,48.803,29.163,14232.4
701445766,0.634772,2.223,114.618,-0.0689343,0.0618731,0.942542,0.573176,-0.33645,0.0368318,-0.0934524,-0.211239,-0.103901,0,-0.9,0,11764,48.803,29.163,14232.4
701546116,0.634772,2.223,114.627,-0.0675899,0.0594519,0.942725,0.580931,-0.346924,0.0306399,-0.0212886,-0.141248,-0.235883,0,0.7,0,11764,48.803,29.163,14232.4
701646490,0.634772,2.223,114.631,-0.0438105,0.0581818,0.941321,0.590197,-0.355861,0.0359309,0.0105961,-0.110113,0.363732,0,0.7,0,11764,48.797,28.535,13924.2
701746808,0.634772,2.223,114.631,0.0814031,0.0542366,0.948976,0.548041,-0.333365,0.0660574,-0.0347509,0.814991,-0.405606,0,0.7,0,11764,48.797,28.535,13924.2
701847191,0.634772,2.223,114.631,0.181586,0.0556456,0.952216,0.404396,-0.229323,0.00679017,-0.027217,1.92214,-0.0783814,0,0.7,0,11764,48.797,28.535,13924.2
701947533,0.634772,2.223,114.624,0.222228,0.057906,0.952039,0.188484,-0.0832761,-0.0150732,-0.0113952,2.6069,0.594924,0,0.7,0,11764,48.797,28.535,13924.2
702047838,0.634772,2.223,114.62,0.213079,0.0584314,0.95162,-0.0406819,0.0732181,-0.0119414,-0.0224287,2.70285,0.534538,0,0.7,0,11764,48.797,28.535,13924.2
702148196,0.634772,2.223,114.616,0.178097,0.0557304,0.949991,-0.234859,0.212745,-0.0190239,0.0704781,2.29099,0.225055,0,0.7,0,11764,48.797,28.535,13924.2
702248540,0.634772,2.223,114.605,0.124883,0.0536528,0.948611,-0.392456,0.331093,-0.024425,0.0964701,1.86888,0.288528,0,0.7,0,11764,48.797,28.535,13924.2
702348844,0.634772,2.223,114.597,0.0867346,0.0518934,0.947641,-0.509604,0.418317,-0.0168575,0.0425362,1.39393,0.238395,0,0.7,0,11764,48.797,28.535,13924.2
702449196,0.634772,2.223,114.597,0.0507701,0.0498709,0.946945,-0.598504,0.481887,-0.00720311,0.0103919,1.0526,0.0606313,0,0.7,0,11764,48.797,28.535,13924.2
702549496,0.634772,2.223,114.592,0.0283444,0.0500574,0.946319,-0.656063,0.528438,-0.01172,0.0759845,0.69457,0.136484,0,0.7,0,11764,48.797,28.535,13924.2
702649851,0.634772,2.223,114.584,0.0105061,0.0518067,0.945489,-0.699274,0.571231,-0.00494242,0.11306,0.564025,0.260209,0,0.7,0,11764,48.797,28.535,13924.2
702750196,0.634772,2.223,114.578,-0.00279026,0.0543333,0.945306,-0.730733,0.596671,0.00503338,0.0367491,0.348162,-0.052365,0,0.7,0,11764,49.018,23.552,11544.7
702850553,0.634772,2.223,114.578,-0.0142846,0.0562041,0.944914,-0.750292,0.615825,0.0147254,-0.0090115,0.224977,0.00931031,0,0.7,0,11764,49.018,23.552,11544.7
702950908,0.634772,2.223,114.582,-0.0212461,0.0596984,0.94473,-0.766515,0.622615,0.0166762,-0.052259,0.155838,-0.128551,0,0.7,0,11764,49.018,23.552,11544.7
703051236,0.634772,2.223,114.581,-0.0251593,0.0610443,0.944289,-0.770962,0.622483,0.0185799,-0.0584444,0.0406094,-0.00546855,0,0.7,0,11764,49.018,23.552,11544.7
703151568,0.634772,2.223,114.58,-0.0264117,0.0616969,0.944452,-0.780283,0.620012,0.0235767,-0.0976231,0.084955,0.0015683,0,0.7,0,11764,49.018,23.552,11544.7
703251965,0.634772,2.223,114.578,-0.0278196,0.0620381,0.94457,-0.777722,0.611363,0.0202926,-0.128987,0.0278567,-0.186109,0,0.7,0,11764,49.018,23.552,11544.7
703352382,0.634772,2.223,114.575,-0.0261987,0.0609582,0.944546,-0.775771,0.605477,0.0213773,-0.0518307,0.0373646,0.0551643,0,0.7,0,11764,49.018,23.552,11544.7
703452760,0.634772,2.223,114.562,-0.0245101,0.0601383,0.944548,-0.78238,0.603891,0.0237466,-0.106829,0.136191,-0.00779684,0,0.7,0,11764,49.018,23.552,11544.7
703553323,0.634772,2.223,114.557,-0.0243952,0.0586594,0.944507,-0.788652,0.599126,0.0258843,-0.0938155,0.112606,0.0612339,0,-3.9,0,11764,49.018,23.552,11544.7
703654829,0.634772,2.223,114.555,-0.0617778,0.0538376,0.944661,-0.789087,0.603355,0.0279138,-0.000253,0.165084,0.158244,0,-3.9,0,11764,49.018,23.552,11544.7
703755148,0.634772,2.223,114.554,-0.208291,0.039367,0.938412,-0.739278,0.566984,0.0571396,0.0362057,-0.819035,-0.0649547,0,-3.9,0,11764,48.986,24.354,11930.1
703855503,0.634772,2.223,114.559,-0.336832,0.0302029,0.938216,-0.552865,0.453878,0.0120628,0.197833,-2.19795,0.438334,0,-3.9,0,11764,48.986,24.354,11930.1
703956891,0.634772,2.223,114.563,-0.414664,0.02631,0.9395,-0.258561,0.275801,-0.00223871,0.265574,-3.09665,1.36343,0,-3.9,0,11764,48.986,24.354,11930.1
704063623,0.634772,2.223,114.556,-0.449103,0.0295104,0.938838,0.105609,0.053441,-0.00574029,0.372924,-3.75296,1.66639,0,-3.9,0,11764,48.986,24.354,11930.1
704163997,0.634772,2.223,114.546,-0.456549,0.0351334,0.937288,0.486367,-0.187589,-0.00424889,0.336511,-3.71518,2.18251,0,-3.9,0,11764,48.986,24.354,11930.1
704264401,0.634772,2.223,114.531,-0.449675,0.0407586,0.936031,0.868147,-0.436458,0.0146474,0.220206,-3.92572,1.81404,0,-3.9,0,11764,48.986,24.354,11930.1
704364736,0.634772,2.223,114.518,-0.440772,0.0501097,0.933439,1.22042,-0.679518,0.0215884,0.151692,-3.51763,2.05591,0,-3.9,0,11764,48.986,24.354,11930.1
704465101,0.634772,2.223,114.515,-0.43091,0.0591694,0.930692,1.62987,-0.971948,0.0314177,0.0348863,-3.54031,1.72495,0,-3.9,0,11764,48.986,24.354,11930.1
704565482,0.634772,2.223,114.516,-0.402057,0.0664956,0.929599,1.95074,-1.21617,0.0362119,-0.0641728,-3.38375,1.75248,0,-3.9,0,11764,48.986,24.354,11930.1
704665796,0.634772,2.223,114.517,-0.3528,0.0709239,0.930746,2.2193,-1.42324,0.054485,-0.0988233,-2.88247,1.08022,0,-3.9,0,11764,48.986,24.354,11930.1
704766960,0.634772,2.223,114.52,-0.301239,0.0769205,0.931242,2.4335,-1.59866,0.0572692,-0.148534,-2.32835,0.732914,0,-3.9,0,11719,48.968,24.737,12113.2
704869240,0.634772,2.223,114.532,-0.251433,0.0804383,0.932344,2.5996,-1.75452,0.0671696,-0.297235,-1.965,0.381778,0,-3.9,0,11719,48.968,24.737,12113.2
704969648,0.634772,2.223,114.545,-0.217825,0.0762706,0.933989,2.72159,-1.87779,0.066468,-0.254466,-1.45233,0.346136,0,-3.9,0,11719,48.968,24.737,12113.2
705070047,0.634772,2.223,114.554,-0.193149,0.0734697,0.935737,2.8195,-1.96941,0.0644713,-0.152602,-1.10702,0.190058,0,-3.9,0,11719,48.968,24.737,12113.2
705170449,0.634773,2.223,114.56,-0.171432,0.0684733,0.937354,2.89599,-2.04744,0.0553314,-0.164456,-0.92079,0.0177139,0,-3.9,0,11719,48.968,24.737,12113.2
705270854,0.634773,2.223,114.571,-0.153694,0.0639491,0.938942,2.95702,-2.10935,0.0558288,-0.108455,-0.716271,0.13094,0,-3.9,0,11719,48.968,24.737,12113.2
705371274,0.634773,2.223,114.584,-0.143223,0.0617003,0.940095,3.00756,-2.15289,0.053047,0.0127306,-0.599061,0.00303952,0,-3.9,0,11719,48.968,24.737,12113.2
705471641,0.634773,2.223,114.59,-0.135837,0.0592458,0.941121,3.03579,-2.18837,0.0510303,-0.0666075,-0.477984,-0.263104,0,-3.9,0,11719,48.968,24.737,12113.2
705571994,0.634773,2.223,114.591,-0.128885,0.0570306,0.941699,3.06118,-2.20921,0.02894,-0.0185018,-0.33617,-0.211669,0,-4.5,0,11719,48.968,24.737,12113.2
705672379,0.634773,2.223,114.589,-0.142151,0.056537,0.941796,3.09434,-2.22615,0.0354174,0.130963,-0.251485,0.685101,0,-4.5,0,11719,48.968,24.737,12113.2
705772725,0.634773,2.223,114.593,-0.171963,0.0544444,0.940399,3.13588,-2.26178,0.0424285,0.00401133,-0.69016,-0.313969,0,-4.5,0,11719,48.933,25.136,12299.8
705873061,0.634773,2.223,114.586,-0.194498,0.0531802,0.939951,3.20004,-2.30323,0.00486561,0.0515377,-0.899418,-0.000669092,0,-4.5,0,11719,48.933,25.136,12299.8
705973365,0.634773,2.223,114.573,-0.205158,0.0533828,0.93956,3.28453,-2.36011,-0.00799567,0.0483293,-1.13851,0.100561,0,-4.5,0,11719,48.933,25.136,12299.8
706073741,0.634773,2.223,114.567,-0.196292,0.0521486,0.939984,3.37107,-2.42305,-0.00527207,0.0308689,-1.11008,0.237531,0,-4.5,0,11719,48.933,25.136,12299.8
706174103,0.634773,2.223,114.57,-0.181817,0.0513318,0.940683,3.4427,-2.46974,0.00270721,0.123718,-0.889542,0.389677,0,-4.5,0,11719,48.933,25.136,12299.8
706274454,0.634773,2.223,114.557,-0.168413,0.0528646,0.940726,3.51212,-2.50486,0.0123058,0.129205,-0.845998,0.254725,0,-4.5,0,11719,48.933,25.136,12299.8
706374817,0.634773,2.223,114.534,-0.156719,0.0548823,0.940583,3.56149,-2.541,0.0156318,-0.0299513,-0.645481,0.248687,0,-4.5,0,11719,48.933,25.136,12299.8
706475173,0.634773,2.223,114.531,-0.144416,0.056503,0.940441,3.61007,-2.57266,0.021983,0.0447905,-0.614791,0.21626,0,-4.5,0,11719,48.933,25.136,12299.8
706575550,0.634773,2.223,114.531,-0.136009,0.0594113,0.940684,3.64367,-2.59189,0.0432123,0.06566,-0.404961,0.207875,0,-4.5,0,11719,48.933,25.136,12299.8
706675915,0.634773,2.223,114.524,-0.130166,0.0601519,0.940896,3.66697,-2.61095,0.0434793,0.00932712,-0.371486,0.205487,0,-4.5,0,11719,48.933,25.136,12299.8
706776312,0.634773,2.223,114.524,-0.124358,0.0570365,0.941279,3.68656,-2.63271,0.066604,0.00768034,-0.258822,0.335805,0,-4.5,0,11719,48.881,28.887,14120.3
706876664,0.634773,2.223,114.539,-0.125103,0.0567641,0.94145,3.70021,-2.64393,0.0670148,-0.00938783,-0.268783,-0.141011,0,-4.5,0,11719,48.881,28.887,14120.3
706976971,0.634773,2.223,114.554,-0.125086,0.0571589,0.941158,3.71801,-2.6552,0.051618,0.061614,-0.261858,-0.0294591,0,-4.5,0,11719,48.881,28.887,14120.3
707077317,0.634774,2.223,114.557,-0.120879,0.0573432,0.941271,3.72627,-2.67415,0.0449117,-0.099398,-0.240786,-0.205938,0,-4.5,0,11719,48.881,28.887,14120.3
707177684,0.634774,2.223,114.558,-0.117248,0.0579275,0.941375,3.73436,-2.68973,0.0384663,-0.0615139,-0.192895,0.017822,0,-4.5,0,11719,48.881,28.887,14120.3
707278822,0.634774,2.223,114.563,-0.11431,0.0567329,0.941769,3.74595,-2.70343,0.0387508,-0.0202226,-0.22927,0.0236357,0,-4.5,0,11719,48.881,28.887,14120.3
707387625,0.634774,2.223,114.573,-0.111768,0.0533799,0.941698,3.74855,-2.72105,0.0343026,-0.0548541,-0.128152,-0.0354879,0,-4.5,0,11719,48.881,28.887,14120.3
707488058,0.634774,2.223,114.577,-0.108103,0.0495898,0.942306,3.75476,-2.7176,0.0323569,0.115583,-0.108236,-0.00371797,0,-4.5,0,11719,48.881,28.887,14120.3
707588495,0.634774,2.223,114.579,-0.107331,0.0505402,0.941854,3.75865,-2.71591,0.0354576,0.0259199,-0.121751,-0.17739,0,1.7,0,11719,48.881,28.887,14120.3
707688819,0.634774,2.223,114.579,-0.0824948,0.0504992,0.940179,3.75991,-2.71902,0.0237864,0.0139086,-0.0612974,0.476458,0,1.7,0,11719,48.881,28.887,14120.3
707790261,0.634774,2.223,114.584,0.122923,0.0369722,0.94891,3.71214,-2.68462,0.100758,0.0975623,0.926806,0.80668,0,1.7,0,11719,48.881,28.887,14120.3
707893877,0.634774,2.223,114.597,0.316673,0.0300512,0.951578,3.45617,-2.46875,0.104512,0.278027,3.44109,0.347387,0,1.7,0,11719,48.881,28.887,14120.3
707994242,0.634774,2.223,114.606,0.402517,0.0290827,0.951463,3.1069,-2.18415,0.0589498,0.298757,4.27918,1.60666,0,1.7,0,11719,48.881,28.887,14120.3
708094592,0.634774,2.223,114.61,0.444498,0.0274555,0.950643,2.69156,-1.8586,0.0347386,0.21652,4.92612,1.5983,0,1.7,0,11719,48.881,28.887,14120.3
708194923,0.634774,2.223,114.604,0.463749,0.0225446,0.947975,2.25658,-1.52606,-0.00928086,0.119178,4.93868,2.22186,0,1.7,0,11719,48.881,28.887,14120.3
708295209,0.634774,2.223,114.59,0.471177,0.0126913,0.943115,1.80861,-1.17615,-0.0352975,0.221369,5.01441,2.33867,0,1.7,0,11719,48.881,28.887,14120.3
708395571,0.634774,2.223,114.576,0.482961,0.00839547,0.940441,1.36133,-0.804247,-0.0520217,0.390639,5.14189,2.57772,0,1.7,0,11719,48.881,28.887,14120.3
708495932,0.634774,2.223,114.56,0.488668,0.017638,0.942823,0.900583,-0.41181,-0.0672313,0.400087,5.2631,2.58069,0,1.7,0,11719,48.881,28.887,14120.3
708596311,0.634774,2.223,114.549,0.465995,0.0367683,0.947718,0.422624,-0.0283419,-0.0820609,0.260674,5.26449,2.68319,0,1.7,0,11719,48.881,28.887,14120.3
708696641,0.634774,2.223,114.543,0.388025,0.0492682,0.948978,-0.0465056,0.320578,-0.0488839,0.0974845,4.83702,2.62244,0,1.7,0,11719,48.881,28.887,14120.3
708796965,0.634774,2.223,114.548,0.294531,0.0589302,0.949227,-0.425824,0.600269,-0.0117007,0.0182564,4.06986,1.50105,0,1.7,0,11719,48.942,24.985,12228.2
708897271,0.634774,2.223,114.554,0.20379,0.0668444,0.949284,-0.713718,0.800194,0.0141599,-0.0918398,3.01258,0.869052,0,1.7,0,11719,48.942,24.985,12228.2
708997637,0.634774,2.223,114.575,0.129881,0.072742,0.949776,-0.924733,0.928833,0.031243,-0.232671,2.1084,0.261906,0,1.7,0,11719,48.942,24.985,12228.2
709098030,0.634774,2.223,114.596,0.0758367,0.0768353,0.949628,-1.05911,1.00552,0.0303119,-0.197152,1.30395,0.054471,0,1.7,0,11719,48.942,24.985,12228.2
709198411,0.634774,2.223,114.601,0.0411621,0.079944,0.950069,-1.15496,1.04607,0.038533,-0.269329,0.796643,-0.143069,0,1.7,0,11719,48.942,24.985,12228.2
709298752,0.634774,2.223,114.61,0.0205811,0.0789559,0.949547,-1.22616,1.06021,0.0355,-0.328294,0.523748,0.00207489,0,1.7,0,11719,48.942,24.985,12228.2
709399110,0.634774,2.223,114.615,0.00793641,0.0738397,0.948926,-1.27828,1.06615,0.0404575,-0.310071,0.337808,0.0315166,0,1.7,0,11719,48.942,24.985,12228.2
709499472,0.634774,2.223,114.614,0.00221235,0.0681578,0.948481,-1.31313,1.05997,0.0232086,-0.255494,0.263731,-0.168217,0,1.7,0,11719,48.942,24.985,12228.2
709599869,0.634774,2.223,114.606,0.000610026,0.0638828,0.948117,-1.33943,1.05928,0.0189091,-0.15662,0.291802,0.0715685,0,0.8,0,11719,48.942,24.985,12228.2
709701006,0.634774,2.223,114.596,-0.0116228,0.0598031,0.948644,-1.36129,1.06377,0.021521,-0.0979052,0.267305,-0.0263215,0,0.8,0,11719,48.942,24.985,12228.2
709809420,0.634774,2.223,114.587,-0.0841853,0.0552181,0.944421,-1.3548,1.04851,0.0290459,-0.0630923,-0.279767,-0.141194,0,0.8,0,11719,48.979,24.251,11877.9
709909808,0.634774,2.223,114.573,-0.133938,0.0536854,0.942858,-1.28707,0.987392,-0.00689006,-0.12336,-0.823001,0.0356094,0,0.8,0,11719,48.979,24.251,11877.9
710010225,0.634774,2.223,114.564,-0.155698,0.0537356,0.942685,-1.17568,0.90265,-0.00310369,-0.00460404,-1.18721,0.472449,0,0.8,0,11719,48.979,24.251,11877.9
710110630,0.634774,2.223,114.559,-0.14726,0.0553238,0.942975,-1.04098,0.805005,0.00565942,-0.0354559,-1.39331,0.114075,0,0.8,0,11719,48.979,24.251,11877.9
710211016,0.634774,2.223,114.551,-0.122893,0.0547638,0.943772,-0.935114,0.718259,0.0115106,-0.0657711,-1.08473,0.294097,0,0.8,0,11719,48.979,24.251,11877.9
710311219,0.634774,2.223,114.54,-0.0984202,0.0536468,0.944414,-0.853268,0.64585,0.0163332,-0.0709674,-0.839571,0.180517,0,0.8,0,11719,48.979,24.251,11877.9
710411556,0.634774,2.223,114.542,-0.0766515,0.0547692,0.944328,-0.791824,0.59523,0.0209455,-0.0236346,-0.494483,0.325817,0,0.8,0,11719,48.979,24.251,11877.9
710513447,0.634774,2.223,114.548,-0.0575511,0.0552198,0.944534,-0.747645,0.553052,0.0294959,-0.0991544,-0.321711,0.131799,0,0.8,0,11719,48.979,24.251,11877.9
710613799,0.634774,2.223,114.555,-0.0416812,0.0540269,0.94452,-0.718201,0.519381,0.0317484,-0.090693,-0.201554,-0.17515,0,0.8,0,11719,48.979,24.251,11877.9
710714151,0.634774,2.223,114.559,-0.0295623,0.053491,0.944667,-0.697852,0.500026,0.0420106,-0.0109617,-0.0175783,0.0251494,0,0.8,0,11719,48.979,24.251,11877.9
710814553,0.634774,2.223,114.572,-0.0202463,0.0539586,0.94494,-0.683865,0.488701,0.043968,-0.0274555,0.0763234,-0.200341,0,0.8,0,11719,48.979,24.251,11877.9
710914881,0.634774,2.223,114.583,-0.0162317,0.0538578,0.94497,-0.68642,0.474274,0.035235,-0.104596,0.112303,-0.254988,0,0.8,0,11719,48.979,24.251,11877.9
711015247,0.634774,2.223,114.579,-0.01444,0.0528663,0.945466,-0.69001,0.464118,0.0296957,-0.1036,0.120184,-0.0614897,0,0.8,0,11719,48.979,24.251,11877.9
711115601,0.634774,2.223,114.575,-0.0150184,0.0499548,0.945511,-0.70134,0.458606,0.0326232,-0.0969739,0.166819,-0.0876255,0,0.8,0,11719,48.979,24.251,11877.9
711215971,0.634774,2.223,114.583,-0.016325,0.0472521,0.945758,-0.715981,0.460329,0.0355881,-0.0390203,0.226971,0.0367158,0,0.8,0,11719,48.979,24.251,11877.9
711316379,0.634774,2.223,114.589,-0.0187384,0.0463924,0.945629,-0.720037,0.455103,0.0301665,-0.078962,0.0622466,-0.209154,0,0.8,0,11719,48.979,24.251,11877.9
711417571,0.634774,2.223,114.589,-0.0185903,0.0445294,0.945846,-0.720935,0.451995,0.0253317,-0.0342176,0.0409269,-0.111433,0,0.8,0,11719,48.903,25.686,12561.2
711518819,0.634774,2.223,114.595,-0.0201168,0.0432471,0.945697,-0.728212,0.452389,0.0262229,-0.0328847,0.0959222,-0.0265418,0,0.8,0,11719,48.903,25.686,12561.2
711619176,0.634774,2.223,114.606,-0.0218681,0.0429015,0.945784,-0.73153,0.458319,0.0261017,0.0442761,0.136639,-0.0234035,0,4.4,0,11719,48.903,25.686,12561.2
711719538,0.634774,2.223,114.614,-0.0114702,0.0413132,0.944733,-0.736896,0.454192,0.0209208,-0.0572638,0.0792436,-0.145442,0,4.4,0,11719,48.903,25.686,12561.2
711820631,0.634774,2.223,114.618,0.137804,0.0307301,0.949018,-0.753843,0.460891,0.064928,0.0116728,0.449349,0.0874467,0,4.4,0,11719,48.903,25.686,12561.2
711922172,0.634774,2.223,114.621,0.284957,0.0260385,0.951938,-0.908427,0.590286,0.0163869,0.210314,2.24528,-0.222322,0,4.4,0,11719,48.903,25.686,12561.2
712022543,0.634774,2.223,114.612,0.377409,0.0262539,0.951977,-1.17628,0.80492,-0.0312823,0.21679,3.36627,1.03814,0,4.4,0,11719,48.903,25.686,12561.2
712122873,0.634774,2.223,114.601,0.421915,0.0278958,0.951996,-1.52452,1.07829,-0.0311311,0.184972,4.04496,1.86684,0,4.4,0,11719,48.903,25.686,12561.2
712223236,0.634774,2.223,114.598,0.433514,0.0308035,0.952167,-1.90497,1.37111,-0.0335436,0.175746,4.34159,2.03162,0,4.4,0,11719,48.903,25.686,12561.2
712323562,0.634774,2.223,114.591,0.400378,0.0352303,0.952077,-2.28652,1.66798,-0.0262411,0.197022,4.26237,2.064,0,4.4,0,11719,48.903,25.686,12561.2
712423930,0.634774,2.223,114.584,0.335584,0.0395445,0.952043,-2.63245,1.93064,0.000248096,0.139052,3.8093,1.65411,0,4.4,0,11719,48.823,26.347,12863.4
712524340,0.634774,2.223,114.576,0.264299,0.0429835,0.951859,-2.89725,2.13509,0.0147132,0.118724,3.04927,0.77444,0,4.4,0,11719,48.823,26.347,12863.4
712624671,0.634773,2.223,114.578,0.200175,0.046991,0.951974,-3.09818,2.28351,0.0250814,0.00979763,2.21129,0.636722,0,4.4,0,11719,48.823,26.347,12863.4
712724962,0.634773,2.223,114.584,0.151395,0.0499997,0.951939,-3.25348,2.39285,0.0389214,-0.0180832,1.70846,0.240608,0,4.4,0,11719,48.823,26.347,12863.4
712825378,0.634773,2.223,114.598,0.115589,0.0515218,0.951645,-3.37329,2.47288,0.0346682,-0.0862535,1.23919,0.0755262,0,4.4,0,11719,48.823,26.347,12863.4
712925779,0.634773,2.223,114.612,0.0862073,0.0504569,0.951305,-3.4615,2.53179,0.0409164,-0.0351347,0.893105,0.0391213,0,4.4,0,11719,48.823,26.347,12863.4
713026083,0.634773,2.223,114.628,0.0670041,0.0509965,0.950659,-3.5364,2.57723,0.036836,-0.121593,0.59608,-0.165865,0,4.4,0,11719,48.823,26.347,12863.4
713126453,0.634773,2.223,114.644,0.0555848,0.0511847,0.950441,-3.57507,2.60591,0.034795,-0.0157916,0.408037,0.014583,0,4.4,0,11719,48.823,26.347,12863.4
713226824,0.634773,2.223,114.648,0.0475425,0.0516316,0.949891,-3.60294,2.62644,0.0296403,-0.0382107,0.355521,-0.283551,0,4.4,0,11719,48.823,26.347,12863.4
713327152,0.634773,2.223,114.652,0.042468,0.0503086,0.949754,-3.62706,2.63545,0.0206494,-0.0435531,0.23931,-0.241074,0,4.4,0,11719,48.823,26.347,12863.4
713427597,0.634773,2.223,114.65,0.0403139,0.0492493,0.949362,-3.64284,2.63799,0.00407424,-0.0864772,0.158917,-0.162464,0,4.4,0,11719,48.843,26.175,12784.7
713529693,0.634773,2.223,114.645,0.0397267,0.0471414,0.949068,-3.6549,2.65316,-0.00916722,0.0733512,0.219648,0.0523759,0,4.4,0,11719,48.843,26.175,12784.7
713630224,0.634773,2.223,114.639,0.0376112,0.0454907,0.948601,-3.65921,2.65779,-0.0123323,0.0160808,0.134565,0.099293,0,2.7,0,11719,48.843,26.175,12784.7
713730633,0.634773,2.223,114.635,0.0129735,0.043714,0.949533,-3.67507,2.65698,-4.32786e-05,0.00529631,0.288302,0.469963,0,2.7,0,11719,48.843,26.175,12784.7
713831044,0.634773,2.223,114.636,-0.100338,0.0412365,0.943996,-3.64713,2.63689,0.0374264,0.0137646,-0.498763,0.207973,0,2.7,0,11719,48.843,26.175,12784.7
713931408,0.634773,2.223,114.641,-0.19131,0.0432259,0.941717,-3.51114,2.53862,0.00641934,-0.0177331,-1.72329,-0.19328,0,2.7,0,11719,48.843,26.175,12784.7
714031723,0.634773,2.223,114.647,-0.230039,0.0439632,0.941706,-3.30967,2.39871,-0.00680615,0.0652316,-2.3354,0.401174,0,2.7,0,11719,48.843,26.175,12784.7
714132155,0.634773,2.223,114.65,-0.22424,0.0442458,0.942886,-3.09564,2.24698,-0.0128385,0.0472158,-2.43189,0.391565,0,2.7,0,11719,48.843,26.175,12784.7
714232515,0.634773,2.223,114.651,-0.19273,0.042665,0.9445,-2.89984,2.09743,-0.0202546,-0.0125784,-2.27924,0.461788,0,2.7,0,11719,48.843,26.175,12784.7
714332889,0.634773,2.223,114.651,-0.152532,0.0414567,0.944847,-2.74658,1.97947,-0.0198435,-0.0456467,-1.77565,0.136952,0,2.7,0,11719,48.843,26.175,12784.7
714433240,0.634773,2.223,114.651,-0.112332,0.0408281,0.945448,-2.61853,1.88484,-0.0295815,-0.023097,-1.38332,0.103816,0,2.7,0,11719,48.801,28.591,13952.7
714533614,0.634772,2.223,114.65,-0.0765007,0.042459,0.945919,-2.51781,1.81661,-0.0222063,0.0421822,-1.01987,0.340645,0,2.7,0,11719,48.801,28.591,13952.7
714633973,0.634772,2.223,114.655,-0.0501698,0.0447216,0.945878,-2.44844,1.76573,-0.0123053,-0.00297864,-0.652271,-0.112793,0,2.7,0,11719,48.801,28.591,13952.7
714734325,0.634772,2.223,114.658,-0.0275667,0.0472214,0.945822,-2.40032,1.72955,-0.0180161,-0.0439284,-0.412106,-0.219855,0,2.7,0,11719,48.801,28.591,13952.7
714834692,0.634772,2.223,114.654,-0.0125177,0.047605,0.946003,-2.37064,1.70703,-0.0262253,-0.00752154,-0.170763,0.0346215,0,2.7,0,11719,48.801,28.591,13952.7
714935038,0.634772,2.223,114.653,-0.00455987,0.0467656,0.945961,-2.3561,1.6888,-0.0133597,-0.0534191,-0.0731585,-0.00546096,0,2.7,0,11719,48.801,28.591,13952.7
715035422,0.634772,2.223,114.653,0.000902972,0.0455751,0.946252,-2.33999,1.68036,-0.0100883,0.0388401,-0.0351652,-0.219344,0,2.7,0,11719,48.801,28.591,13952.7
715135787,0.634772,2.223,114.653,0.00617627,0.0458702,0.946457,-2.33431,1.67095,-0.0129337,-0.015563,0.0592943,-0.0462101,0,2.7,0,11719,48.801,28.591,13952.7
715236216,0.634772,2.223,114.656,0.00871286,0.0456032,0.946301,-2.33181,1.66078,-0.00494067,-0.0376763,-0.0115452,0.0845338,0,2.7,0,11719,48.801,28.591,13952.7
715336555,0.634772,2.223,114.662,0.0113376,0.0447039,0.94639,-2.3381,1.65764,-0.00100032,-0.0236118,0.0852892,0.0021404,0,2.7,0,11719,48.801,28.591,13952.7
715436925,0.634772,2.223,114.664,0.0109763,0.0430869,0.946233,-2.34217,1.65719,-0.00683616,0.0283984,0.0811142,-0.0950096,0,2.7,0,11719,48.801,28.591,13952.7
715537334,0.634772,2.223,114.66,0.00956463,0.0421405,0.946199,-2.35256,1.65856,-0.00349264,-0.0180824,0.125937,-0.0476216,0,2.7,0,11675,48.834,25.636,12519.1
715637764,0.634772,2.223,114.655,0.00559102,0.0409477,0.945787,-2.3605,1.65969,-0.00706503,-0.0439751,0.12672,0.0510174,0,-4.1,0,11675,48.834,25.636,12519.1
715738605,0.634772,2.223,114.656,-0.00974265,0.0390853,0.946892,-2.36912,1.66073,-0.00463048,0.0346367,0.00415684,-0.0838854,0,-4.1,0,11675,48.834,25.636,12519.1
715840085,0.634772,2.223,114.649,-0.160005,0.0295396,0.94193,-2.35461,1.6547,0.0278594,0.0842087,-0.429124,0.16581,0,-4.1,0,11675,48.834,25.636,12519.1
715940457,0.634772,2.223,114.642,-0.306082,0.020722,0.940704,-2.17968,1.55226,-0.00302941,0.234765,-2.17874,0.104374,0,-4.1,0,11675,48.834,25.636,12519.1
716040796,0.634772,2.223,114.636,-0.398239,0.0161729,0.941295,-1.89228,1.37519,-0.0444521,0.272156,-3.25232,1.21223,0,-4.1,0,11675,48.834,25.636,12519.1
716141154,0.634772,2.223,114.625,-0.441747,0.0149848,0.94205,-1.52694,1.15143,-0.0445011,0.373096,-3.90516,1.84898,0,-4.1,0,11675,48.834,25.636,12519.1
716241534,0.634772,2.223,114.611,-0.453914,0.014757,0.94306,-1.13309,0.900111,-0.0406216,0.314586,-4.09492,2.14342,0,-4.1,0,11675,48.834,25.636,12519.1
716341899,0.634772,2.223,114.595,-0.449615,0.0167051,0.942669,-0.733272,0.656669,-0.0320677,0.430706,-4.07869,2.07979,0,-4.1,0,11675,48.834,25.636,12519.1
716442225,0.634772,2.223,114.581,-0.436475,0.0186527,0.942173,-0.345889,0.409899,-0.0257372,0.29848,-4.03112,1.97663,0,-4.1,0,11675,48.834,25.636,12519.1
716542522,0.634772,2.223,114.573,-0.421695,0.0208834,0.94184,0.0225288,0.166253,-0.0154796,0.22935,-3.79632,2.04701,0,-4.1,0,11631,48.831,25.781,12589.1
716642885,0.634772,2.223,114.57,-0.406508,0.0245806,0.940668,0.379484,-0.0637372,0.00448057,0.3157,-3.73461,1.5813,0,-4.1,0,11631,48.831,25.781,12589.1
716743637,0.634772,2.223,114.565,-0.395306,0.030236,0.9391,0.702775,-0.27977,0.0126495,0.197427,-3.30864,1.55062,0,-4.1,0,11631,48.831,25.781,12589.1
716843960,0.634772,2.223,114.567,-0.386403,0.035591,0.937506,1.01328,-0.493067,0.0123515,0.154059,-3.28659,1.43988,0,-4.1,0,11631,48.831,25.781,12589.1
716945138,0.634772,2.223,114.568,-0.379019,0.0413965,0.936087,1.3138,-0.708244,0.0165266,0.0620858,-3.1866,1.35541,0,-4.1,0,11631,48.831,25.781,12589.1
717047366,0.634772,2.223,114.564,-0.373064,0.0466902,0.934592,1.64983,-0.963246,0.0213374,0.0486474,-2.9928,1.32966,0,-4.1,0,11631,48.831,25.781,12589.1
717147720,0.634772,2.223,114.56,-0.369978,0.0513712,0.933218,1.91887,-1.17492,0.0201877,-0.0614752,-2.97495,1.15054,0,-4.1,0,11631,48.831,25.781,12589.1
717248087,0.634772,2.223,114.561,-0.358102,0.0531378,0.933323,2.17261,-1.37971,0.0228918,-0.0647083,-2.85379,1.13393,0,-4.1,0,11631,48.831,25.781,12589.1
717348468,0.634772,2.223,114.564,-0.324752,0.0540831,0.934044,2.40184,-1.57338,0.0245243,-0.0673618,-2.56704,1.05718,0,-4.1,0,11631,48.831,25.781,12589.1
717448824,0.634772,2.223,114.561,-0.287597,0.0534181,0.935214,2.59664,-1.73871,0.0360918,-0.111654,-2.24269,0.763192,0,-4.1,0,11631,48.831,25.781,12589.1
717549178,0.634772,2.223,114.564,-0.252406,0.0525213,0.935808,2.75971,-1.88325,0.0503585,-0.107006,-1.99201,0.382768,0,-4.1,0,11631,48.821,26.074,12729.6
717649572,0.634772,2.223,114.572,-0.220717,0.0513938,0.936566,2.87811,-2.00125,0.0472072,-0.181011,-1.48073,0.416073,0,2.6,0,11631,48.821,26.074,12729.6
717749931,0.634772,2.223,114.581,-0.181545,0.0486689,0.935732,2.97672,-2.09283,0.0515788,-0.0193662,-1.23523,0.559755,0,2.6,0,11631,48.821,26.074,12729.6
717850243,0.634772,2.223,114.589,0.082912,0.0366958,0.946826,3.0305,-2.14482,0.135319,0.0300461,-0.339036,0.585659,0,2.6,0,11631,48.821,26.074,12729.6
717950606,0.634772,2.223,114.606,0.303149,0.0287064,0.950844,2.82143,-1.98096,0.135582,0.182856,3.00012,0.00982684,0,2.6,0,11631,48.821,26.074,12729.6
718050962,0.634772,2.223,114.621,0.436446,0.0289089,0.951529,2.45963,-1.70903,0.0434557,0.164832,4.42214,1.19368,0,2.6,0,11631,48.821,26.074,12729.6
718151329,0.634772,2.223,114.624,0.489336,0.0254725,0.950332,2.00049,-1.3668,0.00270174,0.169618,5.26368,2.10665,0,2.6,0,11631,48.821,26.074,12729.6
718251741,0.634773,2.223,114.631,0.52467,0.021254,0.948513,1.49875,-1.00585,-0.0323063,0.0554619,5.44673,2.66236,0,2.6,0,11631,48.821,26.074,12729.6
718352111,0.634773,2.223,114.637,0.532843,0.012967,0.943495,0.971337,-0.610326,-0.0599387,0.198921,5.58581,2.96369,0,2.6,0,11631,48.821,26.074,12729.6
718452471,0.634773,2.223,114.613,0.524469,0.0120263,0.940835,0.454569,-0.191789,-0.0825611,0.380013,5.47777,3.18251,0,2.6,0,11631,48.821,26.074,12729.6
718552806,0.634773,2.223,114.588,0.505328,0.019457,0.942851,-0.0569228,0.231184,-0.0725216,0.465133,5.35184,3.16286,0,2.6,0,11631,48.719,29.87,14552.4
718653100,0.634772,2.223,114.585,0.443761,0.0322911,0.946147,-0.565153,0.628834,-0.0537984,0.300943,5.23504,2.89372,0,2.6,0,11631,48.719,29.87,14552.4
718753449,0.634772,2.223,114.588,0.347017,0.0454649,0.948248,-0.991039,0.950154,-0.0077065,0.163864,4.27687,1.98367,0,2.6,0,11631,48.719,29.87,14552.4
718853797,0.634772,2.223,114.588,0.250894,0.0530416,0.948933,-1.32173,1.17719,0.00415157,-0.071702,3.27034,1.05356,0,2.6,0,11631,48.719,29.87,14552.4
718954149,0.634772,2.223,114.59,0.166064,0.0609511,0.950137,-1.55657,1.34068,0.017243,-0.0632081,2.28451,0.470667,0,2.6,0,11631,48.719,29.87,14552.4
719054481,0.634772,2.223,114.607,0.0987135,0.0673915,0.950811,-1.73004,1.44362,0.0201532,-0.191477,1.47741,0.293397,0,2.6,0,11631,48.719,29.87,14552.4
719154764,0.634772,2.223,114.621,0.057023,0.0692857,0.950409,-1.84603,1.49399,0.0268056,-0.299422,0.817591,0.140899,0,2.6,0,11631,48.719,29.87,14552.4
719255088,0.634772,2.223,114.621,0.0316192,0.0675686,0.949925,-1.92995,1.52534,0.0373979,-0.253437,0.52898,0.101612,0,2.6,0,11631,48.719,29.87,14552.4
719355492,0.634772,2.223,114.624,0.01762,0.0646686,0.949235,-1.98549,1.5423,0.0190935,-0.210701,0.303291,-0.153207,0,2.6,0,11631,48.719,29.87,14552.4
719455875,0.634772,2.223,114.633,0.0102232,0.0618989,0.948663,-2.02392,1.5487,0.0216217,-0.147355,0.236003,-0.0870144,0,2.6,0,11631,48.719,29.87,14552.4
719556267,0.634772,2.223,114.645,0.00400553,0.0587049,0.948314,-2.06675,1.54339,0.0186202,-0.2886,0.22286,-0.226144,0,2.6,0,11631,48.689,28.033,13649
719658379,0.634772,2.223,114.648,-0.000121697,0.053014,0.948088,-2.0929,1.53965,0.0118718,-0.187439,0.184625,0.00568219,0,2.4,0,11631,48.689,28.033,13649
719759988,0.634772,2.223,114.645,-0.00727639,0.0495599,0.947656,-2.10585,1.53347,0.00831993,-0.105075,0.0803776,-0.0647098,0,2.4,0,11631,48.689,28.033,13649
719860389,0.634772,2.223,114.645,-0.0294594,0.0467036,0.94674,-2.11101,1.52909,0.00359787,-0.0437179,-0.0365809,0.0495299,0,2.4,0,11631,48.689,28.033,13649
719960748,0.634772,2.223,114.645,-0.0307367,0.0456311,0.946651,-2.09576,1.50772,-0.00527507,-0.105225,-0.132632,-0.0579652,0,2.4,0,11631,48.689,28.033,13649
720061092,0.634772,2.223,114.635,-0.0261323,0.0433851,0.946528,-2.07561,1.48201,-0.00866711,-0.122777,-0.151704,0.164705,0,2.4,0,11631,48.689,28.033,13649
720161430,0.634772,2.223,114.623,-0.0184269,0.0418996,0.946616,-2.05569,1.46083,-0.00752421,-0.0488927,-0.129877,0.0204163,0,2.4,0,11631,48.689,28.033,13649
720261800,0.634772,2.223,114.623,-0.0122007,0.0405293,0.946791,-2.03378,1.45498,-0.0110224,0.0595488,-0.040075,0.150956,0,2.4,0,11631,48.689,28.033,13649
720362179,0.634772,2.223,114.625,-0.0077454,0.0407149,0.946418,-2.02281,1.44553,-0.00361131,-0.0251502,0.0359952,0.0745536,0,2.4,0,11631,48.689,28.033,13649
720464483,0.634772,2.223,114.62,-0.00458289,0.0399089,0.946314,-2.01526,1.44314,-0.00750383,0.0545474,0.075421,-0.160227,0,2.4,0,11631,48.689,28.033,13649
720570653,0.634772,2.223,114.613,0.0014804,0.0401933,0.946661,-2.00363,1.43956,-0.00441294,0.0641303,0.122036,-0.0902581,0,2.4,0,11631,48.689,28.033,13649
720670995,0.634772,2.223,114.612,0.00386089,0.0406443,0.946388,-2.0005,1.44561,0.000106083,0.0716005,0.158821,0.0510877,0,2.4,0,11631,48.707,28.423,13844
720771364,0.634772,2.223,114.609,0.00470042,0.0406757,0.9464,-2.00273,1.44706,-0.00622493,0.0181813,0.191004,0.077608,0,2.4,0,11631,48.707,28.423,13844
720871731,0.634772,2.223,114.602,0.00341798,0.0395383,0.946372,-2.00615,1.44878,-0.000340054,0.0263621,0.172521,0.129237,0,2.4,0,11631,48.707,28.423,13844
720972105,0.634772,2.223,114.602,0.00254441,0.0393413,0.946507,-2.00661,1.44813,0.00784218,-0.013742,0.106051,0.0278932,0,2.4,0,11631,48.707,28.423,13844
721072538,0.634772,2.223,114.605,0.00399759,0.0391871,0.9465,-1.99604,1.45183,0.0120499,0.102064,0.0734701,0.186003,0,2.4,0,11631,48.707,28.423,13844
721173913,0.634772,2.223,114.605,0.00480022,0.0401444,0.946583,-2.00673,1.45212,0.00722036,-0.076084,0.237509,-0.102076,0,2.4,0,11631,48.707,28.423,13844
721274795,0.634772,2.223,114.606,0.00452588,0.0404996,0.946422,-2.01012,1.45259,0.00912364,0.00422014,0.173444,-0.0339906,0,2.4,0,11631,48.707,28.423,13844
721375166,0.634772,2.223,114.608,0.00308911,0.0402148,0.946364,-2.01503,1.45515,0.00802066,-0.0223431,0.14217,-0.127292,0,2.4,0,11631,48.707,28.423,13844
721475517,0.634772,2.223,114.609,0.0028677,0.0381371,0.946309,-2.01704,1.45588,0.0100442,0.0431493,0.112466,0.063686,0,2.4,0,11631,48.707,28.423,13844
721575870,0.634772,2.223,114.606,0.00237848,0.0379808,0.946433,-2.02374,1.46186,0.00150202,0.0231587,0.200341,-0.039515,0,2.4,0,11631,48.707,28.423,13844
721676331,0.634772,2.223,114.607,0.00312085,0.0382289,0.946354,-2.02198,1.46194,0.00999655,0.0158885,0.0938266,0.115746,0,5,0,11587,48.751,27.516,13414.3
721776668,0.634772,2.223,114.613,0.0343235,0.0389099,0.944886,-2.02611,1.46615,0.0114539,0.00730718,0.0503322,0.318428,0,5,0,11587,48.751,27.516,13414.3
721878615,0.634771,2.223,114.619,0.184827,0.0333902,0.950345,-2.06314,1.49592,0.0458182,0.0344606,0.843146,-0.145334,0,5,0,11587,48.751,27.516,13414.3
721984571,0.634771,2.223,114.629,0.314816,0.0318456,0.952326,-2.23971,1.62671,-0.0126201,0.0572378,2.47152,0.0436889,0,5,0,11587,48.751,27.516,13414.3
722089697,0.634771,2.223,114.631,0.383302,0.0310835,0.952208,-2.59438,1.88904,-0.0502904,0.0585346,3.65358,1.30003,0,5,0,11587,48.751,27.516,13414.3
722190083,0.634771,2.223,114.631,0.370124,0.0292027,0.950124,-2.94351,2.14177,-0.0345295,0.0784048,3.79358,1.76015,0,5,0,11587,48.751,27.516,13414.3
722290440,0.634771,2.223,114.628,0.319537,0.0306638,0.949773,-3.24417,2.37171,-0.00282058,0.0969813,3.40199,1.35523,0,5,0,11587,48.751,27.516,13414.3
722390767,0.634771,2.223,114.631,0.256445,0.0351656,0.950042,-3.47894,2.54699,0.0104863,0.027144,2.71469,0.737625,0,5,0,11587,48.751,27.516,13414.3
722491058,0.634771,2.223,114.634,0.198326,0.0370667,0.950144,-3.65927,2.67726,0.0153079,-0.0304746,2.0719,0.272422,0,5,0,11587,48.751,27.516,13414.3
