timestamp,lat,log,alt,roll,pitch,yaw,vel_x,vel_y,vel_z,acc_x,acc_y,acc_z,act_vx,act_vy,act_yr,capacity,vol,cur,power
2850410443,0.634769,2.223,91.5792,-0.0081455,8.69227e-06,0.895374,0.00224248,0.0343145,-0.00258131,0.0402684,-0.0317932,0.131561,3.1,1.6,0,12592,49.783,23.718,11807.5
2850510922,0.634769,2.223,91.5662,-0.00868916,-0.00178275,0.895145,0.00253897,0.0317496,-0.00219007,0.0047634,-0.0329911,0.241725,3.1,1.6,0,12592,49.783,23.718,11807.5
2850611299,0.634769,2.223,91.5503,-0.00608327,-0.00836317,0.89656,0.00592213,0.0359033,-0.0071364,0.0686141,-0.02332,0.0361208,3.1,1.6,0,12592,49.783,23.718,11807.5
2850711671,0.634769,2.223,91.5466,0.0533017,-0.126105,0.893768,0.000658486,0.040808,0.0269128,0.272648,0.178073,0.26362,3.1,1.6,0,12592,49.783,23.718,11807.5
2850812040,0.634769,2.223,91.5456,0.128117,-0.257342,0.879242,0.0440133,0.236181,-0.0103487,2.05666,0.954539,-0.132996,3.1,1.6,0,12592,49.733,24.622,12245.3
2850912402,0.634769,2.223,91.5448,0.175659,-0.337873,0.865173,0.107327,0.564278,-0.0386188,2.87452,1.42859,1.34683,3.1,1.6,0,12592,49.733,24.622,12245.3
2851012760,0.634769,2.223,91.5447,0.200216,-0.381298,0.855547,0.195079,0.999733,-0.0236908,3.61706,1.88561,1.691,3.1,1.6,0,12592,49.733,24.622,12245.3
2851113069,0.634769,2.223,91.5446,0.206182,-0.393183,0.852668,0.289529,1.46052,-0.0223523,3.72147,1.90025,2.13325,3.1,1.6,0,12592,49.733,24.622,12245.3
2851214212,0.634769,2.223,91.5284,0.186764,-0.357359,0.86008,0.391333,1.92478,0.00327086,3.72617,1.83122,2.18025,3.1,1.6,0,12592,49.733,24.622,12245.3
2851314640,0.634769,2.223,91.5162,0.15503,-0.303421,0.870378,0.48043,2.32091,0.033505,3.20043,1.56739,1.50765,3.1,1.6,0,12592,49.733,24.622,12245.3
2851414941,0.634769,2.223,91.5316,0.125775,-0.251396,0.878579,0.548595,2.63147,0.0425342,2.63568,1.28171,0.84398,-4.2,-1.6,0,12592,49.733,24.622,12245.3
2851515208,0.634769,2.223,91.5457,0.0854479,-0.175775,0.884764,0.601483,2.87737,0.0506507,1.99016,0.953134,0.955721,-4.2,-1.6,0,12592,49.733,24.622,12245.3
2851615529,0.634769,2.223,91.5581,-0.0349365,0.0791737,0.891248,0.643854,3.04572,0.122986,1.04406,0.45828,0.740749,-4.2,-1.6,0,12592,49.733,24.622,12245.3
2851715911,0.634769,2.223,91.584,-0.132788,0.273175,0.875921,0.583399,2.85791,0.113234,-2.23655,-0.981642,-0.279567,-4.2,-1.6,0,12592,49.733,24.622,12245.3
2851816322,0.634769,2.223,91.6038,-0.18351,0.372079,0.860198,0.491099,2.51164,0.0233786,-3.44178,-1.49135,0.879462,-4.2,-1.6,0,12592,49.733,24.622,12245.3
2851916693,0.634769,2.223,91.6144,-0.208607,0.422838,0.850325,0.36933,2.06027,7.58283e-05,-4.00588,-1.77768,1.91048,-4.2,-1.6,0,12592,49.717,24.995,12426.8
2852017059,0.634769,2.223,91.644,-0.221531,0.446327,0.847041,0.237232,1.56841,-0.0439111,-4.48462,-1.98334,1.61902,-4.2,-1.6,0,12592,49.717,24.995,12426.8
2852117413,0.634769,2.223,91.6751,-0.223085,0.446967,0.847221,0.103284,1.04422,-0.0666997,-4.42182,-2.04537,2.2984,-4.2,-1.6,0,12592,49.717,24.995,12426.8
2852217755,0.634769,2.223,91.679,-0.215278,0.436132,0.850628,-0.0355493,0.511782,-0.0509876,-4.30286,-1.94922,2.38821,-4.2,-1.6,0,12592,49.717,24.995,12426.8
2852318103,0.634769,2.223,91.6883,-0.204615,0.423614,0.854747,-0.167584,0.000939012,-0.0424319,-4.21629,-1.93143,2.16251,-4.2,-1.6,0,12592,49.717,24.995,12426.8
2852418468,0.634769,2.223,91.704,-0.1927,0.406405,0.859335,-0.294479,-0.490499,-0.0402777,-3.98563,-1.83953,1.99217,2.8,2.7,0,12592,49.717,24.995,12426.8
2852518912,0.634769,2.223,91.7091,-0.16523,0.362949,0.87138,-0.409448,-0.955631,-0.0412767,-3.8443,-1.70455,1.71414,2.8,2.7,0,12592,49.717,24.995,12426.8
2852619314,0.634769,2.223,91.6976,-0.0290408,0.12455,0.903476,-0.510959,-1.37684,-0.0274706,-3.13805,-1.41226,1.24239,2.8,2.7,0,12592,49.717,24.995,12426.8
2852719704,0.634769,2.223,91.6825,0.136747,-0.160042,0.88973,-0.544021,-1.42047,-0.00861303,0.210991,0.387734,0.013694,2.8,2.7,0,12592,49.717,24.995,12426.8
2852820091,0.634769,2.223,91.6622,0.235464,-0.306957,0.860082,-0.528807,-1.13653,-0.0675048,2.64014,1.88461,0.709323,2.8,2.7,0,12592,49.717,24.995,12426.8
2852920442,0.634769,2.223,91.6374,0.286356,-0.378326,0.839024,-0.49505,-0.699138,-0.097254,3.48485,2.36666,2.31111,2.8,2.7,0,12592,49.696,26.632,13235
2853020813,0.634769,2.223,91.6069,0.302174,-0.401915,0.829974,-0.440424,-0.163317,-0.105428,4.0104,2.65225,2.89339,2.8,2.7,0,12592,49.696,26.632,13235
2853121139,0.634769,2.223,91.5847,0.300892,-0.397817,0.829255,-0.386724,0.406756,-0.077662,4.08015,2.71092,3.1564,2.8,2.7,0,12592,49.696,26.632,13235
2853221491,0.634769,2.223,91.5587,0.29632,-0.384188,0.832143,-0.331297,0.959715,-0.0636707,4.02207,2.64772,2.83089,2.8,2.7,0,12592,49.696,26.632,13235
2853321916,0.634769,2.223,91.5374,0.29432,-0.369694,0.835521,-0.288509,1.49217,-0.0436132,3.78639,2.57508,2.7792,2.8,2.7,0,12592,49.696,26.632,13235
2853422340,0.634769,2.223,91.5519,0.288618,-0.349518,0.840632,-0.257877,2.00331,-0.0221381,3.54804,2.58214,2.32889,2,-0.9,0,12592,49.696,26.632,13235
2853522739,0.634769,2.223,91.5723,0.240799,-0.300668,0.856407,-0.237398,2.49119,0.000669084,3.29939,2.48835,1.89047,2,-0.9,0,12592,49.696,26.632,13235
2853623058,0.634769,2.223,91.5819,0.00881356,-0.216847,0.902567,-0.209893,2.90842,0.0904051,2.74537,1.84387,1.6935,2,-0.9,0,12592,49.696,26.632,13235
2853723478,0.634769,2.223,91.6023,-0.254302,-0.0905788,0.91188,-0.0231767,3.01867,0.143195,1.5091,-1.35273,0.0931558,2,-0.9,0,12592,49.696,26.632,13235
2853823810,0.634769,2.223,91.6385,-0.387566,-0.0223277,0.900343,0.251327,2.86924,0.0558959,0.25839,-3.39132,0.207957,2,-0.9,0,12592,49.696,26.632,13235
2853924196,0.634769,2.223,91.6663,-0.43078,0.0182319,0.887612,0.577599,2.60333,0.0111117,-0.32054,-4.19904,1.46581,2,-0.9,0,12547,49.547,27.923,13835
2854024555,0.634769,2.223,91.7064,-0.394176,0.0367567,0.880278,0.901272,2.30076,0.00181406,-0.49164,-4.15501,1.30131,2,-0.9,0,12547,49.547,27.923,13835
2854124917,0.634769,2.223,91.7416,-0.325768,0.0422885,0.878761,1.15468,2.01848,-0.0295152,-0.741101,-3.64782,0.754035,2,-0.9,0,12547,49.547,27.923,13835
2854225280,0.634769,2.223,91.7489,-0.256389,0.0374257,0.881013,1.34734,1.78719,-0.0481373,-0.643472,-2.8305,0.50744,2,-0.9,0,12547,49.547,27.923,13835
2854325630,0.634769,2.223,91.751,-0.203775,0.0256719,0.884969,1.49156,1.59481,-0.050719,-0.620449,-2.16961,0.559516,2,-0.9,0,12547,49.547,27.923,13835
2854426016,0.634769,2.223,91.7724,-0.162164,0.00979123,0.889779,1.61257,1.4389,-0.0437429,-0.479344,-1.79594,-0.129133,-1.1,1.2,0,12547,49.547,27.923,13835
2854526380,0.634769,2.223,91.7853,-0.119978,0.00699671,0.894069,1.72368,1.3021,-0.0623669,-0.185567,-1.25294,0.244954,-1.1,1.2,0,12547,49.547,27.923,13835
2854626703,0.634769,2.223,91.7691,0.0157261,0.155444,0.900427,1.75963,1.20682,-0.0112788,-0.867203,-0.37871,0.217053,-1.1,1.2,0,12547,49.547,27.923,13835
2854727076,0.634769,2.223,91.7604,0.149231,0.278746,0.919387,1.53133,1.05306,-0.0732657,-2.71928,1.15898,-0.0831044,-1.1,1.2,0,12547,49.547,27.923,13835
2854827369,0.634769,2.223,91.7634,0.229473,0.354018,0.938342,1.16797,0.897979,-0.117427,-3.30318,1.97855,1.41942,-1.1,1.2,0,12547,49.547,27.923,13835
2854927743,0.634769,2.223,91.7588,0.262283,0.385368,0.948108,0.708055,0.724432,-0.132585,-3.76527,2.38171,2.18732,-1.1,1.2,0,12547,49.508,28.57,14144.4
2855028117,0.634769,2.223,91.7623,0.256622,0.376984,0.946105,0.212116,0.536962,-0.124924,-3.96185,2.45018,2.2255,-1.1,1.2,0,12547,49.508,28.57,14144.4
2855128465,0.634769,2.223,91.7617,0.21452,0.325076,0.932377,-0.244615,0.374144,-0.101804,-3.47223,2.15106,2.11962,-1.1,1.2,0,12547,49.508,28.57,14144.4
2855228826,0.634769,2.223,91.7408,0.169616,0.264482,0.91969,-0.606759,0.244519,-0.090174,-2.8418,1.78258,1.17672,-1.1,1.2,0,12547,49.508,28.57,14144.4
2855329193,0.634769,2.223,91.7214,0.126912,0.197332,0.908829,-0.877089,0.137911,-0.0757846,-2.19342,1.21364,0.805097,-1.1,1.2,0,12547,49.508,28.57,14144.4
2855429644,0.634769,2.223,91.7207,0.099195,0.147241,0.902668,-1.07271,0.0755865,-0.0721927,-1.50801,1.00969,0.274888,2.5,4.4,0,12547,49.508,28.57,14144.4
2855530055,0.634769,2.223,91.7164,0.0863307,0.0901953,0.90081,-1.23537,0.0198014,-0.0658683,-1.26451,0.732661,0.324101,2.5,4.4,0,12547,49.508,28.57,14144.4
2855630394,0.634769,2.223,91.7061,0.162694,-0.0932147,0.892872,-1.34593,0.0268836,-0.0355685,-0.0708506,0.927131,0.162308,2.5,4.4,0,12547,49.508,28.57,14144.4
2855730801,0.634769,2.223,91.6934,0.236964,-0.221105,0.870368,-1.39486,0.254055,-0.0993327,1.70488,1.79915,0.0801323,2.5,4.4,0,12547,49.508,28.57,14144.4
2855831204,0.634769,2.223,91.6779,0.287512,-0.293944,0.849868,-1.42185,0.63187,-0.123405,2.68875,2.2568,1.72649,2.5,4.4,0,12547,49.508,28.57,14144.4
2855931526,0.634769,2.223,91.6612,0.31402,-0.324082,0.837801,-1.43418,1.10193,-0.0933383,3.25474,2.57267,2.25862,2.5,4.4,0,12547,49.522,32.38,16035.2
2856031941,0.634769,2.223,91.6484,0.324503,-0.329516,0.834385,-1.44387,1.59607,-0.0797661,3.32621,2.67975,2.37599,2.5,4.4,0,12547,49.522,32.38,16035.2
2856132376,0.634769,2.223,91.6338,0.324756,-0.320076,0.836304,-1.46216,2.0869,-0.057154,3.19423,2.70419,2.33739,2.5,4.4,0,12547,49.522,32.38,16035.2
2856234318,0.634769,2.223,91.6168,0.32536,-0.302386,0.840084,-1.48485,2.55841,-0.0427982,3.02788,2.64194,2.16061,2.5,4.4,0,12547,49.522,32.38,16035.2
2856334657,0.634769,2.223,91.6013,0.316826,-0.27119,0.847279,-1.52144,2.99982,-0.0335784,2.73921,2.63741,2.03067,2.5,4.4,0,12547,49.522,32.38,16035.2
2856436175,0.634769,2.223,91.5999,0.281253,-0.22517,0.859787,-1.57566,3.40795,-0.0182897,2.29157,2.53056,1.72968,0.3,3.4,0,12547,49.522,32.38,16035.2
2856537533,0.634769,2.223,91.6019,0.226337,-0.148991,0.872271,-1.62094,3.74161,-0.0041026,1.93709,2.08372,1.31416,0.3,3.4,0,12547,49.522,32.38,16035.2
2856637899,0.634769,2.223,91.6072,0.100024,0.0811051,0.889801,-1.67488,3.96899,0.0961234,0.733791,1.38396,1.12001,0.3,3.4,0,12547,49.522,32.38,16035.2
2856738256,0.634769,2.223,91.6313,0.0140626,0.212363,0.892543,-1.80231,3.85891,0.110358,-2.03285,0.163357,-0.513965,0.3,3.4,0,12547,49.522,32.38,16035.2
2856838630,0.634769,2.223,91.6634,-0.0188149,0.254248,0.894049,-1.91537,3.66923,0.0351379,-2.44892,-0.419889,0.214546,0.3,3.4,0,12547,49.522,32.38,16035.2
2856939000,0.634769,2.223,91.6791,-0.0285244,0.247885,0.897034,-2.02363,3.44214,0.0147018,-2.5945,-0.649363,0.234994,0.3,3.4,0,12547,49.522,32.38,16035.2
2857040895,0.634769,2.223,91.7033,-0.0277541,0.218264,0.899578,-2.1222,3.21909,-0.0211781,-2.46067,-0.677699,-0.133431,0.3,3.4,0,12547,49.517,26.624,13183.4
2857143577,0.634769,2.223,91.7272,-0.0096669,0.178217,0.902242,-2.19906,3.03141,-0.0432964,-2.01473,-0.555723,-0.108551,0.3,3.4,0,12547,49.517,26.624,13183.4
2857248425,0.634769,2.223,91.7155,-0.0024599,0.143329,0.902313,-2.27511,2.88268,-0.0408486,-1.6377,-0.361351,-0.0357717,0.3,3.4,0,12547,49.517,26.624,13183.4
2857348745,0.634769,2.223,91.713,0.00461371,0.114227,0.901439,-2.34629,2.7417,-0.0714599,-1.16883,-0.252709,-0.00544897,0.3,3.4,0,12547,49.517,26.624,13183.4
2857449153,0.634769,2.223,91.7075,0.0162482,0.0886665,0.900453,-2.38383,2.64975,-0.0761723,-0.885878,-0.156075,-0.130451,-4.3,4.9,0,12547,49.517,26.624,13183.4
2857549471,0.634769,2.223,91.7037,0.0285121,0.0797544,0.90077,-2.41965,2.57142,-0.0838448,-0.568963,-0.124246,0.373323,-4.3,4.9,0,12547,49.517,26.624,13183.4
2857649831,0.634769,2.223,91.7017,0.0592274,0.182674,0.90296,-2.48071,2.49175,-0.0540242,-1.22404,0.116264,-0.229714,-4.3,4.9,0,12547,49.517,26.624,13183.4
2857751842,0.634769,2.223,91.6916,0.0886998,0.297968,0.911304,-2.65642,2.32241,-0.0955518,-2.44352,0.406167,0.487069,-4.3,4.9,0,12547,49.517,26.624,13183.4
2857853708,0.634769,2.223,91.6741,0.110269,0.36741,0.920996,-2.91869,2.07898,-0.0989214,-3.16985,0.590199,1.38627,-4.3,4.9,0,12547,49.517,26.624,13183.4
2857954479,0.634769,2.223,91.6619,0.127821,0.394427,0.927782,-3.22864,1.79903,-0.0910818,-3.68007,0.740384,1.62213,-4.3,4.9,0,12547,49.517,26.624,13183.4
2858054873,0.634769,2.223,91.6535,0.136187,0.396019,0.930943,-3.5535,1.52314,-0.0830529,-3.65202,0.84813,1.77196,-4.3,4.9,0,12547,49.517,27.553,13643.4
2858159969,0.634768,2.223,91.6406,0.143437,0.387778,0.930983,-3.8797,1.25313,-0.0635731,-3.5638,0.819146,1.98088,-4.3,4.9,0,12547,49.517,27.553,13643.4
2858260369,0.634768,2.223,91.6388,0.153219,0.376938,0.929778,-4.19715,1.00502,-0.0433513,-3.43927,0.926699,1.52317,-4.3,4.9,0,12547,49.517,27.553,13643.4
2858360700,0.634768,2.223,91.6398,0.169556,0.371327,0.930414,-4.51426,0.778383,-0.042901,-3.30836,1.04172,1.58139,-4.3,4.9,0,12547,49.517,27.553,13643.4
2858461118,0.634768,2.223,91.6428,0.183358,0.362745,0.929944,-4.834,0.560325,-0.0382012,-3.24145,1.05413,1.55098,4.2,3.1,0,12547,49.517,27.553,13643.4
2858561467,0.634768,2.223,91.6527,0.186363,0.331102,0.924379,-5.15322,0.361302,-0.0311055,-3.13991,1.17612,1.38556,4.2,3.1,0,12547,49.517,27.553,13643.4
2858661824,0.634768,2.223,91.6656,0.126391,0.0945107,0.903714,-5.46314,0.188787,0.0188226,-2.74409,1.17172,1.10582,4.2,3.1,0,12547,49.517,27.553,13643.4
2858762192,0.634768,2.223,91.6789,0.0403831,-0.208282,0.896182,-5.4896,0.235562,0.0835584,0.774501,0.439673,0.393743,4.2,3.1,0,12547,49.517,27.553,13643.4
2858862537,0.634768,2.223,91.6843,-0.013332,-0.373781,0.902091,-5.25808,0.46198,0.0267374,3.44299,-0.37416,0.241863,4.2,3.1,0,12547,49.517,27.553,13643.4
2858962909,0.634768,2.223,91.6807,-0.042555,-0.453051,0.909408,-4.90863,0.785057,-0.0263595,4.43867,-0.657854,1.9299,4.2,3.1,0,12547,49.517,27.553,13643.4
2859063275,0.634768,2.223,91.6723,-0.0601789,-0.47723,0.912838,-4.48372,1.15319,-0.0529834,4.88857,-0.830338,2.48092,4.2,3.1,0,12547,49.517,27.553,13643.4
2859163627,0.634768,2.223,91.6337,-0.0760704,-0.473624,0.911618,-4.04621,1.51846,-0.0805917,4.92231,-0.976834,2.4084,4.2,3.1,0,12547,49.517,27.553,13643.4
2859263994,0.634768,2.223,91.6029,-0.0847907,-0.467261,0.911564,-3.60777,1.86514,-0.0844027,4.73841,-1.08993,2.56983,4.2,3.1,0,12547,49.517,27.553,13643.4
2859364384,0.634768,2.223,91.5963,-0.0887194,-0.464158,0.909581,-3.1601,2.19776,-0.0857762,4.58354,-1.13732,2.62071,4.2,3.1,0,12547,49.517,27.553,13643.4
2859464781,0.634768,2.223,91.5969,-0.0806596,-0.454357,0.907192,-2.72383,2.52627,-0.0902039,4.47211,-1.16213,2.34259,-2.7,-3.7,0,12547,49.517,27.553,13643.4
2859565117,0.634768,2.223,91.6018,-0.0723369,-0.425941,0.902584,-2.30233,2.85186,-0.0695713,4.16027,-1.10168,2.36006,-2.7,-3.7,0,12502,49.653,28.099,13952
2859665495,0.634767,2.223,91.6114,-0.164061,-0.242679,0.910591,-1.87646,3.18297,0.0555486,3.86743,-0.900683,3.53552,-2.7,-3.7,0,12502,49.653,28.099,13952
2859766994,0.634767,2.223,91.6544,-0.30272,0.0410887,0.886919,-1.46506,3.13758,0.224885,0.589817,-2.86992,1.33701,-2.7,-3.7,0,12502,49.653,28.099,13952
2859870308,0.634767,2.223,91.6934,-0.382311,0.22425,0.84679,-1.2707,2.77943,0.152679,-2.14735,-4.0742,-0.293411,-2.7,-3.7,0,12502,49.653,28.099,13952
2859970683,0.634767,2.223,91.7283,-0.395487,0.285397,0.829591,-1.13252,2.38353,-0.0420216,-2.59039,-3.678,0.852196,-2.7,-3.7,0,12502,49.653,28.099,13952
2860070994,0.634767,2.223,91.7482,-0.392387,0.311219,0.821043,-1.00949,1.90162,-0.119487,-3.13432,-3.81155,1.61479,-2.7,-3.7,0,12502,49.653,28.099,13952
2860171354,0.634767,2.223,91.7444,-0.387363,0.317194,0.818394,-0.906524,1.38861,-0.158618,-3.11956,-3.59687,2.57642,-2.7,-3.7,0,12502,49.653,28.099,13952
2860271687,0.634767,2.223,91.7392,-0.384969,0.302635,0.823433,-0.800905,0.869756,-0.152922,-3.05953,-3.72976,2.2091,-2.7,-3.7,0,12502,49.653,28.099,13952
2860372042,0.634767,2.223,91.7133,-0.37814,0.281295,0.83079,-0.688657,0.362558,-0.162514,-2.82989,-3.5999,2.37447,-2.7,-3.7,0,12502,49.653,28.099,13952
2860472412,0.634767,2.223,91.6861,-0.36572,0.258477,0.83908,-0.563096,-0.13709,-0.148277,-2.64786,-3.58534,2.38319,-1.3653,-6.22378,0,12502,49.653,28.099,13952
2860572730,0.634767,2.223,91.6775,-0.335573,0.228965,0.849436,-0.43067,-0.618292,-0.104698,-2.43462,-3.49222,2.34421,-1.40748,-6.2411,0,12502,49.655,26.702,13258.9
2860673098,0.634767,2.223,91.6704,-0.20025,0.12746,0.879809,-0.316853,-1.03738,-0.0626073,-1.96477,-2.9797,1.36733,-1.55664,-6.2705,0,12502,49.655,26.702,13258.9
2860773434,0.634767,2.223,91.6513,-0.0618566,0.0277412,0.892896,-0.250419,-1.22252,-0.0492581,-0.693579,-1.42425,0.0564766,-1.59244,-6.26038,0,12502,49.655,26.702,13258.9
2860874170,0.634767,2.223,91.6183,0.0347655,-0.0440943,0.894564,-0.234797,-1.23982,-0.0587131,0.297487,-0.0415931,0.139999,-1.53919,-6.21068,0,12502,49.655,26.702,13258.9
2860974672,0.634767,2.223,91.6115,0.0857464,-0.0890901,0.893613,-0.244964,-1.14308,-0.0490514,0.85575,0.754772,0.293858,-1.45081,-6.14643,0,12502,49.655,26.702,13258.9
2861075435,0.634767,2.223,91.6075,0.0998588,-0.104349,0.893873,-0.257759,-0.998113,-0.0451165,1.14557,1.03709,0.344699,-1.39153,-6.09869,0,12502,49.655,26.702,13258.9
2861175839,0.634767,2.223,91.5955,0.0954695,-0.104708,0.895136,-0.265099,-0.84907,-0.0446385,1.18338,0.990089,0.275954,-1.3378,-6.06966,0,12502,49.655,26.702,13258.9
2861276248,0.634767,2.223,91.5784,0.0828603,-0.102478,0.896058,-0.281913,-0.7049,-0.0205781,1.07514,0.95985,0.555175,-1.29741,-6.04641,0,12502,49.655,26.702,13258.9
2861376638,0.634767,2.223,91.5783,0.0674879,-0.0962229,0.897052,-0.274006,-0.565075,-0.0117923,1.1533,0.730126,0.0849478,-1.27097,-6.04919,0,12502,49.655,26.702,13258.9
2861477069,0.634767,2.223,91.5789,0.0498956,-0.0849646,0.898019,-0.266144,-0.438523,-0.0137396,0.937521,0.550241,0.465679,-1.24968,-6.04867,0,12502,49.655,26.702,13258.9
2861577434,0.634767,2.223,91.5856,0.0298005,-0.0724041,0.899401,-0.253582,-0.333018,0.00550515,0.817005,0.442171,0.126281,-1.25164,-6.07298,0,12502,49.56,27.073,13417.4
2861677763,0.634767,2.223,91.5937,-0.107391,-0.0274241,0.902462,-0.234415,-0.237366,0.0421864,0.755369,0.238393,0.423152,-1.26163,-6.0909,0,12502,49.56,27.073,13417.4
2861778082,0.634767,2.223,91.6006,-0.257633,0.0234697,0.895831,-0.106327,-0.300315,0.0426432,0.156136,-1.7821,-0.254001,-1.22928,-6.1307,0,12502,49.56,27.073,13417.4
2861878404,0.634767,2.223,91.6055,-0.345774,0.0537166,0.887674,0.0881309,-0.483825,-0.00833155,-0.356864,-2.9712,0.435777,-1.17613,-6.1426,0,12502,49.56,27.073,13417.4
2861978770,0.634767,2.223,91.6253,-0.389698,0.0691437,0.881996,0.335964,-0.741195,-0.0160748,-0.492026,-3.51006,1.3007,-1.14652,-6.15188,0,12502,49.56,27.073,13417.4
2862079134,0.634767,2.223,91.6394,-0.401438,0.0757119,0.879733,0.598057,-1.02705,-0.0218214,-0.652599,-3.74982,1.32758,-1.12878,-6.13661,0,12502,49.56,27.073,13417.4
2862179503,0.634767,2.223,91.643,-0.40154,0.0786765,0.878476,0.861578,-1.3188,-0.0191086,-0.598477,-3.64909,1.62096,-1.1199,-6.10975,0,12502,49.56,27.073,13417.4
2862279874,0.634767,2.223,91.6441,-0.398982,0.0801468,0.877786,1.12301,-1.61462,-0.0163632,-0.666156,-3.71082,1.50228,-1.10652,-6.06298,0,12502,49.56,27.073,13417.4
2862380340,0.634767,2.223,91.6569,-0.396483,0.0801786,0.877719,1.376,-1.9132,-0.0130682,-0.730247,-3.62039,1.35863,-1.09473,-5.98813,0,12502,49.56,27.073,13417.4
2862480707,0.634767,2.223,91.6643,-0.391031,0.0797314,0.878057,1.62257,-2.20274,-0.0125701,-0.712621,-3.46096,1.42937,-1.08041,-5.90308,0,12502,49.56,27.073,13417.4
2862581077,0.634767,2.223,91.6565,-0.386151,0.0761188,0.87946,1.86688,-2.49026,-0.0201165,-0.71229,-3.46568,1.2153,-1.06729,-5.78534,0,12502,49.56,27.073,13417.4
2862681448,0.634768,2.223,91.6493,-0.381485,0.0710069,0.881534,2.11142,-2.76462,-0.0232799,-0.578615,-3.31395,1.29811,-1.05543,-5.66449,0,12457,49.518,27.767,13749.7
2862781806,0.634768,2.223,91.6429,-0.375926,0.0660625,0.883668,2.35625,-3.03246,-0.0271175,-0.514185,-3.34038,1.17839,-1.03873,-5.51423,0,12457,49.518,27.767,13749.7
2862882174,0.634768,2.223,91.6357,-0.36497,0.0627822,0.885552,2.59112,-3.28638,-0.022115,-0.503651,-3.09843,1.18112,-1.01637,-5.34287,0,12457,49.518,27.767,13749.7
2862982489,0.634768,2.223,91.6186,-0.313584,0.0516065,0.890043,2.81091,-3.53066,-0.0282427,-0.499779,-2.82224,1.32105,-1.00954,-5.18408,0,12457,49.518,27.767,13749.7
2863082866,0.634768,2.223,91.6042,-0.245473,0.0388324,0.89349,2.99754,-3.71128,-0.0134003,-0.180396,-2.1997,0.924551,-0.992672,-5.00805,0,12457,49.518,27.767,13749.7
2863183244,0.634768,2.223,91.605,-0.176797,0.0253468,0.896198,3.12375,-3.83492,0.00650118,-0.168801,-1.49442,0.502791,-0.969352,-4.81913,0,12457,49.518,27.767,13749.7
2863283608,0.634768,2.223,91.6136,-0.116592,0.0118087,0.897043,3.20614,-3.89725,0.017327,0.0175493,-0.87109,0.097252,-0.936513,-4.63251,0,12457,49.518,27.767,13749.7
2863383934,0.634768,2.223,91.6238,-0.0655713,0.00421353,0.896697,3.24893,-3.91321,0.0128889,0.164294,-0.289876,-0.163628,-0.898429,-4.44612,0,12457,49.518,27.767,13749.7
2863484416,0.634768,2.223,91.6293,-0.0180404,-0.000181174,0.896114,3.25343,-3.8793,0.00730351,0.267706,0.235051,0.0161828,-0.860071,-4.26055,0,12457,49.518,27.767,13749.7
2863584716,0.634768,2.223,91.628,0.0213666,-0.000622511,0.895881,3.22085,-3.82141,0.00368959,0.19305,0.702467,-0.0176632,-0.827435,-4.08752,0,12457,49.518,27.767,13749.7
2863685081,0.634768,2.223,91.6292,0.0455746,-0.00222887,0.89551,3.15281,-3.73366,-0.000184963,0.223876,1.06216,-0.231068,-0.793732,-3.91284,0,12457,49.452,28.073,13882.7
2863785454,0.634768,2.223,91.6304,0.0614265,-0.00435746,0.895014,3.06279,-3.63374,-0.0169623,0.156876,1.26768,0.0915131,-0.765462,-3.7608,0,12457,49.452,28.073,13882.7
2863885820,0.634768,2.223,91.6329,0.0705041,-0.00578622,0.894438,2.97461,-3.51286,-0.0220541,0.293815,1.40183,0.055646,-0.735016,-3.60335,0,12457,49.452,28.073,13882.7
2863986197,0.634768,2.223,91.6325,0.0716471,-0.00581315,0.8943,2.88133,-3.40283,-0.0318203,0.221323,1.32637,-0.22049,-0.711367,-3.47221,0,12457,49.452,28.073,13882.7
2864086551,0.634768,2.223,91.6361,0.0728088,-0.00562831,0.893835,2.76508,-3.2607,-0.0318303,0.241889,1.31281,0.000432439,-0.684461,-3.33234,0,12457,49.452,28.073,13882.7
2864186904,0.634768,2.223,91.6376,0.0702535,-0.00245008,0.894486,2.6659,-3.14437,-0.0284695,0.162697,1.27218,0.0363089,-0.667181,-3.22133,0,12457,49.452,28.073,13882.7
2864287251,0.634768,2.223,91.6386,0.0636148,0.000399651,0.894578,2.56721,-3.03342,-0.0191123,0.154706,1.22583,0.228442,-0.645496,-3.09963,0,12457,49.452,28.073,13882.7
2864387597,0.634768,2.223,91.6405,0.0552314,0.00291325,0.895156,2.47202,-2.9365,-0.0231552,0.11999,1.11112,-0.170576,-0.627832,-2.99829,0,12457,49.452,28.073,13882.7
2864487998,0.634768,2.223,91.6323,0.0515046,0.00336414,0.895295,2.38607,-2.84947,-0.0279092,0.113304,1.04585,0.0834149,-0.606694,-2.88695,0,12457,49.452,28.073,13882.7
2864588376,0.634768,2.223,91.6223,0.0478748,0.00454286,0.895177,2.3074,-2.76593,-0.0270721,0.0912539,0.965998,0.184248,-0.584792,-2.79194,0,12457,49.452,28.073,13882.7
2864688680,0.634768,2.223,91.6087,0.0449915,0.00406334,0.895243,2.22724,-2.6806,-0.0337141,0.143921,0.960516,0.353728,-0.562894,-2.68848,0,12457,49.431,28.066,13873.3
2864789036,0.634768,2.223,91.5877,0.0414461,0.00176805,0.895601,2.15185,-2.59969,-0.0346227,0.187807,0.848797,0.233409,-0.541704,-2.59226,0,12457,49.431,28.066,13873.3
2864891115,0.634768,2.223,91.5641,0.0367009,0.000819699,0.896084,2.0822,-2.51904,-0.0365866,0.203903,0.859406,0.267471,-0.520978,-2.49188,0,12457,49.431,28.066,13873.3
2864991580,0.634768,2.223,91.5567,0.0352696,-0.000189903,0.896258,2.02463,-2.44371,-0.0263727,0.205794,0.774997,0.238861,-0.500311,-2.39626,0,12457,49.431,28.066,13873.3
2865091921,0.634769,2.223,91.5419,0.0327294,-0.000209213,0.896504,1.96361,-2.3733,-0.0261048,0.128795,0.724375,0.308894,-0.480327,-2.29973,0,12457,49.431,28.066,13873.3
2865192301,0.634769,2.223,91.537,0.0335058,-0.00090039,0.896586,1.90656,-2.30307,-0.0102168,0.161903,0.800917,0.176274,-0.459767,-2.20628,0,12457,49.431,28.066,13873.3
2865293166,0.634769,2.223,91.5374,0.034064,-0.00316688,0.896096,1.85207,-2.23682,-0.00512245,0.185445,0.762249,-0.00872787,-0.438748,-2.11402,0,12457,49.431,28.066,13873.3
2865394474,0.634769,2.223,91.5373,0.037021,-0.00243932,0.895141,1.80229,-2.17229,0.00702086,0.167437,0.774185,0.0316847,-0.417995,-2.02163,0,12457,49.431,28.066,13873.3
2865494875,0.634769,2.223,91.5407,0.0411143,0.00124896,0.894903,1.74599,-2.09987,0.0061336,0.18446,0.832107,0.0715425,-0.398452,-1.92952,0,12457,49.431,28.066,13873.3
2865595177,0.634769,2.223,91.5491,0.041312,0.00316087,0.894777,1.68368,-2.03657,0.00584837,0.135619,0.803599,0.0160123,-0.379296,-1.83991,0,12457,49.431,28.066,13873.3
2865695585,0.634769,2.223,91.5543,0.0455806,0.00318452,0.89498,1.62796,-1.97883,0.00900834,0.109702,0.775518,-0.0221769,-0.361208,-1.75323,0,12457,49.525,25.851,12802.7
2865795953,0.634769,2.223,91.5514,0.0491971,0.00282264,0.895056,1.56351,-1.91907,0.00838431,0.0462306,0.826699,0.155186,-0.341981,-1.66967,0,12457,49.525,25.851,12802.7
2865896346,0.634769,2.223,91.5598,0.0514071,0.00044735,0.895215,1.49808,-1.85803,0.016773,0.0572115,0.869206,-0.0373619,-0.324096,-1.58988,0,12457,49.525,25.851,12802.7
2865996741,0.634769,2.223,91.5711,0.0525992,-0.00399626,0.895187,1.43333,-1.78992,0.0116441,0.135083,0.863457,-0.0320829,-0.303649,-1.51121,0,12457,49.525,25.851,12802.7
2866097098,0.634769,2.223,91.5765,0.0541922,-0.00805609,0.894894,1.37232,-1.71656,0.0181945,0.193691,0.916044,0.223124,-0.284725,-1.43697,0,12457,49.525,25.851,12802.7
2866198160,0.634769,2.223,91.5744,0.0512955,-0.0100842,0.894774,1.3126,-1.65072,0.012964,0.155739,0.910749,-0.0407617,-0.264839,-1.36428,0,12457,49.525,25.851,12802.7
2866301684,0.634769,2.223,91.578,0.0520466,-0.0107124,0.894805,1.26285,-1.58069,0.0143873,0.262113,0.844357,0.0791536,-0.247201,-1.29579,0,12457,49.525,25.851,12802.7
2866403244,0.634769,2.223,91.5821,0.0529536,-0.00964639,0.894944,1.20962,-1.50839,0.0129079,0.231456,0.900345,-0.0284832,-0.229507,-1.22913,0,12457,49.525,25.851,12802.7
2866503657,0.634769,2.223,91.5849,0.0511364,-0.0088213,0.894984,1.15314,-1.44151,0.00496548,0.173822,0.882183,-0.269893,-0.213626,-1.16642,0,12457,49.525,25.851,12802.7
2866604045,0.634769,2.223,91.5848,0.0539746,-0.00960716,0.895143,1.1086,-1.3775,0.0106368,0.223934,0.805736,0.0977709,-0.197427,-1.10886,0,12457,49.525,25.851,12802.7
2866704371,0.634769,2.223,91.5874,0.0539932,-0.010193,0.895178,1.06165,-1.31423,0.00767537,0.260563,0.83445,-0.0384006,-0.182705,-1.05349,0,12457,49.54,25.146,12457.3
2866804752,0.634769,2.223,91.5892,0.0528239,-0.0108449,0.895259,1.01216,-1.25696,0.00933745,0.138393,0.76657,-0.100676,-0.167117,-0.997299,0,12457,49.54,25.146,12457.3
2866905132,0.634769,2.223,91.5896,0.0510561,-0.0114925,0.895528,0.965958,-1.19819,0.00397034,0.205139,0.760458,0.153098,-0.153408,-0.944979,0,12457,49.54,25.146,12457.3
2867005487,0.634769,2.223,91.5879,0.0512606,-0.0105527,0.895682,0.928148,-1.14228,0.000253707,0.211948,0.717479,-0.0212821,-0.140641,-0.895934,0,12457,49.54,25.146,12457.3
2867105839,0.634769,2.223,91.588,0.0513771,-0.0095693,0.895579,0.878384,-1.08081,0.00114003,0.169555,0.712989,0.0301191,-0.128671,-0.849564,0,12457,49.54,25.146,12457.3
2867206192,0.634769,2.223,91.5886,0.0517211,-0.00950322,0.895675,0.830117,-1.02325,-1.15316e-05,0.193631,0.722483,0.0626127,-0.118632,-0.803694,0,12457,49.54,25.146,12457.3
2867306577,0.634769,2.223,91.5796,0.051665,-0.00986816,0.895825,0.794463,-0.980845,-0.00485965,0.202614,0.713602,-0.0884651,-0.108839,-0.761297,0,12457,49.54,25.146,12457.3
2867406930,0.634769,2.223,91.5748,0.0512604,-0.008717,0.895837,0.746741,-0.918189,0.00086751,0.157795,0.661883,0.342485,-0.0980869,-0.719644,0,12457,49.54,25.146,12457.3
2867507290,0.634769,2.223,91.5801,0.0496086,-0.00779355,0.895668,0.6992,-0.862818,0.00736732,0.162017,0.703362,0.0305307,-0.0882558,-0.681402,0,12457,49.54,25.146,12457.3
2867607669,0.634769,2.223,91.5765,0.0477128,-0.00807054,0.895656,0.664201,-0.810554,0.00073342,0.240135,0.642212,0.0699253,-0.0793832,-0.643737,0,12457,49.54,25.146,12457.3
2867708037,0.634769,2.223,91.5747,0.046999,-0.00761344,0.895648,0.617924,-0.756859,0.00989744,0.12617,0.702737,0.00507403,-0.0711689,-0.609415,0,12413,49.525,25.406,12582.3
2867808305,0.634769,2.223,91.5821,0.0442873,-0.00895738,0.895578,0.583034,-0.70958,0.0131112,0.196459,0.550576,-0.0694395,-0.0649478,-0.576691,0,12413,49.525,25.406,12582.3
2867908596,0.634769,2.223,91.5886,0.0415655,-0.00804266,0.89579,0.558905,-0.664709,0.00825883,0.183702,0.438164,-0.0405174,-0.0588219,-0.546971,0,12413,49.525,25.406,12582.3
2868008972,0.634769,2.223,91.591,0.0404732,-0.00677925,0.895726,0.526116,-0.622323,0.0135649,0.10261,0.497145,-0.0187766,-0.0534256,-0.517973,0,12413,49.525,25.406,12582.3
2868109340,0.634769,2.223,91.5884,0.0382423,-0.00582697,0.895742,0.487325,-0.579288,0.0045736,0.116609,0.574472,0.0343583,-0.0488953,-0.489817,0,12413,49.525,25.406,12582.3
2868209698,0.634769,2.223,91.5874,0.0352814,-0.00506743,0.895754,0.45312,-0.540589,0.0131272,0.0774799,0.550487,0.0143798,-0.0445777,-0.463804,0,12413,49.525,25.406,12582.3
2868310091,0.634769,2.223,91.5886,0.0337968,-0.00458764,0.895588,0.421393,-0.510651,0.00419778,0.0317923,0.49872,-0.105482,4.4,-4.1,0,12413,49.525,25.406,12582.3
2868410475,0.634769,2.223,91.5861,0.0307775,-0.00126857,0.89567,0.398912,-0.472294,0.00240254,0.215957,0.443168,-0.117881,4.4,-4.1,0,12413,49.525,25.406,12582.3
2868510817,0.634769,2.223,91.5827,0.0390983,0.000962422,0.895707,0.370865,-0.449,0.00291772,0.00544047,0.374354,0.227946,4.4,-4.1,0,12413,49.525,25.406,12582.3
2868611211,0.634769,2.223,91.5811,0.050804,-0.00138396,0.89581,0.331426,-0.407722,0.00998364,0.0442126,0.584718,-0.158554,4.4,-4.1,0,12413,49.525,25.406,12582.3
2868711542,0.634769,2.223,91.5775,0.0572583,-0.0034934,0.895788,0.283105,-0.367088,-0.00139611,0.00970464,0.630756,-0.021545,4.4,-4.1,0,12413,49.525,25.406,12582.3
2868811887,0.634769,2.223,91.568,0.0602582,-0.00676179,0.895593,0.236312,-0.311727,0.000420098,0.10701,0.723223,0.158672,4.4,-4.1,0,12413,49.53,25.444,12602.4
2868912307,0.634769,2.223,91.5542,0.059531,-0.0085403,0.895579,0.198329,-0.259345,0.00374212,0.157191,0.653238,0.102572,4.4,-4.1,0,12413,49.53,25.444,12602.4
2869012626,0.634769,2.223,91.5475,0.0559244,-0.00850918,0.895555,0.15641,-0.210851,-0.00303973,0.126942,0.590857,0.0676065,4.4,-4.1,0,12413,49.53,25.444,12602.4
2869114458,0.634769,2.223,91.5414,0.0539098,-0.00791394,0.895587,0.122248,-0.161085,0.00589468,0.166359,0.570587,0.144753,4.4,-4.1,0,12413,49.53,25.444,12602.4
2869214768,0.634769,2.223,91.5352,0.0488928,-0.00693716,0.89561,0.0867151,-0.114744,0.0080136,0.137218,0.545236,0.0623999,4.4,-4.1,0,12413,49.53,25.444,12602.4
2869315178,0.634769,2.223,91.5338,0.0425228,-0.00648999,0.895597,0.0557205,-0.0719495,0.0164592,0.135104,0.532493,-0.0695783,3.9,-2.7,0,12413,49.53,25.444,12602.4
2869415530,0.634769,2.223,91.5377,0.0280168,-0.0176592,0.89411,0.033081,-0.0357715,0.024428,0.131246,0.422215,-0.0200827,3.9,-2.7,0,12413,49.53,25.444,12602.4
2869515861,0.634769,2.223,91.5438,-0.0693289,-0.146075,0.899356,0.0248112,0.00212242,0.0765916,0.453752,0.151487,0.222293,3.9,-2.7,0,12413,49.53,25.444,12602.4
2869616155,0.634769,2.223,91.5503,-0.171069,-0.258937,0.918373,0.216821,0.0976301,0.0327279,2.10294,-1.07608,-0.0819219,3.9,-2.7,0,12413,49.53,25.444,12602.4
2869716401,0.634769,2.223,91.5512,-0.236039,-0.326791,0.934302,0.543374,0.214236,-0.00803412,2.81361,-1.76431,1.30722,3.9,-2.7,0,12413,49.53,25.444,12602.4
2869816773,0.634769,2.223,91.5505,-0.267417,-0.357511,0.94227,0.966877,0.349194,-0.0149777,3.31889,-2.18194,1.87658,3.9,-2.7,0,12413,49.526,25.362,12560.8
2869917117,0.634769,2.223,91.5478,-0.274482,-0.362892,0.942994,1.4363,0.486238,-0.0145477,3.46329,-2.41378,2.29876,3.9,-2.7,0,12413,49.526,25.362,12560.8
2870017411,0.634769,2.223,91.5267,-0.270204,-0.358722,0.940827,1.90051,0.620457,-0.00389857,3.44967,-2.42273,2.1472,3.9,-2.7,0,12413,49.526,25.362,12560.8
2870117741,0.634769,2.223,91.5092,-0.264726,-0.356208,0.939497,2.35038,0.752959,0.00737928,3.35991,-2.30592,2.11973,3.9,-2.7,0,12413,49.526,25.362,12560.8
2870218092,0.634769,2.223,91.5171,-0.248767,-0.342629,0.934711,2.77986,0.884534,0.0241583,3.3098,-2.13252,1.89298,3.9,-2.7,0,12413,49.526,25.362,12560.8
2870318491,0.634769,2.223,91.531,-0.211052,-0.300132,0.9241,3.18055,1.01237,0.0368202,2.98942,-1.94835,1.67333,3.9,-4.2,0,12413,49.526,25.362,12560.8
2870418839,0.634769,2.223,91.5413,-0.18493,-0.254022,0.917477,3.50596,1.10774,0.0491956,2.46856,-1.65925,1.00089,3.9,-4.2,0,12413,49.526,25.362,12560.8
2870519187,0.634769,2.223,91.5496,-0.241228,-0.204505,0.925461,3.76835,1.18879,0.0605718,1.98711,-1.59875,0.39532,3.9,-4.2,0,12413,49.526,25.362,12560.8
2870619545,0.634769,2.223,91.5581,-0.301019,-0.163611,0.922692,4.06134,1.17749,0.0230336,1.51721,-2.31642,0.551598,3.9,-4.2,0,12413,49.526,25.362,12560.8
2870719933,0.63477,2.223,91.5695,-0.316008,-0.128659,0.914732,4.37088,1.09726,0.0210178,1.04351,-2.63843,1.11081,3.9,-4.2,0,12413,49.526,25.362,12560.8
2870821031,0.63477,2.223,91.5846,-0.300049,-0.103846,0.906482,4.66301,0.988544,0.0249115,0.71854,-2.73112,0.773412,3.9,-4.2,0,12413,49.52,25.41,12583
2870922600,0.63477,2.223,91.6019,-0.262969,-0.0896235,0.901974,4.91131,0.875319,0.0298358,0.546409,-2.45694,0.559637,3.9,-4.2,0,12413,49.52,25.41,12583
2871023007,0.63477,2.223,91.6086,-0.222514,-0.0808515,0.899161,5.11002,0.774108,0.0274572,0.359542,-2.07053,0.365947,3.9,-4.2,0,12413,49.52,25.41,12583
2871123374,0.63477,2.223,91.6213,-0.186784,-0.0754136,0.898146,5.26142,0.694396,0.0213169,0.295691,-1.54046,0.322652,3.9,-4.2,0,12413,49.52,25.41,12583
2871223695,0.63477,2.223,91.6369,-0.157019,-0.0748122,0.897765,5.38368,0.630734,0.0176521,0.270042,-1.25115,0.081231,3.9,-4.2,0,12413,49.52,25.41,12583
2871324137,0.63477,2.223,91.6488,-0.133304,-0.073528,0.897587,5.47474,0.586532,0.00510765,0.220731,-0.951723,-0.0744979,-2.6,1.3,0,12413,49.52,25.41,12583
2871424526,0.63477,2.223,91.6528,-0.106747,-0.0575581,0.897569,5.54902,0.551886,-0.00619132,0.203904,-0.765604,0.30561,-2.6,1.3,0,12413,49.52,25.41,12583
2871524901,0.63477,2.223,91.6545,0.0372617,0.115995,0.898004,5.61418,0.527178,0.0616917,0.0441539,-0.506285,0.69519,-2.6,1.3,0,12413,49.52,25.41,12583
2871625279,0.63477,2.223,91.6662,0.191996,0.258867,0.920367,5.36534,0.43425,0.0716222,-2.39104,1.52787,0.107194,-2.6,1.3,0,12413,49.52,25.41,12583
2871725629,0.63477,2.223,91.6708,0.284612,0.332452,0.943593,4.95845,0.339018,-0.0296154,-3.15431,2.47145,1.30938,-2.6,1.3,0,12413,49.52,25.41,12583
2871825977,0.634771,2.223,91.6689,0.33439,0.368429,0.958446,4.30003,0.220184,-0.0652371,-3.7457,3.24957,2.49846,-2.6,1.3,0,12413,49.441,29.142,14408.1
2871926329,0.634771,2.223,91.6608,0.352438,0.384605,0.966903,3.70632,0.125819,-0.0938356,-3.8053,3.53529,2.78295,-2.6,1.3,0,12413,49.441,29.142,14408.1
2872026674,0.634771,2.223,91.64,0.350736,0.389663,0.969576,3.09964,0.0206623,-0.121257,-3.94368,3.53603,2.81959,-2.6,1.3,0,12413,49.441,29.142,14408.1
2872127054,0.634771,2.223,91.6198,0.327472,0.387877,0.968031,2.48543,-0.100271,-0.107085,-3.89694,3.32597,3.20724,-2.6,1.3,0,12413,49.441,29.142,14408.1
2872227420,0.634771,2.223,91.606,0.298631,0.378994,0.962133,1.8979,-0.234731,-0.0703899,-3.9241,3.11163,2.84853,-2.6,1.3,0,12413,49.441,29.142,14408.1
2872329713,0.634771,2.223,91.5985,0.281005,0.361767,0.953926,1.3407,-0.374672,-0.0374011,-3.71048,2.79947,2.74204,0.3,1.8,0,12413,49.441,29.142,14408.1
2872430505,0.634771,2.223,91.5929,0.282912,0.31472,0.944162,0.825652,-0.502424,-0.02015,-3.59782,2.68397,2.12285,0.3,1.8,0,12413,49.441,29.142,14408.1
2872530846,0.634771,2.223,91.5927,0.343613,0.127711,0.924133,0.334478,-0.568208,0.0405399,-2.66259,2.98055,1.81176,0.3,1.8,0,12413,49.441,29.142,14408.1
2872631202,0.634771,2.223,91.6048,0.375172,-0.0300941,0.895473,-0.0243661,-0.388323,0.0102347,-0.404437,3.63191,0.715436,0.3,1.8,0,12413,49.441,29.142,14408.1
2872731565,0.634771,2.223,91.6152,0.361062,-0.120353,0.872884,-0.304834,-0.0824483,-0.0326866,0.906248,3.59751,1.5362,0.3,1.8,0,12413,49.441,29.142,14408.1
2872831907,0.634771,2.223,91.6115,0.315534,-0.148481,0.865652,-0.519463,0.267892,-0.0157592,1.465,3.32086,1.44115,0.3,1.8,0,12413,49.416,28.189,13929.9
2872932370,0.634771,2.223,91.6077,0.25794,-0.139028,0.867531,-0.678058,0.58875,-0.00342663,1.5039,2.82882,1.06742,0.3,1.8,0,12413,49.416,28.189,13929.9
2873032728,0.634771,2.223,91.5945,0.20375,-0.117046,0.873105,-0.784185,0.844814,-0.00856062,1.3577,2.14936,0.691041,0.3,1.8,0,12413,49.416,28.189,13929.9
2873133047,0.634771,2.223,91.5803,0.158922,-0.0961655,0.878926,-0.855186,1.04415,-0.00480612,1.14595,1.59009,0.554394,0.3,1.8,0,12413,49.416,28.189,13929.9
2873233414,0.634771,2.223,91.5864,0.125213,-0.0735242,0.88441,-0.904683,1.20739,0.00606932,0.905471,1.26783,0.294436,0.3,1.8,0,12413,49.416,28.189,13929.9
2873333830,0.634771,2.223,91.6025,0.0996408,-0.0493875,0.888616,-0.943465,1.32946,0.0180165,0.63657,0.971089,-0.0613963,2.7,5,0,12413,49.416,28.189,13929.9
2873434214,0.63477,2.223,91.6083,0.0942339,-0.0499331,0.892185,-0.970573,1.41446,0.00540796,0.322584,0.635323,0.433491,2.7,5,0,12413,49.416,28.189,13929.9
2873534533,0.63477,2.223,91.6134,0.167499,-0.124276,0.884923,-0.997737,1.50734,0.00448947,0.65726,0.922184,-0.274082,2.7,5,0,12413,49.416,28.189,13929.9
2873634844,0.63477,2.223,91.6309,0.24885,-0.189457,0.869344,-1.03344,1.71951,-0.0464901,1.41934,1.73367,0.24097,2.7,5,0,12413,49.416,28.189,13929.9
2873735238,0.63477,2.223,91.6505,0.302795,-0.227296,0.854948,-1.0806,2.04385,-0.0465673,2.02732,2.32237,1.04328,2.7,5,0,12413,49.416,28.189,13929.9
2873835534,0.63477,2.223,91.653,0.329423,-0.236897,0.848727,-1.1439,2.4246,-0.042552,2.24008,2.66914,1.47332,2.7,5,0,12413,49.439,27.521,13606.1
2873935906,0.63477,2.223,91.6554,0.339388,-0.231056,0.84794,-1.21914,2.82276,-0.0369734,2.19255,2.85311,1.74422,2.7,5,0,12413,49.439,27.521,13606.1
2874036312,0.63477,2.223,91.6495,0.3466,-0.218951,0.849836,-1.30657,3.20637,-0.0221783,2.02246,2.81887,1.5599,2.7,5,0,12413,49.439,27.521,13606.1
2874136649,0.63477,2.223,91.6505,0.353591,-0.205984,0.852576,-1.40273,3.57185,-0.0273867,1.90441,2.82789,1.48856,2.7,5,0,12413,49.439,27.521,13606.1
2874236926,0.63477,2.223,91.6486,0.348813,-0.190011,0.85667,-1.5206,3.92936,-0.0288163,1.76332,2.91025,1.41105,2.7,5,0,12413,49.439,27.521,13606.1
2874338522,0.63477,2.223,91.6522,0.314586,-0.163954,0.864175,-1.63454,4.27138,-0.0241605,1.65786,2.78305,1.21943,5,0.1,0,12413,49.439,27.521,13606.1
2874443989,0.63477,2.223,91.6596,0.259307,-0.138267,0.874758,-1.73967,4.55514,-0.00616852,1.29248,2.3974,0.817354,5,0.1,0,12413,49.439,27.521,13606.1
2874544396,0.63477,2.223,91.6645,0.0302214,-0.148364,0.902484,-1.83309,4.80051,0.121593,0.969117,1.77635,1.61557,5,0.1,0,12413,49.439,27.521,13606.1
2874644736,0.63477,2.223,91.6862,-0.220807,-0.179224,0.923771,-1.6677,4.85444,0.161494,1.4177,-1.36715,-0.0658199,5,0.1,0,12413,49.439,27.521,13606.1
2874745084,0.63477,2.223,91.7224,-0.353794,-0.206743,0.933592,-1.33572,4.78869,0.0691646,1.61377,-3.28447,-0.125035,5,0.1,0,12413,49.439,27.521,13606.1
2874845432,0.63477,2.223,91.7178,-0.400396,-0.229962,0.938691,-0.912486,4.68497,-0.0288735,1.67079,-3.65906,1.86746,5,0.1,0,12413,49.439,27.521,13606.1
2874945776,0.63477,2.223,91.7115,-0.407815,-0.239775,0.936952,-0.424797,4.58334,-0.0491734,1.96386,-4.07739,1.77101,5,0.1,0,12413,49.363,28.687,14160.8
2875046137,0.63477,2.223,91.695,-0.400437,-0.245957,0.934832,0.0492423,4.47181,-0.101764,1.89677,-4.0047,1.88389,5,0.1,0,12413,49.363,28.687,14160.8
2875146489,0.63477,2.223,91.6694,-0.387059,-0.254369,0.931698,0.519971,4.37922,-0.127428,1.95325,-3.68353,2.23862,5,0.1,0,12413,49.363,28.687,14160.8
2875246849,0.63477,2.223,91.6585,-0.346061,-0.254319,0.926153,0.998897,4.28416,-0.114689,2.07585,-3.78366,1.87802,5,0.1,0,12413,49.363,28.687,14160.8
2875347246,0.63477,2.223,91.6511,-0.27717,-0.235712,0.916423,1.42231,4.21986,-0.102442,1.88403,-3.16659,1.52435,-1.6,-0.7,0,12413,49.363,28.687,14160.8
2875447607,0.63477,2.223,91.6457,-0.210054,-0.200666,0.908151,1.77262,4.18012,-0.0816408,1.64184,-2.44727,1.33403,-1.6,-0.7,0,12413,49.363,28.687,14160.8
2875547961,0.63477,2.223,91.6723,-0.145018,0.0237598,0.89612,2.09583,4.14729,0.0817184,0.882486,-1.6587,1.44417,-1.6,-0.7,0,12413,49.363,28.687,14160.8
2875650111,0.63477,2.223,91.7095,-0.106749,0.276307,0.883222,2.05988,3.87247,0.11721,-2.77861,-1.12978,-0.0042004,-1.6,-0.7,0,12413,49.363,28.687,14160.8
2875752549,0.63477,2.223,91.7477,-0.0938813,0.396098,0.874592,1.90796,3.52401,-0.0215984,-3.9404,-0.827644,0.359754,-1.6,-0.7,0,12413,49.363,28.687,14160.8
2875854419,0.634771,2.223,91.7739,-0.101667,0.446564,0.868701,1.6999,3.09847,-0.0578066,-4.43639,-0.75682,1.6159,-1.6,-0.7,0,12413,49.363,28.687,14160.8
2875954769,0.634771,2.223,91.7928,-0.118004,0.467043,0.866923,1.4873,2.6354,-0.114014,-4.64708,-1.01385,1.85791,-1.6,-0.7,0,12413,49.373,29.518,14573.9
2876055108,0.634771,2.223,91.8025,-0.136897,0.471548,0.864856,1.26972,2.15609,-0.154051,-4.67849,-1.05648,2.04638,-1.6,-0.7,0,12413,49.373,29.518,14573.9
2876155461,0.634771,2.223,91.7762,-0.137624,0.465353,0.864653,1.06528,1.6552,-0.163674,-4.64102,-1.26574,2.3033,-1.6,-0.7,0,12413,49.373,29.518,14573.9
2876255830,0.634771,2.223,91.7536,-0.120207,0.458073,0.86656,0.852088,1.1471,-0.143483,-4.47588,-1.22491,2.63965,-1.6,-0.7,0,12413,49.373,29.518,14573.9
2876356189,0.634771,2.223,91.7425,-0.102397,0.445958,0.870286,0.621546,0.670648,-0.139498,-4.44847,-1.00666,2.35925,4.5,2,0,12413,49.373,29.518,14573.9
2876456573,0.634771,2.223,91.7368,-0.0759365,0.39232,0.881908,0.376394,0.206816,-0.11631,-4.50379,-0.917536,2.20309,4.5,2,0,12413,49.373,29.518,14573.9
2876556930,0.634771,2.223,91.7336,0.0247558,0.131272,0.903584,0.151392,-0.188818,-0.0636294,-3.6453,-0.536358,1.14392,4.5,2,0,12413,49.373,29.518,14573.9
2876657885,0.634771,2.223,91.7306,0.134368,-0.173316,0.887578,0.051149,-0.212559,-0.0601539,-0.123894,0.80286,-0.076244,4.5,2,0,12413,49.373,29.518,14573.9
2876759325,0.634771,2.223,91.7237,0.19297,-0.345628,0.86407,0.0705471,0.0790182,-0.10711,2.65832,1.6178,0.674691,4.5,2,0,12413,49.373,29.518,14573.9
2876859690,0.634771,2.223,91.7039,0.222499,-0.429446,0.847269,0.146291,0.528584,-0.120977,3.72038,1.93205,2.31977,4.5,2,0,12413,49.373,29.518,14573.9
2876960052,0.634771,2.223,91.6632,0.22704,-0.456441,0.842485,0.265479,1.0548,-0.113637,4.19652,1.98737,2.90749,4.5,2,0,12369,49.445,26.259,12983.8
2877060401,0.634771,2.223,91.6231,0.22253,-0.458161,0.842818,0.399097,1.59367,-0.0941549,4.26864,1.93812,3.04855,4.5,2,0,12369,49.445,26.259,12983.8
2877160724,0.634771,2.223,91.6025,0.217412,-0.450183,0.84471,0.535725,2.13104,-0.0782234,4.28421,1.90477,2.86607,4.5,2,0,12369,49.445,26.259,12983.8
2877261076,0.634771,2.223,91.5873,0.209731,-0.436983,0.847689,0.66086,2.6431,-0.057293,3.89457,1.81083,2.80091,4.5,2,0,12369,49.445,26.259,12983.8
2877361466,0.634771,2.223,91.588,0.199492,-0.41693,0.852922,0.793727,3.13868,-0.0457929,3.943,1.74176,2.23064,3.4,-1.7,0,12369,49.445,26.259,12983.8
2877461817,0.634771,2.223,91.5889,0.157402,-0.361962,0.867986,0.912744,3.59973,-0.0299471,3.46999,1.59233,2.04557,3.4,-1.7,0,12369,49.445,26.259,12983.8
2877562167,0.634771,2.223,91.6099,-0.0474796,-0.24842,0.914122,1.02297,3.98755,0.0539461,2.89948,1.09114,1.9156,3.4,-1.7,0,12369,49.445,26.259,12983.8
2877662464,0.634771,2.223,91.64,-0.269718,-0.102955,0.919608,1.24485,4.07042,0.125603,1.32491,-1.70337,0.441288,3.4,-1.7,0,12369,49.445,26.259,12983.8
2877762811,0.634771,2.223,91.6674,-0.383252,-0.0348888,0.907877,1.50727,3.90639,0.0475588,0.0399667,-3.45329,0.116636,3.4,-1.7,0,12369,49.445,26.259,12983.8
2877863151,0.634771,2.223,91.6941,-0.430785,-0.00126618,0.899554,1.81724,3.65226,-0.000242458,-0.412558,-3.87913,1.53698,3.4,-1.7,0,12369,49.445,26.259,12983.8
2877963491,0.634771,2.223,91.7484,-0.424687,0.0191435,0.892365,2.13728,3.34619,-0.0126957,-0.701771,-4.22224,1.39671,3.4,-1.7,0,12369,49.498,25.273,12509.6
2878063859,0.634771,2.223,91.8028,-0.374848,0.0255464,0.889116,2.40837,3.03876,-0.030081,-0.895162,-3.86417,1.24896,3.4,-1.7,0,12369,49.498,25.273,12509.6
2878164246,0.634771,2.223,91.8009,-0.311344,0.0179742,0.890217,2.63648,2.76989,-0.0320629,-0.784736,-3.26645,0.86705,3.4,-1.7,0,12369,49.498,25.273,12509.6
2878264592,0.634771,2.223,91.7896,-0.25465,0.00700781,0.893306,2.80454,2.55013,-0.0448087,-0.682258,-2.58425,0.278886,3.4,-1.7,0,12369,49.498,25.273,12509.6
2878364980,0.634771,2.223,91.7818,-0.207752,-0.00889007,0.895983,2.94061,2.3774,-0.0786052,-0.547034,-2.11284,0.124503,-7.15594,-0.801232,0,12369,49.498,25.273,12509.6
2878465320,0.634771,2.223,91.7657,-0.15797,-0.0140162,0.896459,3.05989,2.23812,-0.0842292,-0.32614,-1.64172,0.455123,-7.28094,-0.734345,0,12369,49.498,25.273,12509.6
2878565690,0.634771,2.223,91.7371,-0.048302,0.0933285,0.892814,3.16155,2.13199,-0.0385275,-0.302041,-1.15166,0.361703,-7.37531,-0.700173,0,12369,49.498,25.273,12509.6
2878666038,0.634771,2.223,91.7064,0.0478378,0.195826,0.899894,3.00053,1.96111,-0.0811189,-2.19824,0.427836,-0.0665959,-7.3941,-0.579159,0,12369,49.498,25.273,12509.6
2878766389,0.634771,2.223,91.6856,0.107028,0.26096,0.908246,2.73997,1.79547,-0.110096,-2.88401,1.06497,1.02637,-7.38367,-0.442814,0,12369,49.498,25.273,12509.6
2878866786,0.634771,2.223,91.6729,0.134006,0.297514,0.913083,2.39844,1.61922,-0.101758,-3.28127,1.52183,1.33192,-7.40309,-0.3506,0,12369,49.498,25.273,12509.6
2878967135,0.634771,2.223,91.6737,0.139349,0.315921,0.914611,2.03998,1.43304,-0.100515,-3.45952,1.59589,1.28482,-7.42036,-0.298304,0,12369,49.282,30.148,14857.5
2879067517,0.634771,2.223,91.6784,0.129141,0.318924,0.91309,1.67758,1.2304,-0.0913126,-3.5454,1.44697,1.48672,-7.47327,-0.277493,0,12369,49.282,30.148,14857.5
2879167868,0.634771,2.223,91.6812,0.112417,0.302834,0.909947,1.33624,1.0346,-0.0734084,-3.3596,1.33559,1.24714,-7.53977,-0.289688,0,12369,49.282,30.148,14857.5
2879268296,0.634771,2.223,91.6867,0.0897503,0.273874,0.906475,1.02136,0.848425,-0.0681164,-3.08,1.14315,1.13544,-7.63402,-0.306418,0,12369,49.282,30.148,14857.5
2879368654,0.634771,2.223,91.6936,0.0677059,0.23715,0.903542,0.757395,0.678711,-0.0507585,-2.69736,0.851754,0.658573,-7.70966,-0.339344,0,12369,49.282,30.148,14857.5
2879469016,0.634771,2.223,91.6972,0.046609,0.200838,0.900573,0.536979,0.53781,-0.0529193,-2.23994,0.714637,0.541854,-7.78008,-0.36672,0,12369,49.282,30.148,14857.5
2879569377,0.634771,2.223,91.6898,0.0138354,0.256157,0.89733,0.36244,0.396886,-0.022714,-2.23507,0.282963,0.419795,-7.66765,-0.402793,0,12369,49.282,30.148,14857.5
2879669657,0.634771,2.223,91.6832,-0.00235236,0.324,0.895606,0.152127,0.179439,-0.0527678,-2.84383,0.190298,0.723623,-7.50588,-0.415397,0,12369,49.282,30.148,14857.5
2879769905,0.634771,2.223,91.6699,-0.013509,0.374626,0.894145,-0.0893464,-0.105058,-0.0673583,-3.45622,0.0163041,1.24951,-7.34643,-0.433365,0,12369,49.282,30.148,14857.5
2879870269,0.634771,2.223,91.6555,-0.0200504,0.401665,0.89294,-0.357621,-0.433774,-0.0685566,-3.79957,-0.0170697,1.68645,-7.23862,-0.445542,0,12369,49.282,30.148,14857.5
2879970611,0.634771,2.223,91.6476,-0.0246195,0.413658,0.891922,-0.627236,-0.77791,-0.0660984,-3.87565,-0.0703745,1.89976,-7.15514,-0.46289,0,12369,49.36,29.349,14486.7
2880070957,0.634771,2.223,91.6418,-0.0289735,0.414682,0.891363,-0.887327,-1.13169,-0.0657798,-3.9155,-0.197974,1.83625,-7.09779,-0.474001,0,12369,49.36,29.349,14486.7
2880171441,0.634771,2.223,91.6355,-0.0313407,0.411668,0.891171,-1.14661,-1.48526,-0.0555689,-3.9136,-0.179665,1.78548,-7.03681,-0.482263,0,12369,49.36,29.349,14486.7
2880271881,0.634771,2.223,91.6271,-0.0321212,0.404949,0.890845,-1.38822,-1.82988,-0.053178,-3.71905,-0.250446,1.75519,-6.97685,-0.489294,0,12369,49.36,29.349,14486.7
2880372329,0.634771,2.223,91.6169,-0.0330837,0.398954,0.890408,-1.62291,-2.17259,-0.0493693,-3.67249,-0.278505,1.70349,-6.89762,-0.490764,0,12369,49.36,29.349,14486.7
2880472645,0.634771,2.223,91.6094,-0.0315182,0.393431,0.890124,-1.85437,-2.50472,-0.0382324,-3.6023,-0.219362,1.6176,-6.80652,-0.491057,0,12369,49.36,29.349,14486.7
2880572938,0.634771,2.223,91.6012,-0.0298052,0.388578,0.890141,-2.0755,-2.82437,-0.0407996,-3.48065,-0.190998,1.48884,-6.69935,-0.482101,0,12369,49.36,29.349,14486.7
2880673250,0.634771,2.223,91.5917,-0.0299015,0.380934,0.890401,-2.29043,-3.13812,-0.0335166,-3.38032,-0.188321,1.57487,-6.58885,-0.474209,0,12369,49.36,29.349,14486.7
2880773615,0.634771,2.223,91.5943,-0.0280767,0.372913,0.890829,-2.49784,-3.43271,-0.0266286,-3.17871,-0.146364,1.51594,-6.46221,-0.458169,0,12369,49.36,29.349,14486.7
2880873918,0.634771,2.223,91.5959,-0.0283326,0.367783,0.890607,-2.70093,-3.71644,-0.0193582,-3.22933,-0.137958,1.13954,-6.31814,-0.449359,0,12369,49.36,29.349,14486.7
2880974288,0.634771,2.223,91.5866,-0.0291187,0.362801,0.890339,-2.89552,-3.99159,-0.0153199,-3.11499,-0.156044,1.27697,-6.16383,-0.437034,0,12369,49.36,29.349,14486.7
2881074556,0.634771,2.223,91.5848,-0.0279737,0.346885,0.890621,-3.07465,-4.25093,-0.0116991,-3.03345,-0.184579,0.883384,-6.01378,-0.422246,0,12369,49.36,27.389,13519.2
2881174835,0.634771,2.223,91.5975,-0.0239993,0.295865,0.892276,-3.24075,-4.49409,0.00262846,-2.71012,-0.162606,0.975508,-5.9363,-0.407038,0,12369,49.36,27.389,13519.2
2881275150,0.634771,2.223,91.6099,-0.0181624,0.228706,0.894564,-3.36978,-4.6791,0.0323678,-2.08635,-0.0450204,0.629631,-5.84177,-0.387439,0,12369,49.36,27.389,13519.2
2881375555,0.634771,2.223,91.6258,-0.0153022,0.16388,0.895559,-3.44821,-4.79224,0.040085,-1.37091,-0.0507302,0.129915,-5.71922,-0.369491,0,12369,49.36,27.389,13519.2
2881475922,0.634771,2.223,91.6417,-0.0103825,0.103783,0.896336,-3.48486,-4.85543,0.0455174,-0.768853,-0.0136725,-0.0762574,-5.55547,-0.353286,0,12369,49.36,27.389,13519.2
2881576337,0.634771,2.223,91.6528,-0.00847148,0.0574115,0.896862,-3.48054,-4.85584,0.032255,-0.101389,0.0477825,-0.266732,-5.37595,-0.335406,0,12369,49.36,27.389,13519.2
2881676643,0.634771,2.223,91.6599,-0.00643567,0.0165543,0.897395,-3.46131,-4.83247,0.0226517,0.219123,0.018591,-0.117212,-5.1753,-0.318864,0,12369,49.36,27.389,13519.2
2881777057,0.634771,2.223,91.6674,-0.002617,-0.0142536,0.897679,-3.41278,-4.76555,0.013813,0.672798,0.0926242,-0.19373,-4.97909,-0.30276,0,12369,49.36,27.389,13519.2
2881877369,0.63477,2.223,91.6695,-0.00143639,-0.03018,0.897169,-3.34321,-4.67862,-0.00871326,1.06213,0.032188,-0.41894,-4.77453,-0.291823,0,12369,49.36,27.389,13519.2
2881977732,0.63477,2.223,91.6601,-0.00199876,-0.0483492,0.897275,-3.27792,-4.57659,-0.0173094,1.13901,0.14298,0.192834,-4.59702,-0.279438,0,12369,49.36,27.389,13519.2
2882078102,0.63477,2.223,91.6535,-0.00191753,-0.0588952,0.896849,-3.18936,-4.46005,-0.0264059,1.32009,0.0969718,-0.0186308,-4.41067,-0.26983,0,12369,49.36,27.389,13519.2
2882178465,0.63477,2.223,91.6361,-0.00454066,-0.0674068,0.896784,-3.1025,-4.33743,-0.0456044,1.36305,0.0722246,-0.0374324,-4.24988,-0.261991,0,12369,49.36,27.389,13519.2
2882278787,0.63477,2.223,91.6204,-0.00617014,-0.0743705,0.896758,-3.01326,-4.20467,-0.0444427,1.40023,0.144953,0.211314,-4.07914,-0.253025,0,12369,49.36,27.389,13519.2
2882379166,0.63477,2.223,91.6048,-0.00879474,-0.0778701,0.897147,-2.90441,-4.07684,-0.0359352,1.49231,-0.0856481,0.182651,-3.93516,-0.247228,0,12369,49.36,27.389,13519.2
2882479533,0.63477,2.223,91.589,-0.00993897,-0.0769875,0.897474,-2.80364,-3.95448,-0.0462618,1.40525,-0.0626833,0.259292,-3.78226,-0.239227,0,12369,49.36,27.389,13519.2
2882579845,0.63477,2.223,91.5776,-0.0125147,-0.0738505,0.897496,-2.7069,-3.83901,-0.0399846,1.33024,-0.111013,0.309662,-3.64928,-0.235496,0,12369,49.286,26.906,13260.9
2882680218,0.63477,2.223,91.571,-0.00866958,-0.0715271,0.898065,-2.60688,-3.72875,-0.0330598,1.28436,-0.105746,0.375723,-3.50754,-0.22707,0,12369,49.286,26.906,13260.9
2882780879,0.63477,2.223,91.5662,-0.00680767,-0.0725686,0.898234,-2.516,-3.61595,-0.0171848,1.29576,-0.0233971,0.369487,-3.37632,-0.221862,0,12369,49.286,26.906,13260.9
2882882768,0.63477,2.223,91.5611,-0.00454402,-0.0703442,0.898318,-2.42591,-3.50552,-0.0118463,1.30257,-0.0164236,0.152683,-3.24085,-0.214721,0,12369,49.286,26.906,13260.9
2882983128,0.63477,2.223,91.5589,-0.00340628,-0.0686062,0.898106,-2.34063,-3.39587,-0.00926061,1.29227,-0.0561841,0.190297,-3.11586,-0.209621,0,12369,49.286,26.906,13260.9
2883083491,0.63477,2.223,91.5621,-0.00156857,-0.0657124,0.898438,-2.25381,-3.29408,-0.00742187,1.19167,-0.0859096,0.246714,-2.98888,-0.201298,0,12369,49.286,26.906,13260.9
2883183831,0.63477,2.223,91.5686,-0.000755617,-0.0666838,0.898626,-2.1721,-3.18459,-0.00237601,1.23755,-0.00286039,0.258347,-2.87091,-0.195438,0,12369,49.286,26.906,13260.9
2883284234,0.63477,2.223,91.5753,-0.000768585,-0.0660539,0.898659,-2.09805,-3.08326,0.0214335,1.13831,-0.00251556,0.209213,-2.752,-0.1884,0,12369,49.286,26.906,13260.9
2883384635,0.63477,2.223,91.579,-0.00220506,-0.0670673,0.898674,-2.03223,-2.98221,0.0110555,1.16424,0.00248349,-0.114745,-2.63631,-0.18512,0,12369,49.286,26.906,13260.9
2883485015,0.63477,2.223,91.5812,-0.00158894,-0.0673289,0.89872,-1.96819,-2.88284,0.00984978,1.11972,-0.0169927,0.105103,-2.52214,-0.179703,0,12369,49.286,26.906,13260.9
2883585401,0.63477,2.223,91.5903,-0.00281478,-0.066907,0.898331,-1.899,-2.78434,0.0128322,1.14653,-0.0542699,-0.118349,-2.41018,-0.178248,0,12280,49.281,30.386,14974.5
2883685756,0.63477,2.223,91.5947,-0.00506424,-0.0698175,0.898075,-1.83707,-2.693,0.00697048,1.00766,0.00446443,0.0984611,-2.30011,-0.175582,0,12280,49.281,30.386,14974.5
2883786148,0.63477,2.223,91.5884,-0.00556498,-0.0717471,0.898338,-1.76051,-2.58901,0.0108286,1.03055,-0.0562318,0.0977832,-2.19311,-0.169808,0,12280,49.281,30.386,14974.5
2883886478,0.63477,2.223,91.5763,-0.00660647,-0.0743227,0.89835,-1.68552,-2.49717,-0.0066047,1.08782,-0.0941731,0.103023,-2.08963,-0.164336,0,12280,49.281,30.386,14974.5
2883986872,0.63477,2.223,91.568,-0.00465387,-0.0774262,0.898249,-1.60931,-2.40693,-0.00234263,1.1336,-0.102564,0.0939743,-1.99087,-0.161029,0,12280,49.281,30.386,14974.5
2884087236,0.63477,2.223,91.5624,-0.00251437,-0.0760257,0.897953,-1.5278,-2.3142,-0.00300576,1.14936,-0.137393,0.106178,-1.89669,-0.156216,0,12280,49.281,30.386,14974.5
2884187611,0.63477,2.223,91.5598,-0.00205691,-0.074703,0.897776,-1.45927,-2.22464,0.000834594,1.06385,-0.0816138,0.203646,-1.8095,-0.150347,0,12280,49.281,30.386,14974.5
2884287947,0.63477,2.223,91.5602,0.00210935,-0.0709982,0.897797,-1.38614,-2.13683,0.00726487,1.04299,-0.0217442,0.315347,-1.72526,-0.143406,0,12280,49.281,30.386,14974.5
2884388408,0.63477,2.223,91.5662,0.00485765,-0.0688256,0.897495,-1.32684,-2.05352,0.00891751,1.0025,0.0474518,0.0750631,-1.64317,-0.138435,0,12280,49.281,30.386,14974.5
2884488775,0.63477,2.223,91.5724,0.00797844,-0.0706011,0.897588,-1.26873,-1.96373,0.0083913,1.01634,0.0556541,-0.0155344,-1.56407,-0.131863,0,12280,49.281,30.386,14974.5
2884589125,0.63477,2.223,91.5707,0.00972008,-0.0704809,0.897589,-1.21371,-1.87947,-0.00165434,0.982475,0.0563542,-0.0239723,-1.49218,-0.126717,0,12280,49.301,29.845,14713.9
2884689481,0.63477,2.223,91.5642,0.0112106,-0.0711242,0.897537,-1.16302,-1.79296,-0.00877746,0.950051,0.12711,0.192667,-1.42229,-0.120978,0,12280,49.301,29.845,14713.9
2884789832,0.63477,2.223,91.5613,0.0114098,-0.0707433,0.897623,-1.11078,-1.70007,0.00159386,0.970489,0.103812,0.0448079,-1.35352,-0.116276,0,12280,49.301,29.845,14713.9
2884891462,0.63477,2.223,91.5633,0.0118433,-0.0671395,0.897464,-1.05685,-1.61289,-0.00145379,0.954173,0.119283,0.161133,-1.28872,-0.111507,0,12280,49.301,29.845,14713.9
2884991875,0.63477,2.223,91.5674,0.010746,-0.0645616,0.897482,-1.01098,-1.53418,0.00999515,0.849604,0.0587337,0.0579907,-1.22532,-0.10979,0,12280,49.301,29.845,14713.9
2885092295,0.634769,2.223,91.5697,0.00955576,-0.0617116,0.897194,-0.970488,-1.45311,0.00145497,0.858761,0.145569,-0.0341801,-1.1658,-0.107248,0,12280,49.301,29.845,14713.9
2885192629,0.634769,2.223,91.577,0.00737417,-0.0611151,0.897206,-0.930646,-1.38118,0.00976921,0.789626,0.092389,0.00638521,-1.10782,-0.105525,0,12280,49.301,29.845,14713.9
2885294306,0.634769,2.223,91.584,0.00451094,-0.060233,0.89727,-0.875152,-1.31347,0.0135613,0.879029,-0.0388373,-0.132642,-1.05355,-0.103041,0,12280,49.301,29.845,14713.9
2885394711,0.634769,2.223,91.5935,0.00548749,-0.0578812,0.897379,-0.832737,-1.24159,0.0092255,0.774404,0.0685516,-0.107589,-1.00183,-0.100973,0,12280,49.301,29.845,14713.9
2885495041,0.634769,2.223,91.5994,0.00652383,-0.0563141,0.897219,-0.784849,-1.17874,0.0106655,0.74985,-0.0140557,-0.0273445,-0.95345,-0.0987149,0,12280,49.301,29.845,14713.9
2885595401,0.634769,2.223,91.61,0.00733958,-0.05366,0.897503,-0.742149,-1.11563,0.014358,0.772063,0.0391026,-0.204987,-0.906431,-0.0970168,0,12280,49.301,29.845,14713.9
2885695767,0.634769,2.223,91.6218,0.00688894,-0.0517159,0.897735,-0.701921,-1.05334,0.0109539,0.731834,0.0123349,0.013064,-0.862737,-0.094754,0,12280,49.365,26.022,12845.8
2885796114,0.634769,2.223,91.6284,0.00531984,-0.0517242,0.897654,-0.66758,-0.997728,-0.000829421,0.667364,0.0225279,-0.233073,-0.821541,-0.0941294,0,12280,49.365,26.022,12845.8
2885896486,0.634769,2.223,91.6297,0.00545488,-0.0505106,0.897962,-0.631157,-0.939982,-0.00788347,0.717344,0.0210181,-0.0579212,-0.783033,-0.0924914,0,12280,49.365,26.022,12845.8
2885996794,0.634769,2.223,91.6247,0.00427944,-0.0485668,0.898154,-0.588216,-0.884464,-0.0109662,0.67714,-0.0297507,0.246928,-0.746638,-0.09304,0,12280,49.365,26.022,12845.8
2886097186,0.634769,2.223,91.6169,0.00403307,-0.0422826,0.898397,-0.556981,-0.826267,-0.0105912,0.642643,0.0594341,0.00701364,-0.713029,-0.0923729,0,12280,49.365,26.022,12845.8
2886197594,0.634769,2.223,91.5995,0.00491087,-0.0395568,0.898666,-0.531202,-0.780936,-0.01749,0.49787,0.0264394,0.148344,-0.682206,-0.093422,0,12280,49.365,26.022,12845.8
2886297956,0.634769,2.223,91.5811,0.00449425,-0.0375612,0.898818,-0.505802,-0.734759,-0.01392,0.489798,0.0686855,0.206053,-0.653248,-0.0944546,0,12280,49.365,26.022,12845.8
2886398389,0.634769,2.223,91.5679,0.00372701,-0.0371403,0.899148,-0.484207,-0.687684,-0.010949,0.537179,0.0455002,0.0799155,-0.625825,-0.0944734,0,12280,49.365,26.022,12845.8
2886498764,0.634769,2.223,91.5573,0.0048705,-0.0343231,0.899233,-0.456937,-0.645472,-0.00881906,0.521359,0.0193783,-0.0123461,-0.600116,-0.094841,0,12280,49.365,26.022,12845.8
2886599150,0.634769,2.223,91.5587,0.00411576,-0.0344386,0.89943,-0.440801,-0.610026,-0.00316502,0.388584,0.0290875,0.171905,-0.576501,-0.0965542,0,12280,49.365,26.022,12845.8
2886699499,0.634769,2.223,91.5643,0.00468692,-0.0337657,0.899906,-0.420681,-0.570678,-0.00262802,0.461055,0.0694719,0.0803624,-0.554034,-0.0974146,0,12280,49.408,25.121,12411.8
2886799861,0.634769,2.223,91.576,0.00324345,-0.0302377,0.899941,-0.412878,-0.52873,0.0132387,0.39379,0.150523,0.0717831,-0.530194,-0.101301,0,12280,49.408,25.121,12411.8
2886900259,0.634769,2.223,91.593,0.00121444,-0.0291896,0.900098,-0.393611,-0.497607,0.014141,0.435007,0.0472919,-0.378348,-0.508648,-0.10418,0,12280,49.408,25.121,12411.8
2887000570,0.634769,2.223,91.6028,0.000323259,-0.0268655,0.900393,-0.371177,-0.462245,0.00656283,0.45836,-0.0149108,-0.16366,-0.484727,-0.108507,0,12280,49.408,25.121,12411.8
2887100930,0.634769,2.223,91.6126,-0.00107523,-0.0250672,0.900353,-0.363135,-0.434541,0.00908063,0.282834,0.103443,-0.138212,-0.464134,-0.111862,0,12280,49.408,25.121,12411.8
2887201289,0.634769,2.223,91.6148,-0.00362974,-0.0251568,0.900541,-0.347417,-0.406313,0.00333904,0.344142,0.0169588,-0.137896,-0.445584,-0.116798,0,12280,49.408,25.121,12411.8
2887301624,0.634769,2.223,91.6139,-0.00683521,-0.0233198,0.900265,-0.325851,-0.378675,-0.0119658,0.355481,-0.0150914,0.0333049,-0.428665,-0.120913,0,12280,49.408,25.121,12411.8
2887402087,0.634769,2.223,91.6137,-0.0105343,-0.0199512,0.899798,-0.318281,-0.35327,-0.00113417,0.257397,0.0541965,-0.0994645,-0.412892,-0.126528,0,12280,49.408,25.121,12411.8
2887502390,0.634769,2.223,91.6063,-0.0138747,-0.0172001,0.899848,-0.299899,-0.334506,-0.0122442,0.251631,-0.0577065,0.136806,-0.398293,-0.130964,0,12280,49.408,25.121,12411.8
2887602751,0.634769,2.223,91.6033,-0.0169543,-0.0135269,0.899163,-0.282864,-0.324041,-0.0135516,0.170967,-0.10993,-0.132176,-0.383244,-0.13488,0,12280,49.408,25.121,12411.8
2887703104,0.634769,2.223,91.6042,-0.0137178,-0.0107329,0.898779,-0.269692,-0.311969,-0.0144062,0.154174,-0.016461,-0.0177492,-0.369476,-0.138074,0,12280,49.441,24.435,12080.9
