timestamp,lat,log,alt,roll,pitch,yaw,vel_x,vel_y,vel_z,acc_x,acc_y,acc_z,act_vx,act_vy,act_yr,capacity,vol,cur,power
4422614769,0.634769,2.223,97.9695,-0.0181775,0.0212724,0.865724,0.0515634,0.0520322,-0.00908013,0.126297,0.0595591,0.205855,-2.4,-3.8,0,12639,49.645,25.348,12584
4422715179,0.634769,2.223,97.965,-0.0173326,0.0233283,0.865834,0.0531414,0.0594633,-0.00432188,0.0935175,0.0702841,-0.0461468,-2.4,-3.8,0,12639,49.645,25.348,12584
4422815604,0.634769,2.223,97.9516,-0.0227071,0.0283674,0.865221,0.0568914,0.0641004,-0.0162608,0.118002,0.0164546,-0.0222362,-2.4,-3.8,0,12639,49.645,25.348,12584
4422915952,0.634769,2.223,97.9397,-0.120715,0.0956562,0.858571,0.060722,0.0592335,0.0184312,-0.117094,-0.243384,-0.0750396,-2.4,-3.8,0,12639,49.645,25.348,12584
4423016411,0.634769,2.223,97.9379,-0.239501,0.165226,0.844626,0.102998,-0.110323,-0.0179784,-1.02393,-1.53583,0.12848,-2.4,-3.8,0,12639,49.645,25.348,12584
4423116804,0.634769,2.223,97.9294,-0.323124,0.211589,0.830921,0.1867,-0.407235,-0.0315814,-1.56279,-2.43519,1.16142,-2.4,-3.8,0,12639,49.631,25.39,12601.3
4423217143,0.634769,2.223,97.9236,-0.362323,0.231137,0.824567,0.304275,-0.77474,-0.0207277,-1.74112,-2.95377,1.69701,-2.4,-3.8,0,12639,49.631,25.39,12601.3
4423321080,0.634769,2.223,97.9375,-0.373146,0.23895,0.822647,0.436076,-1.18325,-0.00467284,-1.97711,-3.23683,1.71031,-2.4,-3.8,0,12639,49.631,25.39,12601.3
4423421450,0.634769,2.223,97.9503,-0.370237,0.239813,0.823423,0.566253,-1.59266,0.00352073,-1.92534,-3.19466,1.84198,-2.4,-3.8,0,12639,49.631,25.39,12601.3
4423521812,0.634769,2.223,97.9444,-0.364262,0.240634,0.82373,0.682618,-1.99198,0.0107202,-1.96948,-3.06735,1.68995,-2.4,-3.8,0,12639,49.631,25.39,12601.3
4423622157,0.634769,2.223,97.9316,-0.358561,0.239605,0.824674,0.790359,-2.38318,0.0122249,-1.87293,-2.80988,1.88703,-2.4,-3.8,0,12639,49.631,25.39,12601.3
4423722497,0.634769,2.223,97.9223,-0.344134,0.232204,0.827461,0.897292,-2.76471,0.00970583,-1.8507,-2.84817,1.62269,-2.4,-3.8,0,12639,49.631,25.39,12601.3
4423822842,0.634769,2.223,97.92,-0.305593,0.210129,0.835117,1.0014,-3.12421,0.0194863,-1.6864,-2.66493,1.33829,-2.4,-3.8,0,12639,49.631,25.39,12601.3
4423923195,0.634769,2.223,97.9182,-0.262483,0.184099,0.84307,1.09079,-3.42923,0.0278734,-1.50117,-2.26023,0.938452,-2.4,-3.8,0,12639,49.631,25.39,12601.3
4424023538,0.634769,2.223,97.9148,-0.220395,0.157304,0.849875,1.15272,-3.67514,0.0382449,-1.21108,-1.73618,0.777122,-2.4,-3.8,0,12639,49.631,25.39,12601.3
4424123886,0.634769,2.223,97.9358,-0.185252,0.132723,0.854835,1.2085,-3.86405,0.0419735,-0.916125,-1.49497,0.0899917,-2.4,-3.8,0,12639,49.631,25.39,12601.3
4424224300,0.634769,2.223,97.9533,-0.157708,0.113789,0.858162,1.25249,-4.00033,0.0386108,-0.623848,-1.06163,0.0781283,-2.4,-3.8,0,12639,49.651,24.981,12403.3
4424324710,0.634769,2.223,97.9661,-0.134695,0.102894,0.859946,1.28637,-4.10588,0.0316594,-0.526369,-0.73853,0.070311,-2.4,-3.8,0,12639,49.651,24.981,12403.3
4424425027,0.634769,2.223,97.9791,-0.118686,0.0944439,0.860878,1.31065,-4.18353,0.0169526,-0.37817,-0.569167,-0.0441796,-2.4,-3.8,0,12639,49.651,24.981,12403.3
4424525376,0.634769,2.223,97.9734,-0.105479,0.0861757,0.861931,1.32713,-4.2444,0.00791061,-0.312624,-0.440908,0.0178447,-2.4,-3.8,0,12639,49.651,24.981,12403.3
4424625781,0.634769,2.223,97.9568,-0.0942095,0.0790485,0.862875,1.33927,-4.29015,0.000267565,-0.25351,-0.271091,0.125536,1.7,1.5,0,12639,49.651,24.981,12403.3
4424726141,0.634769,2.223,97.9502,-0.0775398,0.0616537,0.865513,1.34962,-4.32016,0.00713892,-0.105243,-0.158777,0.371721,1.7,1.5,0,12639,49.651,24.981,12403.3
4424826513,0.634769,2.223,97.9465,0.084295,-0.0773784,0.865978,1.35332,-4.33012,0.0618156,0.205521,0.098829,0.577916,1.7,1.5,0,12639,49.651,24.981,12403.3
4424926842,0.634769,2.223,97.9569,0.248954,-0.1903,0.845325,1.31074,-4.03941,0.0696825,1.98892,2.44129,0.0965237,1.7,1.5,0,12639,49.651,24.981,12403.3
4425027108,0.634769,2.223,97.9579,0.343737,-0.254188,0.824511,1.22046,-3.62697,-0.0288332,2.53317,3.3546,1.03328,1.7,1.5,0,12639,49.651,24.981,12403.3
4425127400,0.634769,2.223,97.9473,0.391404,-0.287774,0.811248,1.11525,-3.07372,-0.063686,3.13601,3.87533,2.49746,1.7,1.5,0,12639,49.651,24.981,12403.3
4425227794,0.634769,2.223,97.9241,0.407917,-0.300179,0.806579,0.990749,-2.47611,-0.1029,3.23485,4.12118,2.71862,1.7,1.5,0,12594,49.585,28.09,13928.4
4425328159,0.634769,2.223,97.9088,0.408058,-0.299625,0.806194,0.866917,-1.84812,-0.109975,3.26426,4.18648,3.26934,1.7,1.5,0,12594,49.585,28.09,13928.4
4425428516,0.634769,2.223,97.8983,0.401694,-0.292891,0.808289,0.746693,-1.20865,-0.0743634,3.415,4.15766,3.28949,1.7,1.5,0,12594,49.585,28.09,13928.4
4425528868,0.634769,2.223,97.8903,0.390472,-0.282056,0.811633,0.619708,-0.591205,-0.0525376,3.18962,4.03357,3.11633,1.7,1.5,0,12594,49.585,28.09,13928.4
4425629213,0.634769,2.223,97.8866,0.369495,-0.265063,0.817606,0.49243,0.0023365,-0.0343731,3.12019,4.00247,2.64011,1.7,1.5,0,12594,49.585,28.09,13928.4
4425729517,0.634769,2.223,97.8951,0.313228,-0.221453,0.833177,0.369648,0.548204,-0.00717581,2.78179,3.68191,2.44208,1.7,1.5,0,12594,49.585,28.09,13928.4
4425829894,0.634769,2.223,97.9028,0.242724,-0.172235,0.847319,0.27564,1.00739,0.0270707,2.5473,3.02136,1.53511,1.7,1.5,0,12594,49.585,28.09,13928.4
4425930238,0.634769,2.223,97.9318,0.176798,-0.124794,0.857663,0.18066,1.38466,0.0413795,1.57892,2.1125,0.639941,1.7,1.5,0,12594,49.585,28.09,13928.4
4426030598,0.634769,2.223,97.9629,0.126085,-0.0891263,0.862963,0.125358,1.60189,0.0428912,1.13256,1.49007,0.194567,1.7,1.5,0,12594,49.585,28.09,13928.4
4426130944,0.634769,2.223,97.9759,0.0895101,-0.0621892,0.865456,0.0843612,1.76589,0.0323719,0.859507,1.09481,7.689e-06,1.7,1.5,0,12594,49.585,28.09,13928.4
4426231302,0.634769,2.223,97.9973,0.0624608,-0.0426469,0.866576,0.0516955,1.88369,0.0226257,0.588547,0.791236,-0.0853319,1.7,1.5,0,12594,49.544,25,12386
4426331641,0.634769,2.223,98.0195,0.0452217,-0.0321197,0.866502,0.0306871,1.97003,0.0137997,0.505644,0.55444,-0.235514,1.7,1.5,0,12594,49.544,25,12386
4426431941,0.634769,2.223,98.0398,0.0332462,-0.0250377,0.866318,0.011207,2.03238,0.00345659,0.355156,0.452578,-0.263159,1.7,1.5,0,12594,49.544,25,12386
4426532376,0.634769,2.223,98.0551,0.023821,-0.0218571,0.866109,-0.000380784,2.0752,-0.00412464,0.331446,0.293397,-0.259762,1.7,1.5,0,12594,49.544,25,12386
4426632744,0.634769,2.223,98.0685,0.0196808,-0.019032,0.866061,-0.0120804,2.10018,-0.018855,0.26446,0.243484,-0.262148,0.7,4.5,0,12594,49.544,25,12386
4426733014,0.634769,2.223,98.0788,0.0394075,-0.00759385,0.865268,-0.0162044,2.13374,-0.0225974,0.401573,0.215902,0.367413,0.7,4.5,0,12594,49.544,25,12386
4426833280,0.634769,2.223,98.086,0.168994,0.0464518,0.87025,-0.0673226,2.1707,-0.0031979,-0.0115576,0.997393,-0.404901,0.7,4.5,0,12594,49.544,25,12386
4426933582,0.634769,2.223,98.0787,0.285313,0.091276,0.881399,-0.276871,2.24531,-0.0799048,-0.668836,2.31246,0.136566,0.7,4.5,0,12594,49.544,25,12386
4427033858,0.634769,2.223,98.057,0.357715,0.114189,0.890936,-0.605805,2.36878,-0.0967945,-0.86013,3.18419,1.51777,0.7,4.5,0,12594,49.544,25,12386
4427134137,0.634769,2.223,98.052,0.392829,0.121153,0.895335,-0.994233,2.51172,-0.0759258,-1.11292,3.58717,1.66154,0.7,4.5,0,12594,49.544,25,12386
4427234482,0.634769,2.223,98.0499,0.391311,0.112646,0.894128,-1.39564,2.6709,-0.0680895,-1.00172,3.76428,1.76328,0.7,4.5,0,12594,49.556,28.513,14129.9
4427334837,0.634769,2.223,98.0459,0.344604,0.0933364,0.888147,-1.77016,2.82488,-0.0385576,-0.846256,3.47672,1.58885,0.7,4.5,0,12594,49.556,28.513,14129.9
4427435187,0.634769,2.223,98.0373,0.292639,0.0744927,0.882842,-2.06858,2.9591,-0.0299024,-0.58956,2.96681,1.0082,0.7,4.5,0,12594,49.556,28.513,14129.9
4427535491,0.634769,2.223,98.0373,0.239398,0.0568733,0.877833,-2.30212,3.06746,-0.0204077,-0.408388,2.32736,0.693746,0.7,4.5,0,12594,49.556,28.513,14129.9
4427635871,0.634769,2.223,98.037,0.196776,0.0426756,0.874239,-2.48334,3.15927,-0.0230037,-0.159623,1.8902,0.391326,0.7,4.5,0,12594,49.556,28.513,14129.9
4427736252,0.634769,2.223,98.0427,0.161911,0.0306168,0.871949,-2.62332,3.22601,-0.0258674,-0.142306,1.43582,0.200788,0.7,4.5,0,12594,49.556,28.513,14129.9
4427836638,0.634769,2.223,98.0463,0.134656,0.0214256,0.870275,-2.72781,3.2859,-0.0296319,-0.0151003,1.18534,-0.0200206,0.7,4.5,0,12594,49.556,28.513,14129.9
4427937037,0.634769,2.223,98.0464,0.112058,0.0145442,0.868886,-2.80428,3.33063,-0.0418875,0.07763,0.883261,0.010396,0.7,4.5,0,12594,49.556,28.513,14129.9
4428037384,0.634769,2.223,98.0423,0.0952298,0.0110172,0.868262,-2.85609,3.36664,-0.0353663,0.160763,0.65355,0.238303,0.7,4.5,0,12594,49.556,28.513,14129.9
4428137767,0.634769,2.223,98.0392,0.0825179,0.0111607,0.867878,-2.88597,3.39877,-0.0310647,0.203645,0.458085,0.0832054,0.7,4.5,0,12594,49.556,28.513,14129.9
4428238149,0.634769,2.223,98.0376,0.0745723,0.0121001,0.867556,-2.9101,3.42582,-0.0320365,0.22778,0.396406,0.0214437,0.7,4.5,0,12594,49.584,27.212,13492.8
4428338478,0.634769,2.223,98.0433,0.0685411,0.0133384,0.868086,-2.92007,3.44796,-0.0284599,0.216506,0.310111,-0.171709,0.7,4.5,0,12594,49.584,27.212,13492.8
4428438803,0.634769,2.223,98.055,0.0648807,0.0145139,0.868053,-2.93894,3.45261,-0.039245,0.0482001,0.265664,-0.142023,0.7,4.5,0,12594,49.584,27.212,13492.8
4428539168,0.634769,2.223,98.0557,0.0626775,0.0118746,0.867745,-2.9475,3.4664,-0.0231194,0.132041,0.281466,0.0312627,0.7,4.5,0,12594,49.584,27.212,13492.8
4428639562,0.634769,2.223,98.054,0.062876,0.0100617,0.867967,-2.95022,3.47267,-0.0306636,0.125965,0.189185,-0.211225,-0.9,-0.8,0,12594,49.584,27.212,13492.8
4428739924,0.634769,2.223,98.0474,0.0315513,0.0160171,0.869097,-2.96092,3.48238,-0.0357867,0.0981564,0.31912,0.377614,-0.9,-0.8,0,12594,49.584,27.212,13492.8
4428840346,0.634769,2.223,98.0398,-0.167926,0.0687047,0.860244,-2.92692,3.45723,0.0348387,0.0268238,-0.6478,0.349161,-0.9,-0.8,0,12594,49.584,27.212,13492.8
4428940709,0.634769,2.223,98.05,-0.328333,0.115599,0.848024,-2.74666,3.22744,0.0029815,-0.621782,-2.94455,0.0599439,-0.9,-0.8,0,12594,49.584,27.212,13492.8
4429042488,0.634769,2.223,98.0546,-0.423373,0.143021,0.838753,-2.50065,2.88313,-0.0699936,-0.959219,-3.94646,1.26953,-0.9,-0.8,0,12594,49.584,27.212,13492.8
4429148619,0.634769,2.223,98.0633,-0.470911,0.155764,0.834664,-2.18964,2.44364,-0.0814984,-1.07428,-4.48508,2.34921,-0.9,-0.8,0,12594,49.584,27.212,13492.8
4429254857,0.634769,2.223,98.0446,-0.474704,0.157261,0.836132,-1.80293,1.88677,-0.101768,-1.26801,-4.72163,2.35964,-0.9,-0.8,0,12594,49.537,26.552,13153.1
4429355255,0.634769,2.223,98.0195,-0.463677,0.158511,0.837719,-1.47265,1.41876,-0.0982751,-1.20441,-4.61221,2.67253,-0.9,-0.8,0,12594,49.537,26.552,13153.1
4429457116,0.634769,2.223,98.0132,-0.450196,0.164136,0.837307,-1.1572,0.955973,-0.0708124,-1.25788,-4.52974,2.61383,-0.9,-0.8,0,12594,49.537,26.552,13153.1
4429557513,0.634769,2.223,97.9976,-0.407701,0.161693,0.840789,-0.866761,0.506527,-0.06849,-1.35695,-4.29511,2.2253,-0.9,-0.8,0,12594,49.537,26.552,13153.1
4429657975,0.634769,2.223,97.98,-0.329918,0.14934,0.847713,-0.623459,0.111382,-0.0474429,-1.20124,-3.67133,1.87778,-0.9,-0.8,0,12594,49.537,26.552,13153.1
4429758340,0.634769,2.223,97.9643,-0.252624,0.134473,0.853235,-0.445949,-0.202139,-0.0344618,-1.06672,-2.82884,1.08982,-0.9,-0.8,0,12594,49.537,26.552,13153.1
4429858711,0.634769,2.223,97.9577,-0.185508,0.1196,0.856529,-0.31873,-0.440057,-0.0274766,-0.834756,-2.0687,0.765698,-0.9,-0.8,0,12594,49.537,26.552,13153.1
4429959034,0.634769,2.223,97.9435,-0.133374,0.107035,0.858654,-0.23392,-0.61656,-0.0236003,-0.705113,-1.46248,0.510878,-0.9,-0.8,0,12594,49.537,26.552,13153.1
4430059394,0.634769,2.223,97.9296,-0.0954663,0.0947285,0.860525,-0.182692,-0.75258,-0.029592,-0.619171,-0.948853,0.410243,-0.9,-0.8,0,12594,49.537,26.552,13153.1
4430159752,0.634769,2.223,97.9174,-0.0695441,0.0844235,0.861955,-0.144269,-0.852537,-0.0228197,-0.443851,-0.671401,0.317223,-0.9,-0.8,0,12594,49.537,26.552,13153.1
4430260113,0.634769,2.223,97.9172,-0.0532216,0.0776496,0.863051,-0.117533,-0.927523,-0.0187415,-0.397517,-0.512434,0.186271,-0.9,-0.8,0,12594,49.537,26.552,13153.1
4430360481,0.634769,2.223,97.9169,-0.0445538,0.0716253,0.864028,-0.10594,-0.978682,-0.00496131,-0.327437,-0.28408,-0.046578,-0.9,-0.8,0,12594,49.636,26.212,13010.6
4430460861,0.634769,2.223,97.9228,-0.0405978,0.0683572,0.864595,-0.0991635,-1.00804,-0.00615823,-0.225626,-0.19548,0.331488,-0.9,-0.8,0,12594,49.636,26.212,13010.6
4430561259,0.634769,2.223,97.9379,-0.0378789,0.0658883,0.865052,-0.0980655,-1.04089,0.0147851,-0.323126,-0.223426,-0.167993,-0.9,-0.8,0,12594,49.636,26.212,13010.6
4430661635,0.634769,2.223,97.9488,-0.0369258,0.0630203,0.865359,-0.107896,-1.06082,0.00546034,-0.300134,-0.119701,-0.300087,-4.9,4.1,0,12594,49.636,26.212,13010.6
4430761996,0.634769,2.223,97.9636,-0.0178332,0.0750196,0.866705,-0.112143,-1.07046,0.0182804,-0.0998645,-0.164903,0.621557,-4.9,4.1,0,12594,49.636,26.212,13010.6
4430862357,0.634769,2.223,97.9765,0.117231,0.159539,0.880734,-0.156355,-1.07574,0.0494565,-0.632745,0.494692,-0.272501,-4.9,4.1,0,12594,49.636,26.212,13010.6
4430962682,0.634769,2.223,97.9853,0.248146,0.226703,0.897584,-0.386886,-1.05263,-0.0246504,-1.50786,1.94657,0.0614851,-4.9,4.1,0,12594,49.636,26.212,13010.6
4431063054,0.634769,2.223,97.9842,0.325672,0.2711,0.910204,-0.760763,-1.00367,-0.0476662,-1.9693,2.86362,1.58895,-4.9,4.1,0,12594,49.636,26.212,13010.6
4431163400,0.634768,2.223,97.9866,0.358896,0.292869,0.916114,-1.22435,-0.943345,-0.0532118,-2.29623,3.36776,2.06806,-4.9,4.1,0,12594,49.636,26.212,13010.6
4431263701,0.634768,2.223,97.9847,0.361238,0.299692,0.916249,-1.70231,-0.882752,-0.0378381,-2.30835,3.39865,2.25275,-4.9,4.1,0,12594,49.636,26.212,13010.6
4431364095,0.634768,2.223,97.9867,0.349634,0.301396,0.915359,-2.18239,-0.825126,-0.0281625,-2.42727,3.46757,1.96371,-4.9,4.1,0,12549,49.579,25.141,12464.7
4431464455,0.634768,2.223,97.9939,0.334474,0.305044,0.914688,-2.63393,-0.778691,-0.015937,-2.33841,3.20503,1.7666,-4.9,4.1,0,12549,49.579,25.141,12464.7
4431564773,0.634768,2.223,98.0067,0.315904,0.308311,0.914668,-3.06982,-0.751502,-0.00820178,-2.23008,2.90498,1.88257,-4.9,4.1,0,12549,49.579,25.141,12464.7
4431665108,0.634768,2.223,98.0183,0.297381,0.312174,0.914423,-3.48428,-0.74264,-0.00573921,-2.3241,2.76226,1.49033,-4.9,4.1,0,12549,49.579,25.141,12464.7
4431765428,0.634768,2.223,98.032,0.280897,0.3148,0.913135,-3.87807,-0.751061,-0.0141611,-2.38996,2.53677,1.28074,-4.9,4.1,0,12549,49.579,25.141,12464.7
4431865721,0.634768,2.223,98.0489,0.26972,0.314889,0.911267,-4.25965,-0.779566,-0.0196058,-2.33838,2.29621,1.42442,-4.9,4.1,0,12549,49.579,25.141,12464.7
4431966070,0.634768,2.223,98.064,0.262429,0.315642,0.909261,-4.61766,-0.811158,-0.0167034,-2.32554,2.2396,1.08479,-4.9,4.1,0,12549,49.579,25.141,12464.7
4432066424,0.634768,2.223,98.073,0.242214,0.297251,0.902506,-4.97606,-0.852319,-0.0242059,-2.31935,2.14888,1.18915,-4.9,4.1,0,12549,49.579,25.141,12464.7
4432166777,0.634768,2.223,98.0798,0.211682,0.270371,0.895037,-5.29737,-0.894309,-0.0264019,-2.06002,1.93892,1.05176,-4.9,4.1,0,12549,49.579,25.141,12464.7
4432267141,0.634768,2.223,98.0808,0.178279,0.241906,0.888758,-5.57247,-0.930164,-0.0138018,-1.82015,1.65671,0.639431,-4.9,4.1,0,12549,49.579,25.141,12464.7
4432367487,0.634768,2.223,98.0894,0.147603,0.215545,0.884135,-5.79756,-0.967364,-0.0195896,-1.54442,1.2845,0.482345,-4.9,4.1,0,12549,49.557,26.683,13223.3
4432467843,0.634768,2.223,98.0923,0.123831,0.194016,0.880043,-5.96496,-1.00842,-0.0248128,-1.21768,0.90906,0.329793,-4.9,4.1,0,12549,49.557,26.683,13223.3
4432568150,0.634767,2.223,98.0966,0.104377,0.172692,0.876876,-6.09848,-1.05313,-0.0384378,-1.07666,0.6939,0.0515046,-4.9,4.1,0,12549,49.557,26.683,13223.3
4432668514,0.634767,2.223,98.0949,0.0885806,0.152416,0.874352,-6.19979,-1.08775,-0.0430707,-0.728065,0.517319,0.271605,4.7,4.2,0,12549,49.557,26.683,13223.3
4432768885,0.634767,2.223,98.0976,0.0783986,0.124583,0.872643,-6.26328,-1.1251,-0.0388785,-0.540376,0.289991,0.173313,4.7,4.2,0,12549,49.557,26.683,13223.3
4432869313,0.634767,2.223,98.0982,0.0531585,-0.0913096,0.867815,-6.32694,-1.157,0.00893735,-0.3491,0.259496,0.576231,4.7,4.2,0,12549,49.557,26.683,13223.3
4432969698,0.634767,2.223,98.1018,0.0312297,-0.283066,0.864331,-6.1473,-0.971234,0.0516815,2.8894,-0.0753429,0.136897,4.7,4.2,0,12549,49.557,26.683,13223.3
4433070056,0.634767,2.223,98.0979,0.023216,-0.393334,0.860598,-5.79314,-0.627418,-0.0446249,4.1299,-0.289386,1.52361,4.7,4.2,0,12549,49.557,26.683,13223.3
4433170448,0.634767,2.223,98.0826,0.0154873,-0.45261,0.857445,-5.42102,-0.251557,-0.0515561,4.70364,-0.248494,2.40567,4.7,4.2,0,12549,49.557,26.683,13223.3
4433270789,0.634767,2.223,98.0456,0.00798884,-0.476728,0.855244,-5.01609,0.151149,-0.0863298,5.07156,-0.296654,2.51859,4.7,4.2,0,12549,49.557,26.683,13223.3
4433371861,0.634767,2.223,97.9987,-0.000112817,-0.48526,0.853673,-4.59266,0.570892,-0.101401,5.16178,-0.28468,2.85973,4.7,4.2,0,12549,49.478,27.265,13490.2
4433473200,0.634767,2.223,97.9657,-0.00740828,-0.479146,0.852736,-4.14871,1.0074,-0.108123,5.28297,-0.267531,2.99681,4.7,4.2,0,12549,49.478,27.265,13490.2
4433573597,0.634767,2.223,97.9266,-0.0140888,-0.468151,0.850957,-3.70436,1.40696,-0.124821,4.891,-0.513047,3.13468,4.7,4.2,0,12549,49.478,27.265,13490.2
4433673996,0.634767,2.223,97.9029,-0.00927016,-0.455745,0.849115,-3.25391,1.79768,-0.107333,4.90604,-0.619206,2.78776,4.7,4.2,0,12549,49.478,27.265,13490.2
4433774389,0.634767,2.223,97.8915,0.00372259,-0.439752,0.848494,-2.8299,2.17899,-0.09332,4.69244,-0.529658,2.61672,4.7,4.2,0,12549,49.478,27.265,13490.2
4433874742,0.634767,2.223,97.8815,0.0223068,-0.425137,0.847326,-2.43,2.56377,-0.0674303,4.55426,-0.34985,2.58091,4.7,4.2,0,12549,49.478,27.265,13490.2
4433975089,0.634766,2.223,97.8803,0.0484192,-0.410422,0.844829,-2.07292,2.94346,-0.0489807,4.40058,-0.150745,2.01995,4.7,4.2,0,12549,49.478,27.265,13490.2
4434075434,0.634766,2.223,97.8967,0.0720093,-0.394719,0.842646,-1.75879,3.31301,-0.0227134,4.11602,0.0866811,1.78876,4.7,4.2,0,12549,49.478,27.265,13490.2
4434175756,0.634766,2.223,97.9196,0.0947799,-0.379673,0.840477,-1.47471,3.6746,-0.0145291,3.94576,0.195592,1.59725,4.7,4.2,0,12549,49.478,27.265,13490.2
4434276079,0.634766,2.223,97.944,0.116696,-0.368839,0.839654,-1.25588,4.01955,0.000170089,3.68213,0.543918,1.23081,4.7,4.2,0,12549,49.478,27.265,13490.2
4434376403,0.634766,2.223,97.9667,0.134432,-0.355991,0.840269,-1.05289,4.37522,-0.0015283,3.57333,0.71888,1.28352,4.7,4.2,0,12549,49.478,27.265,13490.2
4434476764,0.634766,2.223,97.9867,0.141449,-0.324346,0.84325,-0.879072,4.72827,0.000669573,3.40818,0.925205,1.23384,4.7,4.2,0,12549,49.457,28.301,13996.8
4434577113,0.634766,2.223,98.0139,0.134091,-0.276448,0.849346,-0.751281,5.02958,0.0114611,2.863,0.893231,0.672609,4.7,4.2,0,12549,49.457,28.301,13996.8
4434677510,0.634766,2.223,98.0295,0.122673,-0.232312,0.853847,-0.651339,5.2727,0.0118291,2.29684,0.726507,0.527574,2.93767,-4.93787,0,12549,49.457,28.301,13996.8
4434777862,0.634766,2.223,98.0478,0.0903754,-0.165957,0.858961,-0.578667,5.49425,0.0147909,2.08046,0.738004,0.845347,2.80582,-5.15747,0,12549,49.457,28.301,13996.8
4434878222,0.634766,2.223,98.0733,-0.0749511,0.0465108,0.864862,-0.517023,5.62577,0.108591,0.968332,0.0423906,0.489263,2.66901,-5.39247,0,12549,49.457,28.301,13996.8
4434978584,0.634766,2.223,98.0979,-0.225444,0.222126,0.840016,-0.494897,5.40664,0.0944096,-1.7343,-1.97039,-0.420193,2.59396,-5.34569,0,12549,49.457,28.301,13996.8
4435078945,0.634766,2.223,98.1081,-0.297758,0.308958,0.816505,-0.472963,5.00937,0.0202688,-2.77749,-2.79387,1.27506,2.54183,-5.30852,0,12549,49.457,28.301,13996.8
4435179336,0.634766,2.223,98.1165,-0.334036,0.348146,0.803009,-0.474725,4.5194,-0.0191966,-3.41695,-3.06963,1.61711,2.46294,-5.34194,0,12549,49.457,28.301,13996.8
4435279683,0.634766,2.223,98.1085,-0.360352,0.366628,0.793804,-0.467943,3.99072,-0.0850167,-3.59244,-3.4049,1.89822,2.43752,-5.38617,0,12549,49.457,28.301,13996.8
4435380072,0.634766,2.223,98.0867,-0.374374,0.374327,0.787841,-0.449115,3.42337,-0.133436,-3.49465,-3.4549,2.61873,2.39686,-5.45291,0,12549,49.457,28.301,13996.8
4435480340,0.634766,2.223,98.0617,-0.376904,0.370332,0.787713,-0.442313,2.81853,-0.158706,-3.72296,-3.56811,2.79135,2.38158,-5.53416,0,12505,49.572,24.228,12010.3
4435580596,0.634766,2.223,98.0364,-0.349486,0.332207,0.80086,-0.421452,2.2107,-0.155319,-3.41999,-3.44453,3.14359,2.31143,-5.70757,0,12505,49.572,24.228,12010.3
4435680868,0.634766,2.223,98.0186,-0.305098,0.276839,0.819359,-0.378562,1.6657,-0.118773,-2.95963,-3.27716,2.50528,2.26293,-5.88014,0,12505,49.572,24.228,12010.3
4435781183,0.634766,2.223,98.0009,-0.259116,0.206959,0.835986,-0.327555,1.21922,-0.0927205,-2.3699,-2.87455,1.72381,2.2089,-6.0469,0,12505,49.572,24.228,12010.3
4435881548,0.634766,2.223,97.9927,-0.279619,0.0715167,0.847048,-0.251357,0.869151,-0.0309782,-1.31101,-2.47142,1.51931,2.22766,-6.18427,0,12505,49.572,24.228,12010.3
4435981899,0.634766,2.223,97.9843,-0.326263,-0.0240231,0.864287,-0.0344586,0.625522,-0.0166399,-0.0196058,-3.01547,0.798441,2.14861,-6.237,0,12505,49.572,24.228,12010.3
4436082245,0.634766,2.223,97.9619,-0.360217,-0.0780551,0.87949,0.265298,0.422318,-0.0492249,0.700799,-3.21433,1.36533,2.08895,-6.22817,0,12505,49.572,24.228,12010.3
4436182601,0.634766,2.223,97.9334,-0.378226,-0.104244,0.889013,0.632786,0.230555,-0.0508561,1.09613,-3.52002,1.64007,2.04347,-6.20842,0,12505,49.572,24.228,12010.3
4436282954,0.634766,2.223,97.9144,-0.380565,-0.115987,0.894463,1.02878,0.0551362,-0.0500903,1.36459,-3.67138,1.6282,2.02216,-6.1623,0,12505,49.572,24.228,12010.3
4436383319,0.634766,2.223,97.8978,-0.377117,-0.119345,0.896488,1.42353,-0.10548,-0.0341164,1.32877,-3.48621,1.86081,2.00822,-6.10834,0,12505,49.572,24.228,12010.3
4436483664,0.634766,2.223,97.879,-0.370382,-0.117743,0.896553,1.81279,-0.255156,-0.0231578,1.27764,-3.35884,1.83032,1.9863,-6.03561,0,12505,49.474,27.893,13799.8
4436584054,0.634766,2.223,97.8572,-0.364732,-0.113555,0.895379,2.18281,-0.394419,-0.0121711,1.2104,-3.20118,1.66836,1.97025,-5.96016,0,12505,49.474,27.893,13799.8
4436684448,0.634766,2.223,97.8524,-0.360084,-0.106547,0.893361,2.55069,-0.525307,-0.00267321,1.19908,-3.19427,1.61266,1.93022,-5.86345,0,12505,49.474,27.893,13799.8
4436784797,0.634767,2.223,97.8521,-0.357272,-0.0982622,0.891193,2.90199,-0.646671,-0.00228158,1.14904,-3.09657,1.45141,1.89526,-5.76066,0,12505,49.474,27.893,13799.8
4436885170,0.634767,2.223,97.8507,-0.357419,-0.085244,0.887141,3.25111,-0.771568,0.0186343,1.03898,-3.07652,1.57774,1.84339,-5.6404,0,12505,49.474,27.893,13799.8
4436985505,0.634767,2.223,97.8525,-0.359134,-0.0736267,0.884376,3.57487,-0.905884,0.0325955,0.907651,-3.06353,1.25725,1.79415,-5.51393,0,12505,49.474,27.893,13799.8
4437085861,0.634767,2.223,97.8607,-0.358363,-0.053306,0.879428,3.88362,-1.03317,0.0257235,0.771291,-2.99173,0.960672,1.73535,-5.37837,0,12505,49.474,27.893,13799.8
4437186219,0.634767,2.223,97.8702,-0.346118,-0.0276759,0.873051,4.16792,-1.17976,0.0208681,0.473832,-2.83877,1.3083,1.69286,-5.22968,0,12505,49.474,27.893,13799.8
4437286564,0.634767,2.223,97.8844,-0.296796,0.00243772,0.866548,4.41095,-1.3365,0.0368952,0.172604,-2.45846,1.31054,1.62829,-5.06167,0,12505,49.474,27.893,13799.8
4437386868,0.634767,2.223,97.9038,-0.240855,0.0261634,0.862492,4.5802,-1.46925,0.0621425,-0.12557,-1.91201,0.748606,1.56888,-4.90004,0,12505,49.474,27.893,13799.8
4437487215,0.634767,2.223,97.9181,-0.179503,0.046909,0.860334,4.6837,-1.57071,0.0762425,-0.356178,-1.3097,0.253064,1.48274,-4.72034,0,12505,49.534,27.483,13613.4
4437587587,0.634767,2.223,97.9333,-0.12704,0.0600919,0.86014,4.72489,-1.65157,0.0665824,-0.536785,-0.808495,-0.0494478,1.40624,-4.55443,0,12505,49.534,27.483,13613.4
4437687985,0.634767,2.223,97.9509,-0.0841315,0.0688286,0.859779,4.72262,-1.70228,0.0708062,-0.576002,-0.317581,-0.185664,1.3269,-4.3879,0,12505,49.534,27.483,13613.4
4437788405,0.634767,2.223,97.9746,-0.0494837,0.0738709,0.860707,4.6939,-1.73793,0.0483866,-0.595163,-0.0418707,-0.252978,1.24576,-4.21029,0,12505,49.534,27.483,13613.4
4437888726,0.634767,2.223,97.9951,-0.0204928,0.077312,0.861839,4.63136,-1.75198,0.0394519,-0.661518,0.346911,-0.394978,1.17815,-4.06326,0,12505,49.534,27.483,13613.4
4437989118,0.634767,2.223,98.0066,0.00136468,0.0804376,0.861994,4.53604,-1.75278,0.0260803,-0.747619,0.658529,-0.241059,1.11114,-3.89289,0,12505,49.534,27.483,13613.4
4438089491,0.634767,2.223,98.0178,0.0187853,0.0845526,0.863161,4.43195,-1.73978,0.0147553,-0.68729,0.820774,-0.172772,1.05627,-3.75753,0,12505,49.534,27.483,13613.4
4438189798,0.634768,2.223,98.0274,0.0360554,0.0859735,0.863734,4.30452,-1.72846,0.00253693,-0.826818,0.963276,-0.204069,1.00086,-3.60759,0,12505,49.534,27.483,13613.4
4438290203,0.634768,2.223,98.0357,0.0445137,0.0844384,0.864033,4.14065,-1.68908,-0.00800984,-0.673055,1.09845,-0.039177,0.958977,-3.47938,0,12505,49.534,27.483,13613.4
4438390599,0.634768,2.223,98.0464,0.0482561,0.0794632,0.864503,3.99826,-1.65615,-0.0242419,-0.673871,1.177,-0.0938118,0.912211,-3.338,0,12505,49.534,27.483,13613.4
4438490923,0.634768,2.223,98.0516,0.0496354,0.0755407,0.864302,3.85679,-1.61116,-0.0274113,-0.57189,1.16627,0.0416428,0.883084,-3.23075,0,12505,49.278,30.61,15084
4438591301,0.634768,2.223,98.0538,0.0490317,0.0711316,0.86493,3.71305,-1.56827,-0.0337203,-0.631898,1.19517,-0.06981,0.843489,-3.10321,0,12505,49.278,30.61,15084
4438691672,0.634768,2.223,98.0532,0.0457496,0.0677508,0.865155,3.58027,-1.53001,-0.0449955,-0.546611,1.093,0.110893,0.818075,-3.00567,0,12505,49.278,30.61,15084
4438792069,0.634768,2.223,98.0534,0.0420841,0.0636936,0.86601,3.45724,-1.49595,-0.0461113,-0.494775,0.974814,0.140525,0.785156,-2.89462,0,12505,49.278,30.61,15084
4438892452,0.634768,2.223,98.0494,0.0399142,0.0607633,0.866624,3.33901,-1.46407,-0.0495615,-0.417632,0.957647,0.082192,0.759195,-2.79479,0,12505,49.278,30.61,15084
4438992810,0.634768,2.223,98.043,0.038548,0.0587919,0.866984,3.22906,-1.42459,-0.0525061,-0.344069,0.940688,0.303818,0.73061,-2.6881,0,12505,49.278,30.61,15084
4439093166,0.634768,2.223,98.0364,0.0364705,0.0567249,0.867554,3.12157,-1.39305,-0.0478352,-0.388111,0.896768,0.0741404,0.707546,-2.59247,0,12505,49.278,30.61,15084
4439193486,0.634768,2.223,98.0266,0.037156,0.0546633,0.867409,3.0215,-1.36548,-0.0490662,-0.372569,0.848331,0.0577477,0.682889,-2.48793,0,12505,49.278,30.61,15084
4439293750,0.634768,2.223,98.0199,0.0370756,0.0500221,0.867415,2.91901,-1.33585,-0.0454144,-0.293956,0.8823,0.359299,0.66434,-2.39878,0,12505,49.278,30.61,15084
4439394063,0.634768,2.223,98.0162,0.0397266,0.0461024,0.867342,2.82461,-1.29459,-0.031934,-0.287202,0.910576,0.12928,0.641817,-2.29809,0,12505,49.278,30.61,15084
4439494380,0.634768,2.223,98.0169,0.0377386,0.042196,0.86663,2.73156,-1.25072,-0.0441822,-0.210284,0.945824,-0.127966,0.624756,-2.21054,0,12505,49.278,30.61,15084
4439594735,0.634768,2.223,98.0181,0.0353854,0.0400695,0.865948,2.64265,-1.209,-0.0383886,-0.220708,0.887775,0.208146,0.604118,-2.11436,0,12505,49.248,30.61,15074.8
4439695116,0.634768,2.223,98.0195,0.0339406,0.0408619,0.865554,2.55918,-1.17463,-0.0328048,-0.207595,0.79027,0.181766,0.586248,-2.02636,0,12505,49.248,30.61,15074.8
4439795484,0.634768,2.223,98.0252,0.0344238,0.0434662,0.865662,2.47387,-1.14584,-0.0260089,-0.288326,0.849444,0.0614205,0.565729,-1.9369,0,12505,49.248,30.61,15074.8
4439895847,0.634768,2.223,98.0221,0.0347861,0.0433773,0.865937,2.38809,-1.11683,-0.0334898,-0.26867,0.763764,-0.00217829,0.545534,-1.84931,0,12505,49.248,30.61,15074.8
4439996205,0.634768,2.223,98.006,0.038585,0.0416194,0.86626,2.29613,-1.09053,-0.0296267,-0.285947,0.893725,0.160171,0.525898,-1.76566,0,12505,49.248,30.61,15074.8
4440096464,0.634768,2.223,98.0097,0.0399752,0.0413011,0.866706,2.21,-1.05038,-0.0323364,-0.181832,0.894918,-0.0612939,0.506954,-1.67837,0,12505,49.248,30.61,15074.8
4440196833,0.634768,2.223,98.012,0.0434448,0.0412513,0.867334,2.12996,-1.0134,-0.0320205,-0.174024,0.828642,0.173986,0.489877,-1.60368,0,12505,49.248,30.61,15074.8
4440297192,0.634768,2.223,98.0093,0.0453938,0.0398162,0.867878,2.03731,-0.969991,-0.0334214,-0.186928,0.986137,0.0866913,0.474035,-1.52532,0,12505,49.248,30.61,15074.8
4440397543,0.634768,2.223,98.0099,0.0467513,0.0399056,0.868133,1.95542,-0.922405,-0.0293606,-0.126996,0.959014,0.0879508,0.458037,-1.44813,0,12505,49.248,30.61,15074.8
4440497907,0.634768,2.223,98.0095,0.04466,0.0395623,0.868211,1.87012,-0.895521,-0.0327431,-0.282183,0.883623,-0.00103877,0.444895,-1.3794,0,12505,49.248,30.61,15074.8
4440598276,0.634768,2.223,98.0218,0.0452295,0.0380212,0.868392,1.78851,-0.862442,-0.0279671,-0.253325,0.876772,-0.133996,0.430529,-1.30854,0,12505,49.474,26.278,13000.8
4440698686,0.634769,2.223,98.0274,0.0466375,0.0354999,0.868,1.70952,-0.825955,-0.0278532,-0.170552,0.8429,-0.0723471,0.420336,-1.24494,0,12505,49.474,26.278,13000.8
4440799063,0.634769,2.223,98.0376,0.0460292,0.0345434,0.86818,1.63387,-0.788085,-0.0268327,-0.135027,0.879595,-0.120398,0.408057,-1.17974,0,12505,49.474,26.278,13000.8
4440899410,0.634769,2.223,98.0482,0.0446491,0.0343608,0.868081,1.56763,-0.741552,-0.0316179,1.02946e-05,0.821865,0.0716317,0.400004,-1.121,0,12505,49.474,26.278,13000.8
4440999707,0.634769,2.223,98.0559,0.0426318,0.0355256,0.868032,1.50448,-0.705788,-0.0359519,-0.0422197,0.761783,-0.0249648,0.390274,-1.06373,0,12505,49.474,26.278,13000.8
4441100087,0.634769,2.223,98.0556,0.0403993,0.0352618,0.868091,1.44344,-0.666233,-0.0446864,-0.0346485,0.735715,-0.144003,0.381656,-1.00829,0,12505,49.474,26.278,13000.8
4441200446,0.634769,2.223,98.0516,0.036979,0.0335457,0.867776,1.38705,-0.635128,-0.0518572,-0.0576609,0.617624,-0.116344,0.372437,-0.956711,0,12505,49.474,26.278,13000.8
4441300757,0.634769,2.223,98.0523,0.0361512,0.0312687,0.86779,1.33168,-0.600181,-0.0574136,-0.0212201,0.647889,0.0253247,0.363781,-0.905616,0,12505,49.474,26.278,13000.8
4441401139,0.634769,2.223,98.0549,0.0355111,0.0318974,0.867845,1.27872,-0.567983,-0.0510167,-0.0557013,0.634358,-0.0087948,0.354383,-0.857943,0,12505,49.474,26.278,13000.8
4441501427,0.634769,2.223,98.0506,0.0359046,0.0326453,0.867888,1.21938,-0.535591,-0.0509252,-0.0590496,0.6533,0.0741265,0.344458,-0.809048,0,12505,49.474,26.278,13000.8
4441601767,0.634769,2.223,98.0454,0.0350107,0.0328589,0.86812,1.16823,-0.497842,-0.0450491,-0.00727941,0.643111,-0.21647,0.334695,-0.766175,0,12505,49.499,24.666,12209.4
4441702146,0.634769,2.223,98.0439,0.035645,0.0343183,0.868252,1.1189,-0.469468,-0.0544683,-0.0290543,0.604251,0.0879083,0.326248,-0.726982,0,12505,49.499,24.666,12209.4
4441802512,0.634769,2.223,98.0362,0.0352248,0.0360542,0.868406,1.05162,-0.442408,-0.0566075,-0.125576,0.713235,0.0744645,0.317497,-0.689997,0,12505,49.499,24.666,12209.4
4441902880,0.634769,2.223,98.0273,0.0331704,0.0377543,0.868506,0.99962,-0.419207,-0.0540229,-0.0844777,0.575436,0.244656,0.31095,-0.655188,0,12505,49.499,24.666,12209.4
4442003242,0.634769,2.223,98.0158,0.0297724,0.0396187,0.86875,0.947957,-0.402227,-0.0529119,-0.177859,0.498798,0.175991,0.303471,-0.621106,0,12505,49.499,24.666,12209.4
4442103612,0.634769,2.223,98.0051,0.0277341,0.0404045,0.868872,0.89738,-0.3874,-0.0443349,-0.160614,0.535723,0.26024,0.297871,-0.588863,0,12505,49.499,24.666,12209.4
4442204034,0.634769,2.223,97.9906,0.0281094,0.0393129,0.868733,0.849948,-0.369182,-0.0423587,-0.104099,0.485766,0.141704,0.292178,-0.558805,0,12505,49.499,24.666,12209.4
4442304368,0.634769,2.223,97.9839,0.0279281,0.0378731,0.868452,0.800188,-0.351789,-0.0354808,-0.140676,0.524965,0.141225,0.289383,-0.527972,0,12505,49.499,24.666,12209.4
4442404716,0.634769,2.223,97.9703,0.0265933,0.0347635,0.867935,0.747008,-0.336703,-0.0361502,-0.147326,0.53536,0.132625,0.285696,-0.498479,0,12505,49.499,24.666,12209.4
4442505071,0.634769,2.223,97.9621,0.024539,0.0310995,0.867405,0.703395,-0.320335,-0.0325637,-0.0423589,0.46676,0.376029,0.284669,-0.473301,0,12505,49.499,24.666,12209.4
4442605404,0.634769,2.223,97.9602,0.0228943,0.0300017,0.867245,0.666603,-0.298596,-0.0191355,-0.0113983,0.492824,0.00793387,0.282227,-0.44813,0,12505,49.499,24.666,12209.4
4442705819,0.634769,2.223,97.9636,0.0205685,0.0290334,0.86728,0.633139,-0.276543,-0.0155162,-0.0102131,0.389208,-0.0947899,0.280526,-0.424729,0,12505,49.499,24.666,12209.4
4442806180,0.634769,2.223,97.969,0.0199322,0.0286512,0.867218,0.600507,-0.257146,-0.0116516,-0.0345498,0.414346,0.0801419,0.277559,-0.401624,0,12505,49.499,24.666,12209.4
4442906583,0.634769,2.223,97.9789,0.0194998,0.028998,0.866938,0.572455,-0.231702,-0.00152362,0.0371629,0.413035,-0.186842,0.276557,-0.38207,0,12505,49.499,24.666,12209.4
4443006877,0.634769,2.223,97.9894,0.0208461,0.0298026,0.866793,0.538897,-0.210397,0.00015883,-0.0457978,0.369735,-0.186927,0.274243,-0.362732,0,12505,49.499,24.666,12209.4
4443107281,0.634769,2.223,97.9945,0.0185259,0.0282485,0.866773,0.507616,-0.189056,-0.000592696,-0.0118569,0.397584,-0.0156461,0.272863,-0.345685,0,12461,49.537,24.455,12114.3
4443207698,0.634769,2.223,98.0006,0.0166309,0.0270421,0.866741,0.483201,-0.172811,-0.00187645,-0.0134213,0.307102,-0.19339,0.270804,-0.330978,0,12461,49.537,24.455,12114.3
4443308093,0.634769,2.223,97.995,0.0175463,0.0261427,0.866789,0.454276,-0.150189,-0.0165542,0.0355726,0.398673,-0.108316,0.270032,-0.315277,0,12461,49.537,24.455,12114.3
4443408447,0.634769,2.223,97.9892,0.0147433,0.0261817,0.866851,0.42761,-0.119524,-0.0179605,0.0938752,0.440825,0.0270996,0.268312,-0.301307,0,12461,49.537,24.455,12114.3
4443508809,0.634769,2.223,97.9775,0.011438,0.0266547,0.866622,0.408483,-0.0996178,-0.0192962,0.0663402,0.250227,0.0360825,0.26767,-0.286992,0,12461,49.537,24.455,12114.3
4443609125,0.634769,2.223,97.9667,0.0107114,0.0259644,0.866542,0.392733,-0.0916726,-0.0129086,-0.0215922,0.214125,-0.0505698,0.265737,-0.273998,0,12461,49.537,24.455,12114.3
4443709538,0.634769,2.223,97.9735,0.0103398,0.02444,0.866624,0.379843,-0.0799699,-0.0137791,0.0855972,0.183806,-0.0260694,0.264983,-0.263546,0,12461,49.537,24.455,12114.3
4443809896,0.634769,2.223,97.9735,0.0101793,0.0247542,0.866662,0.366092,-0.060131,-0.00967247,0.0463482,0.240057,0.0627157,0.263068,-0.253529,0,12461,49.537,24.455,12114.3
4443910241,0.634769,2.223,97.9756,0.00824123,0.0242363,0.866703,0.338803,-0.0395315,-0.0133389,0.0807508,0.287122,0.0315952,0.261856,-0.243295,0,12461,49.537,24.455,12114.3
4444010645,0.634769,2.223,97.9709,0.0063214,0.0251605,0.866815,0.328934,-0.0228647,-0.0142493,0.114843,0.210187,0.0573781,0.259572,-0.233914,0,12461,49.537,24.455,12114.3
4444111017,0.634769,2.223,97.9676,0.00488243,0.0268093,0.866945,0.313077,-0.0186166,-0.0178048,-0.0468816,0.108831,0.0186303,2.1,-0.5,0,12461,49.545,24.646,12210.9
4444211397,0.634769,2.223,97.9637,0.0041742,0.0302888,0.867194,0.300225,-0.0149335,-0.016736,0.0554238,0.126703,-0.0218846,2.1,-0.5,0,12461,49.545,24.646,12210.9
4444311789,0.634769,2.223,97.9602,0.0116575,0.047871,0.867658,0.280581,-0.0123238,-0.0105777,-0.0691496,0.164922,0.110052,2.1,-0.5,0,12461,49.545,24.646,12210.9
4444412186,0.634769,2.223,97.9643,0.0197164,0.0540879,0.868079,0.241561,-0.0250658,-0.00654999,-0.259596,0.266152,0.0171795,2.1,-0.5,0,12461,49.545,24.646,12210.9
4444512533,0.634769,2.223,97.9685,0.0243764,0.0557612,0.868457,0.198696,-0.0328312,-0.00898403,-0.309215,0.314523,-0.175643,2.1,-0.5,0,12461,49.545,24.646,12210.9
4444612828,0.634769,2.223,97.9683,0.0258961,0.0549263,0.868556,0.153814,-0.0364885,-0.0128652,-0.254141,0.328344,0.0470557,2.1,-0.5,0,12461,49.545,24.646,12210.9
4444713117,0.634769,2.223,97.9629,0.0265048,0.0515214,0.86832,0.105655,-0.0435856,-0.0117132,-0.3221,0.29424,0.177337,2.1,-0.5,0,12461,49.545,24.646,12210.9
4444813465,0.634769,2.223,97.9612,0.0255081,0.0455397,0.868557,0.0708006,-0.0434965,-0.00938332,-0.13071,0.223124,0.202467,2.1,-0.5,0,12461,49.545,24.646,12210.9
4444913781,0.634769,2.223,97.9542,0.0252249,0.0426473,0.868769,0.0366953,-0.0431198,-0.0156098,-0.159322,0.240081,0.069416,2.1,-0.5,0,12461,49.545,24.646,12210.9
4445014060,0.634769,2.223,97.9473,0.0234002,0.0367747,0.868897,0.00681518,-0.0356228,-0.011931,-0.0596262,0.288343,-0.0755428,2.1,-0.5,0,12461,49.545,24.646,12210.9
4445114380,0.634769,2.223,97.9456,0.0196354,0.0349077,0.86879,-0.0220326,-0.0260868,-0.00822354,-0.0756176,0.251563,0.00776638,2.1,-0.5,0,12461,49.504,24.747,12250.8
4445214757,0.634769,2.223,97.9495,0.0127905,0.0273119,0.867383,-0.0413587,-0.0213602,-0.00376971,-0.0108089,0.169946,0.0324912,2.1,-0.5,0,12461,49.504,24.747,12250.8
4445315105,0.634769,2.223,97.9504,-0.0246711,-0.115437,0.867551,-0.0580721,-0.0237254,0.0289614,0.116763,0.0473503,0.38078,2.1,-0.5,0,12461,49.504,24.747,12250.8
4445415458,0.634769,2.223,97.9575,-0.0619293,-0.257495,0.875477,0.121184,0.122291,0.010708,2.49053,-0.453815,-0.0651428,2.1,-0.5,0,12461,49.504,24.747,12250.8
4445515782,0.634769,2.223,97.964,-0.0779563,-0.309854,0.879155,0.365675,0.324849,-0.0293374,3.09828,-0.537591,0.900236,2.1,-0.5,0,12461,49.504,24.747,12250.8
4445616173,0.634769,2.223,97.9673,-0.0792819,-0.301538,0.87817,0.655856,0.545307,-0.0241145,3.41201,-0.735603,0.990774,2.1,-0.5,0,12461,49.504,24.747,12250.8
4445716557,0.634769,2.223,97.952,-0.0688327,-0.258241,0.874609,0.909794,0.739525,-0.0175044,2.88604,-0.611062,1.18314,2.1,-0.5,0,12461,49.504,24.747,12250.8
4445816917,0.634769,2.223,97.9328,-0.0551248,-0.205987,0.871224,1.12649,0.899032,-0.0053536,2.49074,-0.605753,0.478012,2.1,-0.5,0,12461,49.504,24.747,12250.8
4445917265,0.634769,2.223,97.9217,-0.0423814,-0.157243,0.868922,1.28663,1.01994,-0.0120549,1.84336,-0.405858,0.447285,2.1,-0.5,0,12461,49.504,24.747,12250.8
4446017628,0.634769,2.223,97.9131,-0.0310739,-0.116924,0.867795,1.40638,1.11512,0.00353205,1.3572,-0.299763,0.435919,2.1,-0.5,0,12461,49.504,24.747,12250.8
4446118013,0.634769,2.223,97.9193,-0.0247996,-0.0868792,0.867403,1.49192,1.19362,0.00796109,1.05374,-0.138097,0.036358,1.5,2,0,12461,49.504,24.747,12250.8
4446218317,0.634769,2.223,97.92,0.00477864,-0.0587223,0.864194,1.557,1.24549,-0.000442704,0.73641,-0.197501,0.0330083,1.5,2,0,12461,49.515,24.346,12054.9
4446318705,0.634769,2.223,97.9267,0.177942,0.00377429,0.865034,1.57081,1.32213,0.0445115,0.492788,0.676547,0.413602,1.5,2,0,12461,49.515,24.346,12054.9
4446419027,0.634769,2.223,97.9403,0.317973,0.0534701,0.875886,1.38156,1.46274,0.00363835,-0.251742,2.4925,0.130467,1.5,2,0,12461,49.515,24.346,12054.9
4446519468,0.634769,2.223,97.9507,0.386142,0.0761019,0.883583,1.06196,1.6543,-0.031754,-0.662357,3.54759,1.23594,1.5,2,0,12461,49.515,24.346,12054.9
4446619825,0.634769,2.223,97.9582,0.373344,0.0760001,0.883585,0.679477,1.8704,-0.0169315,-0.773172,3.87044,1.77533,1.5,2,0,12461,49.515,24.346,12054.9
4446720190,0.634769,2.223,97.9678,0.319869,0.0651679,0.879755,0.335084,2.0621,0.00301937,-0.702242,3.50105,1.21814,1.5,2,0,12461,49.515,24.346,12054.9
4446820475,0.634769,2.223,97.9802,0.257609,0.0513653,0.875655,0.058901,2.21542,0.0105316,-0.547289,2.81038,0.838672,1.5,2,0,12461,49.515,24.346,12054.9
4446920839,0.634769,2.223,97.984,0.198937,0.0378768,0.872536,-0.151358,2.33534,0.0179997,-0.400077,2.14402,0.489913,1.5,2,0,12461,49.515,24.346,12054.9
4447021151,0.634769,2.223,97.9893,0.150535,0.027231,0.870565,-0.308394,2.42065,0.0153191,-0.248199,1.56572,0.104785,1.5,2,0,12461,49.515,24.346,12054.9
4447121526,0.634769,2.223,98.0126,0.115251,0.0182028,0.869612,-0.434892,2.48358,0.0094745,-0.223258,1.24044,0.0163543,1.5,2,0,12461,49.515,24.346,12054.9
4447221842,0.634769,2.223,98.0319,0.088944,0.0124423,0.868812,-0.523781,2.53497,0.00684508,-0.0164665,0.853672,-0.000925817,1.5,2,0,12461,49.481,25.293,12515.2
4447322211,0.634769,2.223,98.0399,0.0688993,0.0102759,0.868364,-0.59899,2.57428,0.00345331,-0.0852993,0.722171,-0.0671286,1.5,2,0,12461,49.481,25.293,12515.2
4447422559,0.634769,2.223,98.0445,0.0555191,0.00707157,0.86793,-0.650148,2.60175,-0.00384822,0.0232287,0.464665,-0.205332,1.5,2,0,12461,49.481,25.293,12515.2
4447522917,0.634769,2.223,98.0532,0.0470058,0.00367182,0.867237,-0.694551,2.62049,-0.0194905,-0.0128975,0.362479,-0.254847,1.5,2,0,12461,49.481,25.293,12515.2
4447623217,0.634769,2.223,98.0624,0.0407025,0.000664932,0.866508,-0.728956,2.64096,-0.0279258,0.0554441,0.333116,0.00110301,1.5,2,0,12461,49.481,25.293,12515.2
4447723566,0.634769,2.223,98.0652,0.0336244,-0.000909463,0.866293,-0.75617,2.6635,-0.0257775,0.0838315,0.313172,-0.0890913,1.5,2,0,12461,49.481,25.293,12515.2
4447823928,0.634769,2.223,98.0622,0.0283371,-0.000980845,0.865913,-0.777129,2.67299,-0.0402533,-0.00762456,0.187215,-0.164345,1.5,2,0,12461,49.481,25.293,12515.2
4447924320,0.634769,2.223,98.053,0.0238176,-0.00208943,0.865658,-0.790458,2.68269,-0.0592681,0.131602,0.157609,0.112313,1.5,2,0,12461,49.481,25.293,12515.2
4448024661,0.634769,2.223,98.0444,0.0178863,-0.00165398,0.865383,-0.795587,2.68351,-0.0569567,0.0862022,0.0530045,0.131511,1.5,2,0,12461,49.481,25.293,12515.2
4448125065,0.634769,2.223,98.03,0.0144539,-0.00144153,0.865692,-0.792656,2.68076,-0.0553109,0.0765283,-0.0129129,0.160566,-4,3.7,0,12461,49.481,25.293,12515.2
4448225466,0.634769,2.223,98.0249,0.0175834,0.00796856,0.866895,-0.79267,2.67458,-0.0495615,0.0349069,0.0156214,0.140063,-4,3.7,0,12461,49.332,27.213,13424.7
4448325889,0.634769,2.223,98.0218,0.05355,0.150326,0.870596,-0.803516,2.66474,-0.00426578,-0.394706,0.138221,0.254869,-4,3.7,0,12461,49.332,27.213,13424.7
4448426252,0.634769,2.223,98.0187,0.0867559,0.285224,0.879124,-0.968439,2.53652,-0.0507064,-2.18209,0.546519,-0.0222346,-4,3.7,0,12461,49.332,27.213,13424.7
4448526621,0.634769,2.223,98.0148,0.112604,0.367937,0.889231,-1.23973,2.33437,-0.0832558,-3.1842,0.79523,1.16968,-4,3.7,0,12461,49.332,27.213,13424.7
4448626937,0.634769,2.223,98.01,0.127553,0.405383,0.896574,-1.577,2.08136,-0.0678021,-3.5877,0.933643,2.01551,-4,3.7,0,12461,49.332,27.213,13424.7
4448727293,0.634769,2.223,98.0154,0.135338,0.415804,0.900066,-1.93272,1.81442,-0.0487807,-3.75854,0.946325,2.09699,-4,3.7,0,12461,49.332,27.213,13424.7
4448827654,0.634769,2.223,98.0254,0.140365,0.415026,0.900506,-2.29204,1.55452,-0.0512359,-3.77621,1.00639,1.93833,-4,3.7,0,12461,49.332,27.213,13424.7
4448928056,0.634769,2.223,98.0254,0.144924,0.408681,0.899645,-2.65281,1.29892,-0.0460369,-3.70703,1.05508,1.86355,-4,3.7,0,12461,49.332,27.213,13424.7
4449028406,0.634769,2.223,98.0218,0.146856,0.403249,0.898722,-3.0111,1.05414,-0.0427486,-3.63833,1.08953,1.77836,-4,3.7,0,12461,49.332,27.213,13424.7
4449128738,0.634769,2.223,98.0285,0.148527,0.398692,0.89822,-3.35553,0.818203,-0.0396278,-3.48302,1.08638,1.73983,-4,3.7,0,12461,49.332,27.213,13424.7
4449229110,0.634769,2.223,98.0383,0.151457,0.39359,0.898193,-3.69334,0.596987,-0.0396205,-3.43902,1.05168,1.50441,-4,3.7,0,12417,49.479,23.759,11755.7
4449329441,0.634769,2.223,98.0344,0.151681,0.384581,0.897536,-4.03096,0.370404,-0.0424197,-3.34175,1.0192,1.69704,-4,3.7,0,12417,49.479,23.759,11755.7
4449429797,0.634768,2.223,98.0315,0.140941,0.350521,0.893024,-4.3501,0.149979,-0.0258885,-3.23741,0.963518,1.40882,-4,3.7,0,12417,49.479,23.759,11755.7
4449530151,0.634768,2.223,98.0364,0.131552,0.302886,0.88673,-4.62583,-0.0296372,-0.0173104,-2.71792,0.909903,0.922348,-4,3.7,0,12417,49.479,23.759,11755.7
4449630458,0.634768,2.223,98.0471,0.120773,0.254913,0.881275,-4.85036,-0.162099,-0.0074677,-2.14751,0.84355,0.706301,-4,3.7,0,12417,49.479,23.759,11755.7
4449730767,0.634768,2.223,98.0513,0.113408,0.216977,0.877179,-5.05839,-0.280071,-0.00286595,-1.64037,0.713458,0.359282,-4,3.7,0,12417,49.479,23.759,11755.7
4449832219,0.634768,2.223,98.0657,0.107223,0.186746,0.875215,-5.19835,-0.352499,-0.00415874,-1.31217,0.651231,0.099363,-4,3.7,0,12417,49.479,23.759,11755.7
4449933635,0.634768,2.223,98.0719,0.0969172,0.161215,0.873428,-5.30373,-0.397768,-0.0208977,-0.945294,0.640015,0.117584,-4,3.7,0,12417,49.479,23.759,11755.7
4450034039,0.634768,2.223,98.0782,0.0869958,0.146366,0.873424,-5.39154,-0.441629,-0.015012,-0.82282,0.476264,0.0342208,-4,3.7,0,12417,49.479,23.759,11755.7
4450134491,0.634768,2.223,98.087,0.0765504,0.134531,0.872291,-5.45602,-0.48657,-0.019595,-0.755361,0.3174,-0.0836864,-1.9,4.7,0,12417,49.479,23.759,11755.7
4450234859,0.634768,2.223,98.088,0.0828551,0.0998787,0.874168,-5.5088,-0.537547,-0.0270579,-0.759002,0.167264,0.277529,-1.9,4.7,0,12417,49.468,25.853,12789
4450335219,0.634768,2.223,98.0885,0.159645,-0.0793763,0.867309,-5.53608,-0.514337,0.0311715,0.431359,0.583778,0.211081,-1.9,4.7,0,12417,49.468,25.853,12789
4450435565,0.634768,2.223,98.0959,0.211693,-0.189322,0.84967,-5.48913,-0.286673,-0.0496723,2.17215,1.34535,-0.606655,-1.9,4.7,0,12417,49.468,25.853,12789
4450535911,0.634768,2.223,98.0933,0.226662,-0.231026,0.838584,-5.41404,0.0477228,-0.0844223,2.76732,1.48128,1.4545,-1.9,4.7,0,12417,49.468,25.853,12789
4450636289,0.634767,2.223,98.0886,0.210795,-0.21357,0.838923,-5.33218,0.404457,-0.0714487,2.9022,1.61655,1.03957,-1.9,4.7,0,12417,49.468,25.853,12789
4450736636,0.634767,2.223,98.0752,0.188639,-0.171447,0.844745,-5.26794,0.711386,-0.0732604,2.45523,1.44588,0.848682,-1.9,4.7,0,12417,49.468,25.853,12789
4450836982,0.634767,2.223,98.0559,0.162429,-0.124571,0.851263,-5.20917,0.959843,-0.0841326,2.04049,1.17631,0.323514,-1.9,4.7,0,12417,49.468,25.853,12789
4450937354,0.634767,2.223,98.0399,0.138045,-0.0838603,0.85646,-5.17092,1.15653,-0.0827223,1.50814,0.92174,0.521141,-1.9,4.7,0,12417,49.468,25.853,12789
4451037736,0.634767,2.223,98.0308,0.119668,-0.0538212,0.859244,-5.14446,1.31091,-0.0531833,1.12879,0.781146,0.321112,-1.9,4.7,0,12417,49.468,25.853,12789
4451138083,0.634767,2.223,98.0234,0.10683,-0.0313538,0.86196,-5.13059,1.44264,-0.046092,0.870323,0.737176,0.36128,-1.9,4.7,0,12417,49.468,25.853,12789
4451238405,0.634767,2.223,98.0249,0.0922205,-0.0107755,0.863688,-5.12284,1.55516,-0.037214,0.666573,0.621505,-0.0582072,-1.9,4.7,0,12417,49.468,25.853,12789
4451338736,0.634767,2.223,98.0301,0.0843333,0.00851822,0.865247,-5.12149,1.63498,-0.0413268,0.412875,0.456915,0.159654,-1.9,4.7,0,12417,49.364,25.789,12730.5
4451439107,0.634767,2.223,98.0394,0.073916,0.0262061,0.866896,-5.12057,1.70019,-0.0481275,0.285983,0.345975,-0.0981563,-1.9,4.7,0,12417,49.364,25.789,12730.5
4451539468,0.634767,2.223,98.0537,0.0649802,0.0390423,0.86844,-5.12161,1.72884,-0.0316334,0.0554834,0.183125,-0.105797,-1.9,4.7,0,12417,49.364,25.789,12730.5
4451639798,0.634767,2.223,98.0633,0.0561253,0.0462429,0.868582,-5.1284,1.7476,-0.0470224,0.00658636,0.145751,-0.054589,-1.9,4.7,0,12417,49.364,25.789,12730.5
4451740217,0.634767,2.223,98.0641,0.0582255,0.0508478,0.869322,-5.13373,1.76513,-0.041204,-0.00701834,0.0800119,-0.178413,-1.9,4.7,0,12417,49.364,25.789,12730.5
4451840579,0.634767,2.223,98.0657,0.066345,0.0535154,0.86995,-5.13497,1.77094,-0.0681958,-0.0534014,0.0365644,0.0714989,-1.9,4.7,0,12417,49.364,25.789,12730.5
4451940936,0.634766,2.223,98.0677,0.0680813,0.0514423,0.868512,-5.15048,1.78397,-0.0712242,-0.0613281,0.189784,-0.450952,-1.9,4.7,0,12417,49.364,25.789,12730.5
4452041251,0.634766,2.223,98.0705,0.0675789,0.0490486,0.868626,-5.15848,1.79454,-0.0666118,0.0555451,0.115348,0.115204,-1.9,4.7,0,12417,49.364,25.789,12730.5
4452141568,0.634766,2.223,98.0799,0.0605429,0.0500907,0.868992,-5.16563,1.80409,-0.0732809,0.00714808,0.122859,-0.377128,1.62583,-6.57193,0,12417,49.364,25.789,12730.5
4452241866,0.634766,2.223,98.0874,0.0363183,0.0390372,0.868227,-5.16689,1.80365,-0.0655937,0.00501836,0.0919885,0.410334,1.69476,-6.73906,0,12417,49.364,25.789,12730.5
4452342240,0.634766,2.223,98.0815,-0.134098,-0.0352556,0.868633,-5.12942,1.78397,-0.00589238,0.331117,-0.721545,0.53533,1.76583,-6.90927,0,12417,49.543,24.35,12063.7
4452442584,0.634766,2.223,98.0861,-0.270343,-0.086986,0.87911,-4.87052,1.70664,-0.00597804,1.16254,-2.53395,0.203544,1.759,-7.08699,0,12417,49.543,24.35,12063.7
4452542942,0.634766,2.223,98.091,-0.356579,-0.114423,0.888331,-4.50712,1.58164,-0.0457199,1.43522,-3.49063,1.13875,1.75713,-7.24355,0,12417,49.543,24.35,12063.7
4452643299,0.634766,2.223,98.0826,-0.405423,-0.127458,0.893526,-4.08033,1.43007,-0.0691057,1.61631,-4.06092,1.3388,1.78063,-7.40949,0,12417,49.543,24.35,12063.7
4452743668,0.634766,2.223,98.0631,-0.429192,-0.137318,0.897343,-3.61537,1.25842,-0.114001,1.68167,-4.27526,1.97737,1.80434,-7.53301,0,12417,49.543,24.35,12063.7
4452844087,0.634766,2.223,98.037,-0.432142,-0.142451,0.899153,-3.12556,1.06817,-0.14297,1.6302,-4.37544,2.3439,1.83945,-7.65967,0,12417,49.543,24.35,12063.7
4452944443,0.634766,2.223,98.0062,-0.414739,-0.14432,0.898357,-2.61963,0.893364,-0.136912,1.7267,-4.16248,2.67743,1.88342,-7.74295,0,12417,49.543,24.35,12063.7
4453044813,0.634766,2.223,97.9775,-0.382179,-0.131517,0.892283,-2.126,0.742726,-0.131039,1.85975,-4.10705,2.15332,1.96783,-7.8283,0,12417,49.543,24.35,12063.7
4453145293,0.634766,2.223,97.9571,-0.337082,-0.111408,0.884296,-1.66974,0.592503,-0.090389,1.6165,-3.8569,1.86736,2.05566,-7.87574,0,12417,49.543,24.35,12063.7
4453245590,0.634766,2.223,97.9539,-0.283016,-0.0918655,0.879914,-1.28469,0.456672,-0.0614619,1.33295,-3.32523,1.38445,2.11055,-7.92281,0,12417,49.543,24.35,12063.7
4453345984,0.634766,2.223,97.9551,-0.303728,-0.0871659,0.879826,-0.968336,0.34612,-0.0151949,1.12827,-2.90674,0.943284,2.11407,-7.93183,0,12417,49.69,20.38,10126.8
4453446412,0.634766,2.223,97.9584,-0.340168,-0.0915426,0.88092,-0.611944,0.206673,-0.0282392,1.13661,-3.20988,1.20984,2.10694,-7.94011,0,12417,49.69,20.38,10126.8
4453546786,0.634766,2.223,97.9798,-0.366598,-0.0950601,0.882339,-0.232276,0.0571676,-0.0236534,1.21764,-3.57719,1.18407,2.08631,-7.92434,0,12417,49.69,20.38,10126.8
4453647184,0.634766,2.223,97.9994,-0.380502,-0.0961821,0.882782,0.154698,-0.0950649,-0.0265134,1.25502,-3.70411,1.14448,2.07476,-7.90775,0,12417,49.69,20.38,10126.8
4453747524,0.634766,2.223,98.007,-0.383248,-0.0963097,0.882848,0.547503,-0.256357,-0.0338021,1.21342,-3.57141,1.67679,2.05883,-7.87254,0,12417,49.69,20.38,10126.8
4453847825,0.634766,2.223,98.013,-0.381941,-0.095008,0.882986,0.936054,-0.407585,-0.0181291,1.2323,-3.64774,1.35919,2.04254,-7.83332,0,12417,49.69,20.38,10126.8
4453948227,0.634766,2.223,98.025,-0.379861,-0.0925758,0.882295,1.31734,-0.56075,-0.0255261,1.20036,-3.62185,1.3721,2.0275,-7.77881,0,12417,49.69,20.38,10126.8
4454048569,0.634766,2.223,98.0296,-0.375879,-0.0903954,0.881927,1.69147,-0.713938,-0.0274175,1.10756,-3.47023,1.69611,2.00852,-7.7166,0,12417,49.69,20.38,10126.8
4454148962,0.634766,2.223,98.0325,-0.372775,-0.0889835,0.881463,2.05471,-0.861028,-0.0273271,1.14102,-3.3522,1.43529,1.9848,-7.64031,0,12417,49.69,20.38,10126.8
4454249335,0.634766,2.223,98.0316,-0.368102,-0.0864585,0.880961,2.40678,-1.01074,-0.0268688,1.04022,-3.3988,1.32736,1.92486,-7.45583,0,12417,49.69,20.38,10126.8
4454349714,0.634766,2.223,98.0276,-0.365089,-0.0815319,0.879995,2.74983,-1.15519,-0.0281836,1.05669,-3.30086,1.35627,1.89398,-7.34127,0,12417,49.708,20.374,10127.5
4454450086,0.634766,2.223,98.0205,-0.361189,-0.0755508,0.878692,3.07969,-1.29377,-0.0269368,0.978909,-3.12661,1.29416,1.86311,-7.22053,0,12417,49.708,20.374,10127.5
4454550433,0.634766,2.223,98.009,-0.35916,-0.0700122,0.877343,3.39418,-1.44364,-0.0445899,0.798294,-3.11164,1.22543,1.82976,-7.08715,0,12417,49.708,20.374,10127.5
4454650797,0.634766,2.223,98.0009,-0.352216,-0.0677287,0.87672,3.70137,-1.58794,-0.0455743,0.803476,-3.03622,1.35957,1.79335,-6.95591,0,12417,49.708,20.374,10127.5
4454751150,0.634766,2.223,98.0017,-0.346067,-0.0634267,0.875373,3.99744,-1.72705,-0.0507013,0.833412,-2.96883,1.09168,1.75391,-6.79619,0,12417,49.708,20.374,10127.5
4454851489,0.634766,2.223,98.0055,-0.340919,-0.0587632,0.873996,4.2769,-1.8626,-0.0412298,0.689442,-2.80532,1.10164,1.71767,-6.64769,0,12417,49.708,20.374,10127.5
4454951855,0.634766,2.223,98.0056,-0.337695,-0.054679,0.872417,4.53494,-1.99483,-0.0322138,0.587555,-2.65347,1.03229,1.67368,-6.46827,0,12417,49.708,20.374,10127.5
4455052305,0.634766,2.223,98.0095,-0.325054,-0.047318,0.870346,4.78248,-2.13352,-0.015288,0.505431,-2.55568,1.18007,1.63877,-6.30311,0,12417,49.708,20.374,10127.5
4455152714,0.634766,2.223,98.0259,-0.278023,-0.0342749,0.867632,5.04333,-2.28442,-0.00695941,0.412926,-2.25722,0.731119,1.60147,-6.1155,0,12417,49.708,20.374,10127.5
4455253130,0.634767,2.223,98.0349,-0.224935,-0.0228247,0.8667,5.19567,-2.37305,0.0100501,0.339244,-1.68709,0.279667,1.5548,-5.9293,0,12417,49.708,20.374,10127.5
4455353497,0.634767,2.223,98.0399,-0.166413,-0.0138625,0.866561,5.29665,-2.42653,0.0144097,0.284232,-1.11331,0.18857,1.497,-5.7232,0,12373,49.434,26.839,13267.6
4455453827,0.634767,2.223,98.0485,-0.115503,-0.00659632,0.866702,5.34302,-2.44562,0.0115148,0.202366,-0.523117,0.0192066,1.44609,-5.54443,0,12373,49.434,26.839,13267.6
4455554191,0.634767,2.223,98.0586,-0.0687503,0.00331571,0.866991,5.35531,-2.43075,0.013418,0.2002,-0.0542317,0.0227074,1.38551,-5.33822,0,12373,49.434,26.839,13267.6
4455654784,0.634767,2.223,98.0692,-0.0289303,0.0135806,0.867017,5.32962,-2.39565,0.00773318,0.0979001,0.304056,-0.1082,1.33433,-5.16206,0,12373,49.434,26.839,13267.6
4455755126,0.634767,2.223,98.0787,0.00232868,0.0208513,0.866264,5.27597,-2.34832,-0.00727512,0.0436544,0.620874,0.114674,1.28146,-4.96899,0,12373,49.434,26.839,13267.6
4455855473,0.634767,2.223,98.0928,0.0278345,0.03126,0.865552,5.19794,-2.28288,-5.45047e-05,0.030112,0.90523,-0.239535,1.23175,-4.79221,0,12373,49.434,26.839,13267.6
4455955848,0.634767,2.223,98.0964,0.0480824,0.0470052,0.865084,5.08457,-2.21921,-0.0117483,-0.244332,1.09572,-0.125829,1.1752,-4.60011,0,12373,49.434,26.839,13267.6
4456056308,0.634767,2.223,98.0904,0.0574561,0.0595472,0.864164,4.95833,-2.16015,-0.0326343,-0.360293,1.14954,0.0954994,1.12844,-4.43701,0,12373,49.434,26.839,13267.6
4456156706,0.634767,2.223,98.0758,0.0675972,0.0702327,0.864468,4.81677,-2.10823,-0.0454751,-0.5085,1.18347,0.212939,1.07473,-4.26901,0,12373,49.434,26.839,13267.6
4456257085,0.634767,2.223,98.0601,0.0712232,0.0823487,0.864723,4.64821,-2.05965,-0.0658895,-0.711896,1.44199,-0.245867,1.0323,-4.13127,0,12373,49.434,26.839,13267.6
4456357454,0.634767,2.223,98.0409,0.0776979,0.0856502,0.864231,4.48299,-2.02553,-0.0815808,-0.793153,1.28436,0.222169,0.990127,-3.98113,0,12373,49.434,26.839,13267.6
4456457807,0.634767,2.223,98.0401,0.0708521,0.081279,0.863792,4.31043,-1.98728,-0.0817787,-0.735414,1.2883,0.332672,0.955994,-3.84876,0,12373,49.281,28.63,14109.2
4456558150,0.634768,2.223,98.0411,0.0706027,0.0769333,0.864307,4.15986,-1.94773,-0.0662304,-0.613618,1.21887,0.152645,0.916322,-3.71016,0,12373,49.281,28.63,14109.2
4456658528,0.634768,2.223,98.0403,0.0688598,0.0707358,0.863768,4.00486,-1.91254,-0.073875,-0.637093,1.21657,0.27616,0.890906,-3.58886,0,12373,49.281,28.63,14109.2
4456758897,0.634768,2.223,98.0428,0.0709749,0.0593972,0.864061,3.86162,-1.86609,-0.0530263,-0.501118,1.25205,0.0471111,0.860477,-3.46458,0,12373,49.281,28.63,14109.2
4456859252,0.634768,2.223,98.0463,0.0704987,0.0505726,0.86434,3.72242,-1.8117,-0.0518372,-0.417819,1.28138,0.117084,0.837684,-3.34627,0,12373,49.281,28.63,14109.2
4456959637,0.634768,2.223,98.0485,0.062511,0.0401528,0.86393,3.60131,-1.75734,-0.0409192,-0.244598,1.17987,0.125723,0.813252,-3.22408,0,12373,49.281,28.63,14109.2
4457060042,0.634768,2.223,98.048,0.0512146,0.0298379,0.863559,3.48498,-1.70075,-0.0431236,-0.196686,1.1455,-0.0197685,0.793738,-3.10534,0,12373,49.281,28.63,14109.2
4457160454,0.634768,2.223,98.0479,0.0454235,0.0219981,0.863736,3.39724,-1.64399,-0.0504852,-0.0225577,0.941636,-0.142084,0.76739,-2.98147,0,12373,49.281,28.63,14109.2
4457260748,0.634768,2.223,98.0456,0.0435118,0.0242487,0.864817,3.31668,-1.58852,-0.0586945,0.00827858,0.906746,0.0961353,0.744071,-2.87319,0,12373,49.281,28.63,14109.2
4457361130,0.634768,2.223,98.0469,0.0458226,0.0268857,0.866037,3.22577,-1.53648,-0.0491012,-0.0530722,0.966125,-0.0717361,0.715374,-2.75564,0,12373,49.281,28.63,14109.2
4457461908,0.634768,2.223,98.0452,0.0428108,0.0249903,0.867019,3.13239,-1.48278,-0.0497684,-0.0883706,1.00712,0.08483,0.690314,-2.64821,0,12373,49.403,28.26,13961.3
4457564093,0.634768,2.223,98.0429,0.0465833,0.0237787,0.866963,3.05077,-1.43866,-0.045318,-0.1197,0.901664,0.0184158,0.666478,-2.54256,0,12373,49.403,28.26,13961.3
4457664439,0.634768,2.223,98.0494,0.0463837,0.0216085,0.867065,2.972,-1.39055,-0.0510772,-0.0575342,0.943982,-0.176597,0.645627,-2.44254,0,12373,49.403,28.26,13961.3
4457764757,0.634768,2.223,98.0511,0.0528616,0.023116,0.867277,2.88999,-1.34347,-0.0497082,-0.0999605,0.956768,0.0704282,0.620794,-2.33555,0,12373,49.403,28.26,13961.3
4457865095,0.634768,2.223,98.0498,0.0561121,0.0229289,0.867433,2.80531,-1.28627,-0.0476099,-0.0299305,1.063,0.0816635,0.597098,-2.23469,0,12373,49.403,28.26,13961.3
4457965474,0.634768,2.223,98.0456,0.0533079,0.0229719,0.867169,2.72015,-1.22827,-0.0520296,-0.0434498,1.08444,0.0318898,0.572747,-2.13492,0,12373,49.403,28.26,13961.3
4458065836,0.634768,2.223,98.0405,0.0557514,0.0274566,0.867468,2.63583,-1.1843,-0.05305,-0.177248,1.00098,0.10303,0.548837,-2.03639,0,12373,49.403,28.26,13961.3
4458166230,0.634768,2.223,98.0363,0.0536662,0.0297546,0.867854,2.54195,-1.12968,-0.0504342,-0.100943,1.13135,0.216414,0.523956,-1.93985,0,12373,49.403,28.26,13961.3
4458266586,0.634768,2.223,98.0314,0.0565242,0.0313923,0.868272,2.44848,-1.07931,-0.0405995,-0.173191,1.10683,-0.0216093,0.501346,-1.84872,0,12373,49.403,28.26,13961.3
4458366946,0.634768,2.223,98.0315,0.0533288,0.0308274,0.868425,2.36137,-1.03435,-0.0392604,-0.196493,1.09658,0.0227186,0.480289,-1.76782,0,12373,49.403,28.26,13961.3
4458467338,0.634768,2.223,98.0295,0.060067,0.034082,0.868699,2.27163,-0.993337,-0.0333317,-0.250038,1.08993,0.055664,0.458631,-1.67911,0,12373,49.516,24.127,11946.7
4458567749,0.634768,2.223,98.0222,0.0590244,0.032816,0.868715,2.17459,-0.947268,-0.0485833,-0.266916,1.11975,0.113235,0.438605,-1.60067,0,12373,49.516,24.127,11946.7
4458668144,0.634768,2.223,98.0184,0.064618,0.0342779,0.868198,2.0882,-0.90476,-0.0509373,-0.150806,0.982692,0.387515,0.421575,-1.52517,0,12373,49.516,24.127,11946.7
4458768496,0.634768,2.223,98.0143,0.0598592,0.0371038,0.867623,1.98495,-0.847715,-0.0397906,-0.202132,1.22367,-0.0717069,0.40349,-1.45191,0,12373,49.516,24.127,11946.7
4458868852,0.634768,2.223,98.0042,0.0589681,0.0423033,0.867945,1.89387,-0.811339,-0.0451052,-0.293936,1.03651,0.000688978,0.387223,-1.38102,0,12373,49.516,24.127,11946.7
4458969229,0.634769,2.223,97.9962,0.05004,0.0450467,0.867496,1.7975,-0.769942,-0.0475844,-0.260663,1.046,0.152635,0.371203,-1.31259,0,12373,49.516,24.127,11946.7
4459069580,0.634769,2.223,97.9927,0.0469349,0.048921,0.868133,1.70654,-0.746776,-0.0338066,-0.389867,0.889235,0.15528,0.357305,-1.24984,0,12373,49.516,24.127,11946.7
4459169973,0.634769,2.223,97.9968,0.0443407,0.0504357,0.867807,1.61454,-0.722018,-0.0272969,-0.366427,0.901145,0.213505,0.34396,-1.18931,0,12373,49.516,24.127,11946.7
4459270383,0.634769,2.223,98.001,0.0447269,0.0465107,0.86771,1.53257,-0.700361,-0.0242061,-0.273252,0.84585,0.168648,0.334778,-1.13101,0,12373,49.516,24.127,11946.7
4459370708,0.634769,2.223,98.0046,0.0435687,0.0430269,0.867608,1.43584,-0.674314,-0.00911197,-0.288587,0.840543,0.0336677,0.324698,-1.07474,0,12373,49.516,24.127,11946.7
4459470991,0.634769,2.223,98.0121,0.0425631,0.0376766,0.867832,1.35949,-0.646776,-0.0107777,-0.235027,0.847437,-0.0997578,0.318459,-1.02558,0,12373,49.548,22.422,11109.7
4459571351,0.634769,2.223,98.0261,0.0417514,0.0344075,0.8677,1.2853,-0.611645,-0.0164855,-0.174495,0.853751,0.0229577,0.311726,-0.979728,0,12373,49.548,22.422,11109.7
4459671738,0.634769,2.223,98.0283,0.0397434,0.0294292,0.868046,1.21526,-0.590138,-0.0111796,-0.146709,0.709432,-0.011388,0.306659,-0.930403,0,12373,49.548,22.422,11109.7
4459772101,0.634769,2.223,98.0244,0.0391092,0.0236845,0.868379,1.15621,-0.57002,-0.0239354,-0.135949,0.646628,-0.155064,0.299962,-0.884121,0,12373,49.548,22.422,11109.7
4459872469,0.634769,2.223,98.0188,0.0392431,0.0208801,0.868541,1.09671,-0.540102,-0.0372139,-0.101417,0.69103,0.203943,0.297134,-0.83829,0,12373,49.548,22.422,11109.7
4459972822,0.634769,2.223,98.0137,0.0389009,0.0199368,0.86839,1.04028,-0.504501,-0.035958,-0.0177927,0.749869,-0.194633,0.293462,-0.797382,0,12373,49.548,22.422,11109.7
