timestamp,lat,log,alt,roll,pitch,yaw,vel_x,vel_y,vel_z,acc_x,acc_y,acc_z,act_vx,act_vy,act_yr,capacity,vol,cur,power
1384485576,0.634768,2.223,91.7359,-0.0310173,-0.00223365,0.928388,0.0494058,0.0174775,0.00713513,0.0564374,0.0195678,-0.313704,-1.9,-4.2,0,12802,49.693,24.803,12325.4
1384587661,0.634768,2.223,91.74,-0.0333605,-0.00134692,0.928458,0.0466855,0.0305008,0.00515628,0.112534,0.0877452,-0.0199922,-1.9,-4.2,0,12802,49.693,24.803,12325.4
1384687986,0.634768,2.223,91.7371,-0.0400127,0.00362452,0.928446,0.0458734,0.0334065,0.00268302,0.0665556,-0.0387851,-0.0236935,-1.9,-4.2,0,12802,49.693,24.803,12325.4
1384788336,0.634768,2.223,91.7421,-0.144477,0.0588077,0.924263,0.0518233,0.0252385,0.0369277,-0.0990564,-0.250536,0.057352,-1.9,-4.2,0,12802,49.693,24.803,12325.4
1384888733,0.634768,2.223,91.7457,-0.275266,0.119478,0.911298,0.122493,-0.120287,-0.00433624,-0.807015,-1.67407,-0.163382,-1.9,-4.2,0,12802,49.687,24.658,12251.8
1384989099,0.634768,2.223,91.7361,-0.358049,0.157008,0.898406,0.250214,-0.394715,-0.0293131,-1.3423,-2.55606,1.23335,-1.9,-4.2,0,12802,49.687,24.658,12251.8
1385089520,0.634768,2.223,91.7325,-0.399949,0.174366,0.89099,0.42103,-0.748242,-0.0191776,-1.58493,-3.14821,1.745,-1.9,-4.2,0,12802,49.687,24.658,12251.8
1385189879,0.634768,2.223,91.7332,-0.415316,0.178307,0.888804,0.615174,-1.13733,-0.00920876,-1.71239,-3.5258,1.82363,-1.9,-4.2,0,12802,49.687,24.658,12251.8
1385290187,0.634768,2.223,91.7391,-0.415426,0.175313,0.889851,0.819908,-1.52653,0.00120928,-1.67925,-3.58616,1.70718,-1.9,-4.2,0,12802,49.687,24.658,12251.8
1385390542,0.634768,2.223,91.7381,-0.407953,0.170358,0.891448,1.01438,-1.91556,0.0112271,-1.6755,-3.42686,1.82174,-1.9,-4.2,0,12802,49.687,24.658,12251.8
1385490944,0.634768,2.223,91.7359,-0.401508,0.163524,0.893611,1.2046,-2.28114,0.0089369,-1.52535,-3.23866,1.63645,-3.6,4.1,0,12802,49.687,24.658,12251.8
1385591274,0.634768,2.223,91.7391,-0.376615,0.156293,0.895385,1.39483,-2.63561,0.0117079,-1.4665,-3.09952,1.76254,-3.6,4.1,0,12802,49.687,24.658,12251.8
1385691582,0.634768,2.223,91.7519,-0.162736,0.155907,0.923974,1.58561,-3.00944,0.145113,-1.49476,-2.93131,2.20667,-3.6,4.1,0,12802,49.687,24.658,12251.8
1385791941,0.634769,2.223,91.7757,0.173487,0.138492,0.953021,1.53282,-3.14629,0.180539,-1.15311,0.226371,0.372904,-3.6,4.1,0,12802,49.687,24.658,12251.8
1385892334,0.634769,2.223,91.798,0.388621,0.121761,0.955914,1.20858,-3.0517,0.166887,-1.10347,3.70866,0.201752,-3.6,4.1,0,12802,49.655,24.905,12366.6
1385992696,0.634769,2.223,91.8178,0.469077,0.115818,0.952546,0.809167,-2.85416,-0.0229848,-0.804815,4.73384,0.763939,-3.6,4.1,0,12802,49.655,24.905,12366.6
1386093060,0.634769,2.223,91.8327,0.495083,0.113273,0.947898,0.32275,-2.60536,-0.0833917,-0.789189,5.06182,2.32876,-3.6,4.1,0,12802,49.655,24.905,12366.6
1386193424,0.634769,2.223,91.8143,0.494862,0.111469,0.943962,-0.194047,-2.34685,-0.123649,-0.928299,5.15993,2.52685,-3.6,4.1,0,12802,49.655,24.905,12366.6
1386293781,0.634769,2.223,91.7865,0.480575,0.112881,0.942559,-0.715608,-2.07677,-0.133008,-0.849763,5.05323,2.85024,-3.6,4.1,0,12802,49.655,24.905,12366.6
1386394093,0.634769,2.223,91.7621,0.460348,0.121512,0.945215,-1.24251,-1.78951,-0.101374,-0.71417,4.93172,3.07318,-3.6,4.1,0,12802,49.655,24.905,12366.6
1386494421,0.634769,2.223,91.7505,0.436734,0.133803,0.949289,-1.75256,-1.53228,-0.0629403,-0.860215,4.71427,2.66797,0.9,-3,0,12802,49.655,24.905,12366.6
1386594702,0.634768,2.223,91.7398,0.402494,0.137911,0.949374,-2.2387,-1.30833,-0.0550967,-1.03312,4.50703,2.08339,0.9,-3,0,12802,49.655,24.905,12366.6
1386694991,0.634768,2.223,91.7278,0.209398,0.036665,0.932013,-2.72018,-1.10945,0.00281966,-1.10323,4.08415,2.16407,0.9,-3,0,12802,49.655,24.905,12366.6
1386795252,0.634768,2.223,91.7307,-0.100552,-0.124241,0.938129,-2.87194,-0.959063,0.0618867,0.546726,1.36897,0.375455,0.9,-3,0,12802,49.655,24.905,12366.6
1386895511,0.634768,2.223,91.7369,-0.304405,-0.209807,0.965071,-2.64961,-0.880692,0.0191272,2.06227,-1.863,0.183263,0.9,-3,0,12802,49.587,26.386,13084
1386995865,0.634768,2.223,91.7423,-0.403187,-0.243347,0.981574,-2.24782,-0.83422,-0.0363921,2.5883,-2.9974,1.7565,0.9,-3,0,12802,49.587,26.386,13084
1387096284,0.634768,2.223,91.7407,-0.438107,-0.250067,0.986398,-1.74097,-0.821575,-0.0391335,2.78964,-3.70178,2.43983,0.9,-3,0,12802,49.587,26.386,13084
1387198050,0.634768,2.223,91.7249,-0.436132,-0.244579,0.984109,-1.21418,-0.825353,-0.0260927,2.75086,-3.89848,2.51074,0.9,-3,0,12802,49.587,26.386,13084
1387303363,0.634768,2.223,91.7185,-0.423992,-0.238849,0.981352,-0.597513,-0.835641,-0.00366053,2.52981,-3.58292,2.73973,0.9,-3,0,12802,49.587,26.386,13084
1387403731,0.634768,2.223,91.7244,-0.411654,-0.23031,0.977979,-0.0991322,-0.836312,0.0157604,2.59287,-3.38636,2.36743,0.9,-3,0,12802,49.587,26.386,13084
1387504144,0.634768,2.223,91.7212,-0.40114,-0.215615,0.973039,0.368073,-0.845293,0.0154283,2.40513,-3.28261,1.86317,-3.6,0,0,12802,49.587,26.386,13084
1387604476,0.634768,2.223,91.7263,-0.376474,-0.171666,0.963927,0.830759,-0.867838,0.0108753,2.18278,-3.19597,2.0849,-3.6,0,0,12802,49.587,26.386,13084
1387704836,0.634768,2.223,91.7308,-0.218468,0.0429687,0.936824,1.25365,-0.927216,0.0996919,1.4242,-2.96136,1.53922,-3.6,0,0,12802,49.587,26.386,13084
1387805132,0.634768,2.223,91.7456,0.000104211,0.259701,0.938807,1.28422,-1.07952,0.116768,-1.57257,-0.502743,-0.123662,-3.6,0,0,12802,49.587,26.386,13084
1387905471,0.634768,2.223,91.7654,0.129791,0.364598,0.955361,1.0401,-1.2482,0.036581,-3.04799,1.33146,0.470169,-3.6,0,0,12802,49.507,28.159,13940.7
1388005896,0.634768,2.223,91.8017,0.188372,0.405001,0.964649,0.679539,-1.42955,-0.0110005,-3.60755,1.98835,1.42492,-3.6,0,0,12802,49.507,28.159,13940.7
1388107701,0.634768,2.223,91.8416,0.201625,0.412901,0.965148,0.255791,-1.61646,-0.0255086,-3.72218,2.24165,1.87546,-3.6,0,0,12802,49.507,28.159,13940.7
1388208106,0.634768,2.223,91.8634,0.195024,0.410519,0.961743,-0.165601,-1.79472,-0.0350685,-3.70801,2.29051,1.71519,-3.6,0,0,12802,49.507,28.159,13940.7
1388308448,0.634768,2.223,91.8861,0.16928,0.38632,0.953657,-0.58836,-1.96938,-0.042923,-3.70797,2.28819,1.51176,-3.6,0,0,12802,49.507,28.159,13940.7
1388408728,0.634768,2.223,91.8953,0.130212,0.336563,0.943493,-0.972569,-2.14559,-0.0421039,-3.33277,1.93122,1.4599,-3.6,0,0,12802,49.507,28.159,13940.7
1388509100,0.634768,2.223,91.8934,0.0878968,0.280994,0.93614,-1.28899,-2.28773,-0.0358931,-2.72189,1.57709,0.823208,1.3,-4.2,0,12802,49.507,28.159,13940.7
1388609399,0.634768,2.223,91.8858,0.0320923,0.19784,0.924878,-1.53376,-2.40526,-0.0437686,-2.1955,1.16397,0.561897,1.3,-4.2,0,12802,49.507,28.159,13940.7
1388709780,0.634768,2.223,91.8718,-0.120559,-0.0454646,0.924661,-1.69428,-2.48877,-0.0183071,-0.99037,0.504682,0.502459,1.3,-4.2,0,12802,49.507,28.159,13940.7
1388810153,0.634768,2.223,91.8701,-0.24636,-0.211659,0.955658,-1.51466,-2.4346,-0.0287805,1.89928,-1.45732,-0.189755,1.3,-4.2,0,12802,49.507,28.159,13940.7
1388910518,0.634768,2.223,91.8599,-0.315772,-0.292554,0.980064,-1.18218,-2.34387,-0.104092,2.85117,-2.15532,1.28695,1.3,-4.2,0,12741,49.37,29.3,14465.4
1389010875,0.634768,2.223,91.8286,-0.337906,-0.322887,0.991579,-0.735264,-2.21881,-0.105721,3.3672,-2.47738,2.42327,1.3,-4.2,0,12741,49.37,29.3,14465.4
1389111230,0.634768,2.223,91.7921,-0.338438,-0.321503,0.992456,-0.259775,-2.0757,-0.0992104,3.60136,-2.5397,2.4951,1.3,-4.2,0,12741,49.37,29.3,14465.4
1389211584,0.634768,2.223,91.7658,-0.331602,-0.306507,0.988446,0.208182,-1.94351,-0.0817535,3.50019,-2.55766,2.3268,1.3,-4.2,0,12741,49.37,29.3,14465.4
1389311953,0.634768,2.223,91.7371,-0.332968,-0.291294,0.984435,0.661951,-1.81698,-0.0557086,3.26423,-2.45978,2.15215,1.3,-4.2,0,12741,49.37,29.3,14465.4
1389412339,0.634768,2.223,91.7347,-0.336853,-0.273578,0.9799,1.10326,-1.71626,-0.0487838,2.99645,-2.42144,2.09712,1.3,-4.2,0,12741,49.37,29.3,14465.4
1389512726,0.634768,2.223,91.728,-0.341487,-0.253046,0.975372,1.53274,-1.62923,-0.0300056,2.79508,-2.4241,1.95562,-1.5,2.6,0,12741,49.37,29.3,14465.4
1389613080,0.634768,2.223,91.7246,-0.328059,-0.228958,0.967083,1.95048,-1.57161,-0.0224696,2.49221,-2.50647,1.7767,-1.5,2.6,0,12741,49.37,29.3,14465.4
1389713480,0.634768,2.223,91.7162,-0.123258,-0.129191,0.932832,2.36408,-1.51883,0.0456939,2.33918,-2.30498,1.97094,-1.5,2.6,0,12741,49.37,29.3,14465.4
1389813870,0.634768,2.223,91.7227,0.172317,0.034405,0.930777,2.4454,-1.41953,0.127346,0.784345,0.518085,0.259663,-1.5,2.6,0,12741,49.37,29.3,14465.4
1389914219,0.634768,2.223,91.7417,0.349243,0.130851,0.954354,2.17338,-1.28609,0.0741825,-0.865271,3.33624,0.152563,-1.5,2.6,0,12741,49.405,30.008,14825.5
1390014519,0.634768,2.223,91.7589,0.438705,0.179211,0.973566,1.75376,-1.13493,-0.0102409,-1.45366,4.25038,1.60804,-1.5,2.6,0,12741,49.405,30.008,14825.5
1390114878,0.634768,2.223,91.7718,0.480237,0.200879,0.982798,1.22197,-0.966353,-0.0527269,-1.75244,4.93149,2.29148,-1.5,2.6,0,12741,49.405,30.008,14825.5
1390215233,0.634768,2.223,91.7855,0.493715,0.207766,0.98547,0.662437,-0.790256,-0.0850477,-1.87192,5.04945,2.45281,-1.5,2.6,0,12741,49.405,30.008,14825.5
1390315608,0.634768,2.223,91.794,0.484539,0.198595,0.980062,0.0685668,-0.612722,-0.0960956,-1.87812,4.99368,3.12475,-1.5,2.6,0,12741,49.405,30.008,14825.5
1390415963,0.634768,2.223,91.7813,0.44973,0.180583,0.971885,-0.525154,-0.438949,-0.0797608,-1.8165,4.73303,3.30356,-1.5,2.6,0,12741,49.405,30.008,14825.5
1390516414,0.634768,2.223,91.7631,0.410704,0.162203,0.964637,-1.08145,-0.259789,-0.0388017,-1.63372,4.60146,2.90925,4,-3.2,0,12741,49.405,30.008,14825.5
1390616764,0.634768,2.223,91.7514,0.325266,0.130758,0.952497,-1.57429,-0.0961688,-0.0170329,-1.36737,4.14359,2.07057,4,-3.2,0,12741,49.405,30.008,14825.5
1390717158,0.634768,2.223,91.7388,0.0994282,-0.0127177,0.936185,-1.96603,0.0266062,0.067025,-1.02408,3.1681,1.12621,4,-3.2,0,12741,49.405,30.008,14825.5
1390817522,0.634768,2.223,91.74,-0.164755,-0.183032,0.950816,-1.99411,0.130248,0.0760807,1.15932,0.129748,-0.356953,4,-3.2,0,12741,49.405,30.008,14825.5
1390917876,0.634768,2.223,91.7515,-0.309669,-0.266839,0.972864,-1.7151,0.209679,0.00857434,2.57965,-2.1574,0.468253,4,-3.2,0,12741,49.405,30.008,14825.5
1391018271,0.634768,2.223,91.7583,-0.375302,-0.30781,0.985351,-1.28879,0.272353,-0.0360331,3.06964,-2.98227,1.92969,4,-3.2,0,12741,49.497,27.293,13509.2
1391118624,0.634768,2.223,91.7468,-0.389293,-0.320231,0.986997,-0.78351,0.336921,-0.0298247,3.15644,-3.18061,2.90782,4,-3.2,0,12741,49.497,27.293,13509.2
1391218968,0.634768,2.223,91.7304,-0.382037,-0.32191,0.984763,-0.270598,0.397965,-0.0139289,3.2977,-3.30823,2.53056,4,-3.2,0,12741,49.497,27.293,13509.2
1391319335,0.634768,2.223,91.7249,-0.371956,-0.319117,0.981779,0.229709,0.467682,-0.0107939,3.17441,-3.1471,2.55773,4,-3.2,0,12741,49.497,27.293,13509.2
1391419685,0.634768,2.223,91.7209,-0.358795,-0.314228,0.978799,0.721413,0.533663,0.00882478,3.13813,-2.9758,2.26141,4,-3.2,0,12741,49.497,27.293,13509.2
1391520125,0.634768,2.223,91.7227,-0.344653,-0.306187,0.974511,1.19479,0.600612,0.0213471,2.98514,-2.81302,2.03214,-4.8,-0.3,0,12741,49.497,27.293,13509.2
1391620485,0.634768,2.223,91.7262,-0.326396,-0.284283,0.968926,1.64329,0.664951,0.0177137,2.85607,-2.60142,1.90048,-4.8,-0.3,0,12741,49.497,27.293,13509.2
1391720825,0.634768,2.223,91.736,-0.218475,-0.0619141,0.941985,2.09749,0.734101,0.100267,2.634,-2.39712,2.25345,-4.8,-0.3,0,12741,49.497,27.293,13509.2
1391821203,0.634768,2.223,91.7446,-0.0641858,0.232135,0.926368,2.21501,0.614827,0.164393,-0.843064,-1.092,0.0359422,-4.8,-0.3,0,12741,49.497,27.293,13509.2
1391921544,0.634768,2.223,91.7692,0.0292359,0.386197,0.935419,1.97648,0.322263,0.0426583,-3.50712,0.603899,0.624271,-4.8,-0.3,0,12741,49.497,27.293,13509.2
1392021872,0.634768,2.223,91.7964,0.0775385,0.455832,0.944541,1.65133,0.0166745,-0.00644847,-4.31037,1.08249,1.6621,-4.8,-0.3,0,12741,49.418,28.775,14220
1392122206,0.634769,2.223,91.8044,0.104813,0.479491,0.948827,1.26265,-0.301645,-0.0276274,-4.73416,1.34455,1.7145,-4.8,-0.3,0,12741,49.418,28.775,14220
1392222539,0.634769,2.223,91.8153,0.120002,0.483437,0.948935,0.850498,-0.612534,-0.064065,-4.49703,1.48631,2.37065,-4.8,-0.3,0,12741,49.418,28.775,14220
1392322895,0.634769,2.223,91.8159,0.114764,0.474681,0.945449,0.422585,-0.925093,-0.0617287,-4.49828,1.5531,2.35816,-4.8,-0.3,0,12741,49.418,28.775,14220
1392423235,0.634769,2.223,91.8242,0.0995601,0.454958,0.939957,0.00651252,-1.22851,-0.0531333,-4.21468,1.45865,2.34778,-4.8,-0.3,0,12741,49.418,28.775,14220
1392523668,0.634769,2.223,91.8266,0.0773744,0.434978,0.935577,-0.388443,-1.51846,-0.0227102,-3.98398,1.31184,2.16065,-1.1,0,0,12741,49.418,28.775,14220
1392624052,0.634769,2.223,91.8339,0.0633315,0.396393,0.933432,-0.750388,-1.81171,-9.84259e-05,-3.85605,1.02297,2.05166,-1.1,0,0,12741,49.418,28.775,14220
1392724413,0.634768,2.223,91.8494,0.0881896,0.141493,0.928291,-1.09016,-2.05303,0.083645,-3.02508,1.24046,1.2848,-1.1,0,0,12741,49.418,28.775,14220
1392824774,0.634768,2.223,91.8581,0.070186,-0.0951758,0.921795,-1.20222,-1.97308,0.0943518,0.540675,1.38663,-0.700374,-1.1,0,0,12741,49.418,28.775,14220
1392925154,0.634768,2.223,91.8401,0.0365782,-0.192431,0.923879,-1.17601,-1.77896,-0.0261206,2.08728,0.900132,-0.482016,-1.1,0,0,12741,49.418,28.775,14220
1393025509,0.634768,2.223,91.8122,0.0156294,-0.209138,0.927503,-1.09198,-1.56527,-0.0707841,2.4106,0.566126,0.584301,-1.1,0,0,12741,49.407,29.537,14593.3
1393125853,0.634768,2.223,91.7861,0.00115572,-0.170972,0.92993,-1.00175,-1.37002,-0.0777328,2.20535,0.38535,0.337118,-1.1,0,0,12741,49.407,29.537,14593.3
1393227795,0.634768,2.223,91.7631,-0.00451831,-0.127961,0.930908,-0.933939,-1.21914,-0.0760897,1.69059,0.358803,0.479905,-1.1,0,0,12741,49.407,29.537,14593.3
1393328116,0.634768,2.223,91.7378,-0.0136678,-0.0960395,0.930162,-0.870576,-1.08646,-0.0532085,1.43123,0.312368,0.858617,-1.1,0,0,12741,49.407,29.537,14593.3
1393428472,0.634768,2.223,91.7092,-0.0213562,-0.0668889,0.929456,-0.80221,-0.980387,-0.0388022,1.19849,0.0785577,0.374487,-1.1,0,0,12741,49.407,29.537,14593.3
1393528887,0.634768,2.223,91.69,-0.0265421,-0.0387352,0.929531,-0.761978,-0.894432,-0.0394286,0.805277,0.159601,0.369758,1.3,-1,0,12741,49.407,29.537,14593.3
1393629212,0.634768,2.223,91.6771,-0.0448299,-0.0560274,0.927153,-0.733082,-0.834553,-0.024011,0.434213,0.181912,0.68997,1.3,-1,0,12741,49.407,29.537,14593.3
1393729565,0.634768,2.223,91.6725,-0.109256,-0.193586,0.936944,-0.663637,-0.764116,0.0222163,1.13182,-0.247255,0.211567,1.3,-1,0,12741,49.407,29.537,14593.3
1393829908,0.634768,2.223,91.6757,-0.171387,-0.303521,0.953885,-0.427252,-0.608331,-0.0174092,2.49784,-0.925455,0.692085,1.3,-1,0,12741,49.407,29.537,14593.3
1393930277,0.634768,2.223,91.6768,-0.203915,-0.353357,0.964028,-0.0695566,-0.397558,-0.0205822,3.33669,-1.37171,1.86754,1.3,-1,0,12741,49.407,29.537,14593.3
1394030633,0.634768,2.223,91.6801,-0.19629,-0.33076,0.959769,0.334775,-0.163521,0.00935694,3.50992,-1.45149,2.01114,1.3,-1,0,12741,49.407,29.537,14593.3
1394131006,0.634768,2.223,91.6724,-0.173977,-0.279251,0.951105,0.689035,0.0305445,0.0385908,3.06725,-1.40649,1.4871,1.3,-1,0,12741,49.333,29.537,14571.5
1394231375,0.634768,2.223,91.6657,-0.147538,-0.219798,0.94239,0.972178,0.183519,0.0526293,2.5451,-1.09955,0.798598,1.3,-1,0,12741,49.333,29.537,14571.5
1394333230,0.634768,2.223,91.672,-0.124163,-0.168499,0.936571,1.19299,0.290344,0.0483701,1.87081,-0.893734,0.511335,1.3,-1,0,12741,49.333,29.537,14571.5
1394439306,0.634768,2.223,91.6887,-0.104241,-0.125756,0.932435,1.37309,0.373346,0.0493811,1.50137,-0.783677,0.164431,1.3,-1,0,12741,49.333,29.537,14571.5
1394539654,0.634768,2.223,91.6966,-0.0867509,-0.0884535,0.929312,1.52542,0.437106,0.041201,0.863512,-0.533427,-0.0649448,-1.8,2.6,0,12741,49.333,29.537,14571.5
1394639877,0.634768,2.223,91.7019,-0.0640442,-0.0466111,0.92783,1.61433,0.465679,0.0470112,0.586624,-0.386176,0.476766,-1.8,2.6,0,12741,49.333,29.537,14571.5
1394740224,0.634769,2.223,91.7219,0.0837079,0.114316,0.932125,1.63513,0.470553,0.0969541,-0.3968,0.300543,0.312609,-1.8,2.6,0,12741,49.333,29.537,14571.5
1394840628,0.634769,2.223,91.7414,0.22933,0.230379,0.956209,1.36185,0.434775,0.0551611,-2.18332,2.22122,0.112437,-1.8,2.6,0,12741,49.333,29.537,14571.5
1394940989,0.634769,2.223,91.7487,0.312152,0.292697,0.979236,0.960947,0.396905,-0.0100198,-2.76682,3.01958,1.22274,-1.8,2.6,0,12741,49.333,29.537,14571.5
1395041297,0.634769,2.223,91.7584,0.346935,0.314545,0.990421,0.47892,0.348947,-0.0462782,-3.02575,3.40432,2.02965,-1.8,2.6,0,12741,49.333,29.537,14571.5
1395141659,0.634769,2.223,91.7607,0.35328,0.310578,0.991404,-0.0436955,0.305588,-0.0649677,-3.16561,3.60433,2.24625,-1.8,2.6,0,12741,49.424,27.44,13561.9
1395241927,0.634769,2.223,91.7561,0.350372,0.295906,0.988181,-0.570045,0.261847,-0.0282311,-2.96681,3.49374,2.6805,-1.8,2.6,0,12741,49.424,27.44,13561.9
1395342229,0.634769,2.223,91.7505,0.343335,0.279371,0.983162,-1.08267,0.24593,-0.000403626,-2.76605,3.64575,2.15546,-1.8,2.6,0,12741,49.424,27.44,13561.9
1395442583,0.634769,2.223,91.7327,0.300689,0.242524,0.970371,-1.54964,0.232252,-0.00634005,-2.41339,3.18303,2.05063,-1.8,2.6,0,12741,49.424,27.44,13561.9
1395542996,0.634768,2.223,91.7167,0.242391,0.19526,0.957107,-1.94862,0.227525,0.013365,-2.05393,2.75629,1.4007,2.2,-1,0,12741,49.424,27.44,13561.9
1395643289,0.634768,2.223,91.7085,0.172161,0.134977,0.942772,-2.26158,0.229067,0.0164274,-1.61748,2.22926,1.03066,2.2,-1,0,12741,49.424,27.44,13561.9
1395743563,0.634768,2.223,91.7032,-0.02398,-0.0656015,0.931808,-2.46235,0.238079,0.0615881,-0.579792,1.14659,0.136054,2.2,-1,0,12741,49.424,27.44,13561.9
1395843876,0.634768,2.223,91.7127,-0.20819,-0.232129,0.955929,-2.29503,0.306019,0.0428232,1.9567,-1.32857,-0.0065105,2.2,-1,0,12741,49.424,27.44,13561.9
1395944263,0.634768,2.223,91.7116,-0.307483,-0.323614,0.979701,-1.9246,0.396304,-0.0104324,2.94344,-2.30573,1.6037,2.2,-1,0,12741,49.424,27.44,13561.9
1396044512,0.634768,2.223,91.7185,-0.347062,-0.3586,0.990135,-1.4537,0.500864,-0.0209369,3.44117,-2.91849,2.15991,2.2,-1,0,12741,49.424,27.44,13561.9
1396144789,0.634768,2.223,91.7117,-0.352526,-0.365164,0.990249,-0.920871,0.616089,-0.0175912,3.68392,-3.10683,2.72464,2.2,-1,0,12741,49.457,26.512,13112
1396245143,0.634768,2.223,91.7012,-0.345473,-0.360201,0.98678,-0.388628,0.726956,-0.00462596,3.56095,-3.0409,2.77029,2.2,-1,0,12741,49.457,26.512,13112
1396345488,0.634768,2.223,91.697,-0.334931,-0.351218,0.982694,0.127183,0.837517,0.0081868,3.5195,-2.93138,2.40783,2.2,-1,0,12741,49.457,26.512,13112
1396445838,0.634768,2.223,91.6881,-0.296953,-0.309203,0.968345,0.627325,0.942654,0.0159619,3.25528,-2.77638,2.26259,2.2,-1,0,12741,49.457,26.512,13112
1396546227,0.634768,2.223,91.6915,-0.242589,-0.255788,0.953915,1.04861,1.01681,0.0451629,2.61463,-2.40584,1.50934,1.3,-3.4,0,12741,49.457,26.512,13112
1396646556,0.634768,2.223,91.6916,-0.208118,-0.191934,0.944731,1.38482,1.08739,0.0703387,2.12657,-1.70694,1.43036,1.3,-3.4,0,12741,49.457,26.512,13112
1396746921,0.634768,2.223,91.7028,-0.268272,-0.0814394,0.945363,1.65766,1.10258,0.112468,1.25165,-1.81761,0.585099,1.3,-3.4,0,12741,49.457,26.512,13112
1396847264,0.634768,2.223,91.7159,-0.350483,0.00354209,0.930962,1.90161,0.964743,0.045142,0.0351655,-2.66743,0.247939,1.3,-3.4,0,12741,49.457,26.512,13112
1396947614,0.634768,2.223,91.7334,-0.406299,0.0513626,0.91643,2.17203,0.730131,0.0129727,-0.460855,-3.14508,1.34086,1.3,-3.4,0,12741,49.457,26.512,13112
1397047950,0.634768,2.223,91.761,-0.409368,0.0692718,0.909267,2.45138,0.429702,0.0151914,-0.919549,-3.52902,1.35321,1.3,-3.4,0,12741,49.457,26.512,13112
1397148351,0.634769,2.223,91.7691,-0.367785,0.0681072,0.908802,2.70684,0.127665,0.0103677,-1.00856,-3.33102,1.27725,1.3,-3.4,0,12741,49.457,26.512,13112
1397248654,0.634769,2.223,91.7771,-0.312462,0.0542153,0.913033,2.92045,-0.136063,0.0254939,-0.843142,-2.81031,1.02658,1.3,-3.4,0,12741,49.457,26.512,13112
1397349024,0.634769,2.223,91.7925,-0.25845,0.0367698,0.918216,3.08126,-0.340437,0.024859,-0.69875,-2.22919,0.603648,1.3,-3.4,0,12741,49.457,26.512,13112
1397449388,0.634769,2.223,91.805,-0.213372,0.019149,0.922779,3.20501,-0.491079,0.0197283,-0.474106,-1.66026,0.188294,1.3,-3.4,0,12741,49.457,26.512,13112
1397549814,0.634769,2.223,91.8051,-0.179755,0.00603244,0.926151,3.30178,-0.602449,0.0120103,-0.337466,-1.2715,0.170171,-0.1,1.9,0,12741,49.457,26.512,13112
1397650181,0.634769,2.223,91.801,-0.118955,0.00729301,0.925752,3.38739,-0.693262,0.0148506,-0.13578,-1.02653,0.767674,-0.1,1.9,0,12697,49.494,25.13,12437.8
1397752249,0.634769,2.223,91.8035,0.125231,0.0594048,0.93331,3.41816,-0.747031,0.0774769,-0.321222,-0.117546,0.236667,-0.1,1.9,0,12697,49.494,25.13,12437.8
1397857056,0.634769,2.223,91.813,0.328867,0.0983885,0.947537,3.15477,-0.67958,0.0582877,-1.04077,2.88809,0.159118,-0.1,1.9,0,12697,49.494,25.13,12437.8
1397957432,0.634769,2.223,91.8078,0.440328,0.115508,0.957215,2.74555,-0.524136,-0.0186043,-1.09666,4.19805,1.4175,-0.1,1.9,0,12697,49.494,25.13,12437.8
1398057772,0.634769,2.223,91.7988,0.496308,0.125272,0.963179,2.22243,-0.325625,-0.0594991,-1.36057,4.97082,2.16894,-0.1,1.9,0,12697,49.494,25.13,12437.8
1398158121,0.634769,2.223,91.7675,0.522965,0.137842,0.970766,1.65453,-0.111145,-0.123052,-1.45785,5.1665,2.8219,-0.1,1.9,0,12697,49.494,25.13,12437.8
1398258443,0.634769,2.223,91.7352,0.521424,0.146982,0.976736,1.04795,0.124602,-0.132566,-1.33828,5.17558,3.65262,-0.1,1.9,0,12697,49.494,25.13,12437.8
1398358793,0.634769,2.223,91.7141,0.476677,0.143354,0.974938,0.419251,0.349927,-0.120836,-1.58774,5.33144,3.41735,-0.1,1.9,0,12697,49.494,25.13,12437.8
1398459127,0.634769,2.223,91.6851,0.373179,0.114673,0.960259,-0.136892,0.548989,-0.0853174,-1.37392,4.59982,2.86464,-0.1,1.9,0,12697,49.494,25.13,12437.8
1398559496,0.634769,2.223,91.6688,0.262352,0.0772458,0.946302,-0.62231,0.735081,-0.0067259,-0.935822,3.34046,1.41696,4.3,-3,0,12697,49.494,25.13,12437.8
1398659814,0.634769,2.223,91.6552,0.168218,0.0345388,0.935934,-0.890077,0.845835,0.0286469,-0.618458,2.30654,1.01617,4.3,-3,0,12668,49.406,28.971,14313.4
1398760213,0.634769,2.223,91.6668,-0.0387114,-0.0972239,0.934901,-1.03326,0.936507,0.099647,0.119465,1.01913,0.0402653,4.3,-3,0,12668,49.406,28.971,14313.4
1398860571,0.634769,2.223,91.6922,-0.228463,-0.216107,0.957192,-0.847715,1.00891,0.0638933,1.88136,-1.52895,0.061239,4.3,-3,0,12668,49.406,28.971,14313.4
1398960925,0.634769,2.223,91.7069,-0.338695,-0.287183,0.979513,-0.493389,1.07132,0.0128441,2.58279,-2.56117,1.49474,4.3,-3,0,12668,49.406,28.971,14313.4
1399061248,0.634769,2.223,91.7194,-0.37985,-0.316486,0.989587,-0.0315622,1.13404,0.00537745,2.98097,-3.16997,2.07995,4.3,-3,0,12668,49.406,28.971,14313.4
1399161537,0.634769,2.223,91.7247,-0.389704,-0.321714,0.990376,0.466359,1.19914,0.0133552,3.10406,-3.22714,2.40721,4.3,-3,0,12668,49.406,28.971,14313.4
1399261885,0.634769,2.223,91.7327,-0.380671,-0.317403,0.987189,0.957682,1.24852,0.0226693,3.00968,-3.27928,2.22079,4.3,-3,0,12668,49.406,28.971,14313.4
1399362234,0.634769,2.223,91.7246,-0.368694,-0.313016,0.984139,1.43992,1.3013,0.0287108,2.93392,-3.12713,2.09562,4.3,-3,0,12668,49.406,28.971,14313.4
1399462581,0.634769,2.223,91.7212,-0.35241,-0.304955,0.980548,1.91212,1.34787,0.0298955,2.73666,-3.01228,2.04009,4.3,-3,0,12668,49.406,28.971,14313.4
1399562987,0.634769,2.223,91.7144,-0.339215,-0.299003,0.978174,2.36441,1.39268,0.0235647,2.5907,-2.84389,1.82147,-0.2,4,0,12668,49.406,28.971,14313.4
1399663267,0.634769,2.223,91.7101,-0.306118,-0.279843,0.969846,2.80796,1.44786,0.0234839,2.61017,-2.64833,2.05499,-0.2,4,0,12668,49.533,24.629,12199.5
1399763557,0.634769,2.223,91.7051,-0.0982665,-0.13604,0.929339,3.19409,1.51088,0.0927907,2.13687,-1.91695,1.64347,-0.2,4,0,12668,49.533,24.629,12199.5
1399863935,0.634769,2.223,91.7197,0.180417,0.0665145,0.932606,3.20183,1.56943,0.159349,-0.000461629,0.928691,0.285197,-0.2,4,0,12668,49.533,24.629,12199.5
1399964361,0.634769,2.223,91.734,0.338278,0.169352,0.95851,2.89679,1.62407,0.0980861,-1.73708,3.30118,0.0369052,-0.2,4,0,12668,49.533,24.629,12199.5
1400064785,0.634769,2.223,91.7394,0.416711,0.214567,0.977039,2.45682,1.68162,0.0137129,-2.19548,3.98056,1.88983,-0.2,4,0,12668,49.533,24.629,12199.5
1400165114,0.634769,2.223,91.7614,0.451118,0.241207,0.990788,1.92509,1.75566,-0.0141313,-2.49651,4.41538,2.33453,-0.2,4,0,12668,49.533,24.629,12199.5
1400265436,0.634769,2.223,91.7859,0.449537,0.251692,0.996243,1.36252,1.81424,-0.0446004,-2.66375,4.46548,2.43848,-0.2,4,0,12668,49.533,24.629,12199.5
1400365705,0.634769,2.223,91.7672,0.431339,0.253208,0.997296,0.788624,1.87663,-0.0663501,-2.58343,4.48779,2.63965,-0.2,4,0,12668,49.533,24.629,12199.5
1400466054,0.634769,2.223,91.7454,0.400904,0.250269,0.993705,0.217516,1.91101,-0.0578536,-2.69296,4.16197,2.70025,-0.2,4,0,12668,49.533,24.629,12199.5
1400566482,0.634769,2.223,91.7493,0.38255,0.237537,0.986876,-0.336069,1.93224,-0.0205201,-2.66627,3.88073,2.57765,-2.2,1.2,0,12668,49.533,24.629,12199.5
1400666809,0.634769,2.223,91.7575,0.353163,0.23989,0.983353,-0.85139,1.96047,0.000205103,-2.30598,3.72077,2.21289,-2.2,1.2,0,12668,49.267,30.415,14984.6
1400767158,0.634769,2.223,91.7579,0.17462,0.33712,0.962845,-1.37209,1.93447,0.120299,-2.82079,3.17588,2.18577,-2.2,1.2,0,12668,49.267,30.415,14984.6
1400867511,0.634769,2.223,91.7715,-0.046217,0.381171,0.918342,-1.70893,1.68682,0.0854467,-3.81624,0.673609,0.490487,-2.2,1.2,0,12668,49.267,30.415,14984.6
1400967876,0.634769,2.223,91.7885,-0.182307,0.386291,0.89835,-1.88176,1.33138,0.0033566,-3.57232,-1.00846,0.947552,-2.2,1.2,0,12668,49.267,30.415,14984.6
1401068263,0.634769,2.223,91.8021,-0.228029,0.358177,0.898831,-1.98013,0.908096,-0.0485541,-3.57847,-1.85549,1.42021,-2.2,1.2,0,12668,49.267,30.415,14984.6
1401168588,0.634769,2.223,91.8144,-0.215719,0.305624,0.909857,-2.02913,0.478721,-0.0475934,-3.26617,-2.10743,1.40954,-2.2,1.2,0,12668,49.267,30.415,14984.6
1401268945,0.634769,2.223,91.8319,-0.178263,0.247403,0.920994,-2.05828,0.112549,-0.0311332,-2.67514,-1.84359,1.14836,-2.2,1.2,0,12668,49.267,30.415,14984.6
1401369263,0.634769,2.223,91.821,-0.134843,0.195965,0.927852,-2.0649,-0.16805,-0.0172405,-2.01923,-1.53792,0.507142,-2.2,1.2,0,12668,49.267,30.415,14984.6
1401469625,0.634769,2.223,91.8069,-0.0984026,0.156577,0.930624,-2.07064,-0.377122,-0.0205278,-1.50182,-1.06367,0.29419,-2.2,1.2,0,12668,49.267,30.415,14984.6
1401570006,0.634769,2.223,91.8021,-0.0701971,0.126902,0.931146,-2.08264,-0.540326,-0.0260217,-1.20668,-0.747974,0.18431,3,0.3,0,12668,49.267,30.415,14984.6
1401670357,0.634769,2.223,91.7991,-0.0586657,0.0645473,0.928957,-2.1024,-0.667525,-0.0220416,-1.06458,-0.420555,0.24704,3,0.3,0,12668,49.326,28.311,13964.7
1401770743,0.634769,2.223,91.7763,-0.0806623,-0.181419,0.936188,-2.07441,-0.734747,0.0074915,0.261671,-0.471143,0.33975,3,0.3,0,12668,49.326,28.311,13964.7
1401871098,0.634769,2.223,91.7674,-0.0936101,-0.351761,0.945749,-1.8301,-0.557134,-0.0210814,2.99187,-0.676098,0.486226,3,0.3,0,12668,49.326,28.311,13964.7
1401971454,0.634769,2.223,91.7629,-0.10097,-0.445052,0.951381,-1.50135,-0.268515,-0.0574988,4.04269,-0.630048,1.61118,3,0.3,0,12668,49.326,28.311,13964.7
1402071824,0.634769,2.223,91.7498,-0.103014,-0.479146,0.952615,-1.10205,0.0979421,-0.0597687,4.59564,-0.656285,2.57867,3,0.3,0,12668,49.326,28.311,13964.7
1402172217,0.634769,2.223,91.723,-0.102945,-0.486132,0.952411,-0.678486,0.4853,-0.0471948,4.78206,-0.708659,2.82187,3,0.3,0,12668,49.326,28.311,13964.7
1402272572,0.634769,2.223,91.6924,-0.102016,-0.481841,0.951107,-0.262209,0.876869,-0.0305548,4.66298,-0.637326,2.8202,3,0.3,0,12668,49.326,28.311,13964.7
1402372931,0.634769,2.223,91.6765,-0.100719,-0.461548,0.948578,0.152501,1.26653,-0.0107533,4.59351,-0.61726,2.74174,3,0.3,0,12668,49.326,28.311,13964.7
1402473257,0.634769,2.223,91.6608,-0.0885714,-0.390892,0.941962,0.540669,1.62753,0.00574913,4.26845,-0.635424,2.24838,3,0.3,0,12668,49.326,28.311,13964.7
1402573667,0.634769,2.223,91.6562,-0.0720574,-0.311301,0.936445,0.86201,1.92037,0.0401063,3.53586,-0.528917,1.55522,-0.2,1.1,0,12668,49.326,28.311,13964.7
1402674021,0.634769,2.223,91.6567,-0.0510993,-0.220674,0.932872,1.10487,2.14898,0.0571248,2.65041,-0.392198,0.829863,-0.2,1.1,0,12668,49.326,28.311,13964.7
1402774363,0.634769,2.223,91.6656,0.0154911,0.0478733,0.929003,1.27506,2.32389,0.118856,1.62251,-0.093889,0.845836,-0.2,1.1,0,12668,49.264,29.674,14618.6
1402874764,0.634769,2.223,91.687,0.0762822,0.275038,0.939094,1.14021,2.25346,0.131763,-2.17986,0.815599,-0.271894,-0.2,1.1,0,12668,49.264,29.674,14618.6
1402975133,0.634769,2.223,91.7318,0.103598,0.38955,0.950504,0.868982,2.06944,0.0389642,-3.51637,1.10743,0.631472,-0.2,1.1,0,12668,49.264,29.674,14618.6
1403075494,0.634769,2.223,91.7785,0.099073,0.408877,0.951429,0.51181,1.80938,0.0109826,-4.12321,1.26704,1.87251,-0.2,1.1,0,12668,49.264,29.674,14618.6
1403175892,0.634769,2.223,91.8095,0.0771119,0.37041,0.946862,0.169355,1.55513,0.0113926,-4.00782,1.14832,1.28312,-0.2,1.1,0,12668,49.264,29.674,14618.6
1403276302,0.634769,2.223,91.838,0.0552284,0.305702,0.940669,-0.114645,1.3357,0.00814995,-3.3137,0.895752,0.95687,-0.2,1.1,0,12668,49.264,29.674,14618.6
1403376644,0.634769,2.223,91.844,0.0362793,0.24042,0.935682,-0.345138,1.15758,0.00624102,-2.72298,0.743798,0.364841,-0.2,1.1,0,12668,49.264,29.674,14618.6
1403476958,0.634769,2.223,91.8417,0.0228036,0.184067,0.932876,-0.526245,1.0081,-0.00561018,-2.11075,0.49064,0.386269,-0.2,1.1,0,12668,49.264,29.674,14618.6
1403577386,0.634769,2.223,91.8297,0.0146528,0.138229,0.930713,-0.664827,0.894809,-0.016357,-1.55653,0.388508,0.181736,-4.7,-4,0,12668,49.264,29.674,14618.6
1403677736,0.634769,2.223,91.8133,-0.00152398,0.111337,0.927688,-0.778992,0.808698,-0.028368,-1.14701,0.366395,0.233445,-4.7,-4,0,12668,49.264,29.674,14618.6
1403778111,0.634769,2.223,91.7886,-0.108585,0.164063,0.915826,-0.853503,0.726453,0.00148145,-1.07042,-0.0952286,0.171803,-4.7,-4,0,12668,49.289,28.178,13888.7
1403878444,0.634769,2.223,91.7683,-0.22439,0.215529,0.901951,-0.877793,0.509084,-0.0348149,-1.78392,-1.2703,0.286175,-4.7,-4,0,12668,49.289,28.178,13888.7
1403978891,0.634769,2.223,91.7538,-0.298289,0.249097,0.891506,-0.836054,0.181653,-0.0500476,-2.04653,-2.1531,1.40618,-4.7,-4,0,12668,49.289,28.178,13888.7
1404079260,0.634769,2.223,91.7517,-0.333972,0.265124,0.88678,-0.757897,-0.223168,-0.0348303,-2.3346,-2.75676,1.81306,-4.7,-4,0,12668,49.289,28.178,13888.7
1404179598,0.634769,2.223,91.754,-0.34357,0.273073,0.884929,-0.656922,-0.735751,-0.0204924,-2.51529,-2.88836,1.81263,-4.7,-4,0,12668,49.289,28.178,13888.7
1404279880,0.634769,2.223,91.7589,-0.340889,0.274835,0.884838,-0.569649,-1.15741,-0.0209707,-2.42072,-2.89794,1.82982,-4.7,-4,0,12668,49.289,28.178,13888.7
1404380404,0.634769,2.223,91.7594,-0.332729,0.273389,0.885958,-0.494852,-1.48785,-0.0127431,-2.30845,-2.81725,1.87576,-4.7,-4,0,12668,49.289,28.178,13888.7
1404480800,0.634769,2.223,91.7666,-0.322947,0.272266,0.886664,-0.409152,-1.96878,0.00133582,-2.44463,-2.55952,1.44708,-4.7,-4,0,12668,49.289,28.178,13888.7
1404581197,0.634769,2.223,91.7681,-0.317149,0.26813,0.888262,-0.34154,-2.35224,-0.00391928,-2.33756,-2.41801,1.56367,1.9,-4.6,0,12668,49.289,28.178,13888.7
1404681501,0.634769,2.223,91.7732,-0.310857,0.244306,0.89367,-0.269277,-2.72824,0.00721596,-2.28503,-2.34525,1.72177,1.9,-4.6,0,12668,49.289,28.178,13888.7
1404781875,0.634769,2.223,91.7712,-0.293619,0.0335439,0.918407,-0.162989,-3.08679,0.0972181,-1.6217,-2.42847,1.43299,1.9,-4.6,0,12653,49.263,28.617,14097.6
1404882244,0.634769,2.223,91.7784,-0.26213,-0.201025,0.950989,0.0908418,-3.12507,0.0842841,1.54977,-2.00455,0.281055,1.9,-4.6,0,12653,49.263,28.617,14097.6
1404982632,0.634769,2.223,91.7703,-0.248972,-0.326698,0.973914,0.414586,-2.99207,-0.0218574,3.09102,-1.6267,0.902477,1.9,-4.6,0,12653,49.263,28.617,14097.6
1405082962,0.634769,2.223,91.7589,-0.246453,-0.378876,0.985511,0.816741,-2.77598,-0.0453033,3.74491,-1.54814,2.07885,1.9,-4.6,0,12653,49.263,28.617,14097.6
1405183367,0.634769,2.223,91.7427,-0.245514,-0.389136,0.990818,1.24662,-2.52413,-0.0427025,4.10125,-1.61506,2.09311,1.9,-4.6,0,12653,49.263,28.617,14097.6
1405283718,0.634769,2.223,91.7297,-0.249228,-0.381028,0.991879,1.67047,-2.26544,-0.0379198,4.01234,-1.46867,2.13104,1.9,-4.6,0,12653,49.263,28.617,14097.6
1405384101,0.634769,2.223,91.7134,-0.255674,-0.359484,0.990152,2.08443,-2.01543,-0.0278784,3.75705,-1.4581,2.14847,1.9,-4.6,0,12653,49.263,28.617,14097.6
1405484423,0.634769,2.223,91.6966,-0.267946,-0.329615,0.986629,2.48856,-1.80839,-0.017493,3.48331,-1.69399,1.72544,1.9,-4.6,0,12653,49.263,28.617,14097.6
1405584849,0.634769,2.223,91.6993,-0.281218,-0.300855,0.981039,2.87361,-1.63752,-0.0174014,2.98508,-1.74807,1.8202,0.3,0.8,0,12653,49.263,28.617,14097.6
1405685241,0.634769,2.223,91.708,-0.259051,-0.259577,0.968397,3.25407,-1.49804,0.00554119,2.76153,-1.95826,1.69377,0.3,0.8,0,12653,49.263,28.617,14097.6
1405785631,0.634769,2.223,91.7155,-0.0235132,-0.153402,0.925719,3.57033,-1.35869,0.111399,2.25714,-1.12108,1.49645,0.3,0.8,0,12653,49.413,26.567,13127.6
1405885993,0.634769,2.223,91.7375,0.280237,0.00432964,0.92747,3.48618,-1.15461,0.187737,0.600326,2.21142,0.792496,0.3,0.8,0,12653,49.413,26.567,13127.6
1405987955,0.634769,2.223,91.7667,0.416748,0.0857465,0.949355,3.14402,-0.935002,0.106777,-0.680041,4.31128,0.0979253,0.3,0.8,0,12653,49.413,26.567,13127.6
1406088368,0.634769,2.223,91.7866,0.477318,0.120919,0.96408,2.68662,-0.716273,0.0082696,-1.13893,4.62472,2.39305,0.3,0.8,0,12653,49.413,26.567,13127.6
1406188746,0.634769,2.223,91.795,0.504332,0.143104,0.975042,2.16055,-0.476681,-0.0503354,-1.31336,5.2615,1.88738,0.3,0.8,0,12653,49.413,26.567,13127.6
1406289117,0.63477,2.223,91.803,0.507782,0.153984,0.980566,1.59669,-0.254455,-0.112595,-1.53542,5.08867,2.97491,0.3,0.8,0,12653,49.413,26.567,13127.6
1406389475,0.63477,2.223,91.7847,0.436595,0.140969,0.973504,0.993501,-0.0286368,-0.100196,-1.50879,5.14559,3.13828,0.3,0.8,0,12653,49.413,26.567,13127.6
1406489774,0.63477,2.223,91.7536,0.321165,0.107768,0.959583,0.495463,0.14959,-0.101277,-1.35057,4.31254,2.01325,0.3,0.8,0,12653,49.413,26.567,13127.6
1406590173,0.63477,2.223,91.7189,0.206464,0.0635636,0.94559,0.130204,0.285881,-0.0797095,-0.940111,3.1688,1.32314,3.9,0.5,0,12653,49.413,26.567,13127.6
1406692344,0.63477,2.223,91.689,0.110443,-0.0128981,0.93393,-0.111938,0.394714,-0.0401329,-0.567941,2.04062,1.10944,3.9,0.5,0,12653,49.413,26.567,13127.6
1406797535,0.63477,2.223,91.6787,0.0331495,-0.196891,0.93088,-0.217004,0.504967,0.0336793,0.743307,1.09627,0.287094,3.9,0.5,0,12653,49.413,26.567,13127.6
1406897911,0.634769,2.223,91.6853,-0.0163718,-0.329847,0.933486,-0.136775,0.738915,-0.000716697,2.52513,0.404383,0.285197,3.9,0.5,0,12653,49.306,28.29,13948.7
1406998279,0.634769,2.223,91.6995,-0.0441676,-0.40892,0.935705,0.0557237,1.05199,-0.00916963,3.53895,0.100332,1.62921,3.9,0.5,0,12653,49.306,28.29,13948.7
1407098634,0.634769,2.223,91.7263,-0.0516744,-0.440091,0.93507,0.321408,1.39913,0.0161972,4.04908,-0.182621,1.85254,3.9,0.5,0,12653,49.306,28.29,13948.7
1407198991,0.634769,2.223,91.7249,-0.0503612,-0.445675,0.932536,0.604203,1.75818,0.0226362,4.16832,-0.199853,2.02569,3.9,0.5,0,12653,49.306,28.29,13948.7
1407299358,0.634769,2.223,91.7237,-0.0436578,-0.408323,0.929319,0.895055,2.12412,0.0405874,4.16666,-0.129363,2.02754,3.9,0.5,0,12653,49.306,28.29,13948.7
1407399706,0.634769,2.223,91.7182,-0.0377973,-0.347397,0.926549,1.14124,2.44199,0.0558127,3.57466,-0.0521533,1.45913,3.9,0.5,0,12653,49.306,28.29,13948.7
1407500099,0.634769,2.223,91.7165,-0.0328,-0.286556,0.925166,1.37648,2.7269,0.0690524,2.69653,-0.0681535,0.869989,3.9,0.5,0,12653,49.306,28.29,13948.7
1407600497,0.634769,2.223,91.7094,-0.0300522,-0.236502,0.925503,1.53065,2.90138,0.0657536,2.13369,-0.129942,0.433446,2.1,-2.3,0,12653,49.306,28.29,13948.7
1407700863,0.63477,2.223,91.7032,-0.0358542,-0.18763,0.926072,1.63479,3.01065,0.0586797,1.67409,-0.135074,0.232051,2.1,-2.3,0,12653,49.306,28.29,13948.7
1407801210,0.63477,2.223,91.7196,-0.164245,-0.0468279,0.933123,1.78126,3.11298,0.15836,0.815228,-0.667036,0.131027,2.1,-2.3,0,12653,49.231,28.705,14131.8
1407901559,0.63477,2.223,91.7549,-0.318306,0.0834921,0.915643,1.9101,2.92987,0.0737691,-0.976966,-2.39449,-0.422931,2.1,-2.3,0,12653,49.231,28.705,14131.8
1408001957,0.63477,2.223,91.7678,-0.405005,0.143617,0.89781,2.08996,2.58641,0.00711976,-1.7917,-3.26855,1.36746,2.1,-2.3,0,12653,49.231,28.705,14131.8
1408102334,0.63477,2.223,91.7694,-0.433325,0.166184,0.888501,2.31395,2.14307,0.00332484,-2.16223,-4.02312,1.82365,2.1,-2.3,0,12653,49.231,28.705,14131.8
1408202700,0.63477,2.223,91.796,-0.390161,0.157521,0.891782,2.51082,1.71347,-0.00985072,-2.17294,-3.72434,1.33415,2.1,-2.3,0,12653,49.231,28.705,14131.8
1408303057,0.63477,2.223,91.8174,-0.317494,0.130025,0.900974,2.66626,1.34061,-0.0168952,-1.88877,-3.00472,1.15325,2.1,-2.3,0,12653,49.231,28.705,14131.8
1408403408,0.63477,2.223,91.8026,-0.247844,0.0983814,0.909864,2.78168,1.04753,-0.0146267,-1.45888,-2.28858,0.936702,2.1,-2.3,0,12653,49.231,28.705,14131.8
1408503774,0.63477,2.223,91.7821,-0.197195,0.0639541,0.917251,2.86191,0.815957,-0.0181008,-1.18955,-1.66513,0.394324,2.1,-2.3,0,12653,49.231,28.705,14131.8
1408604273,0.63477,2.223,91.7799,-0.161697,0.0316939,0.923322,2.91506,0.655964,-0.0221238,-0.784218,-1.12359,0.171127,2.1,-1.7,0,12653,49.231,28.705,14131.8
1408704607,0.63477,2.223,91.7811,-0.118368,0.00615943,0.925807,2.96327,0.528315,-0.0210225,-0.544619,-0.955066,0.405635,2.1,-1.7,0,12653,49.231,28.705,14131.8
1408804953,0.63477,2.223,91.7906,-0.0458574,-0.00959762,0.927078,2.98563,0.455372,0.00764701,-0.302551,-0.23458,-0.0985086,2.1,-1.7,0,12653,49.231,28.705,14131.8
1408905306,0.63477,2.223,91.803,-0.00370404,-0.0217578,0.928427,2.9485,0.442048,-0.00918869,-0.172907,0.39163,-0.386191,2.1,-1.7,0,12653,49.316,27.02,13325.2
1409005644,0.63477,2.223,91.8136,0.00869759,-0.0279817,0.929631,2.89432,0.455266,-0.0276322,-0.101285,0.634157,-0.252651,2.1,-1.7,0,12653,49.316,27.02,13325.2
1409106020,0.63477,2.223,91.82,0.00739169,-0.0368772,0.930456,2.85501,0.481194,-0.0322296,0.0887596,0.521557,-0.283961,2.1,-1.7,0,12653,49.316,27.02,13325.2
1409206375,0.63477,2.223,91.8265,0.00562258,-0.0425594,0.931502,2.82042,0.520204,-0.031328,0.192237,0.513568,-0.0692231,2.1,-1.7,0,12653,49.316,27.02,13325.2
1409306732,0.63477,2.223,91.828,0.00219294,-0.0453116,0.931494,2.78515,0.566283,-0.0254869,0.243972,0.597667,0.0589775,2.1,-1.7,0,12653,49.316,27.02,13325.2
1409407897,0.63477,2.223,91.832,-0.0105207,-0.0418198,0.930727,2.74995,0.622361,-0.0153804,0.321408,0.607507,-0.0106838,2.1,-1.7,0,12653,49.316,27.02,13325.2
1409508369,0.63477,2.223,91.825,-0.0240431,-0.0407402,0.931102,2.72726,0.667415,-0.0337789,0.282045,0.384476,-0.122485,2.1,-1.7,0,12653,49.316,27.02,13325.2
1409608848,0.63477,2.223,91.8208,-0.0316575,-0.0377611,0.930591,2.71016,0.710494,-0.0474977,0.291134,0.310097,0.097995,1.7,-4.8,0,12653,49.316,27.02,13325.2
1409709209,0.63477,2.223,91.8124,-0.066787,-0.025238,0.931946,2.70989,0.750884,-0.0299623,0.279941,0.172029,0.522657,1.7,-4.8,0,12653,49.316,27.02,13325.2
1409809541,0.634771,2.223,91.8152,-0.194556,0.00615338,0.93097,2.72735,0.75386,0.00387184,0.0642947,-0.448343,-0.182263,1.7,-4.8,0,12653,49.316,27.02,13325.2
1409909916,0.634771,2.223,91.8158,-0.313471,0.0278346,0.926732,2.83394,0.643156,-0.0687418,-0.331566,-1.72915,0.39235,1.7,-4.8,0,12624,49.36,28.076,13858.3
1410010274,0.634771,2.223,91.8026,-0.391535,0.0409111,0.921935,3.03715,0.432452,-0.0922397,-0.538226,-2.75467,1.2941,1.7,-4.8,0,12624,49.36,28.076,13858.3
1410110689,0.634771,2.223,91.795,-0.42928,0.0439456,0.91903,3.29133,0.168122,-0.0744254,-0.652,-3.40377,1.55019,1.7,-4.8,0,12624,49.36,28.076,13858.3
1410211050,0.634771,2.223,91.7931,-0.436863,0.0398608,0.918634,3.56266,-0.121444,-0.0480896,-0.749753,-3.52986,1.82796,1.7,-4.8,0,12624,49.36,28.076,13858.3
1410311419,0.634771,2.223,91.8002,-0.408433,0.0288828,0.921701,3.83275,-0.409678,-0.0366062,-0.696682,-3.42129,1.72163,1.7,-4.8,0,12624,49.36,28.076,13858.3
1410411772,0.634771,2.223,91.7933,-0.36083,0.01524,0.926227,4.07398,-0.650003,-0.0232303,-0.476444,-2.89629,1.487,1.7,-4.8,0,12624,49.36,28.076,13858.3
1410512123,0.634771,2.223,91.7927,-0.311663,0.00359258,0.928718,4.27591,-0.842728,-0.00374132,-0.381651,-2.47486,0.951736,1.7,-4.8,0,12624,49.36,28.076,13858.3
1410612513,0.634771,2.223,91.8013,-0.269689,-0.0045756,0.930663,4.44974,-0.997616,0.00759238,-0.243989,-2.04521,0.688043,2.5,-4.6,0,12624,49.36,28.076,13858.3
1410712813,0.634771,2.223,91.8127,-0.224801,-0.0257951,0.933875,4.59267,-1.12327,0.00395172,-0.175169,-1.67628,0.349091,2.5,-4.6,0,12624,49.36,28.076,13858.3
1410813201,0.634771,2.223,91.8199,-0.173074,-0.0852426,0.934174,4.72103,-1.19981,0.0427658,0.308667,-1.19919,0.35712,2.5,-4.6,0,12624,49.36,28.076,13858.3
1410913555,0.634771,2.223,91.8281,-0.138353,-0.123,0.936621,4.84036,-1.18296,0.00731318,0.846147,-0.749735,-0.167191,2.5,-4.6,0,12609,49.501,24.277,12017.4
1411013860,0.634771,2.223,91.8341,-0.120827,-0.139489,0.93816,4.96046,-1.13314,-0.00937879,1.11511,-0.5051,0.213264,2.5,-4.6,0,12609,49.501,24.277,12017.4
1411114211,0.634771,2.223,91.8375,-0.105728,-0.143439,0.938966,5.06494,-1.05196,-0.0327004,1.25312,-0.245032,-0.248465,2.5,-4.6,0,12609,49.501,24.277,12017.4
1411214612,0.634771,2.223,91.8415,-0.0925477,-0.133113,0.938314,5.16475,-0.956726,-0.0336131,1.27948,-0.122406,0.217399,2.5,-4.6,0,12609,49.501,24.277,12017.4
1411314974,0.634772,2.223,91.8392,-0.0893091,-0.109048,0.936587,5.22755,-0.861562,-0.0347742,0.968463,0.142025,0.170482,2.5,-4.6,0,12609,49.501,24.277,12017.4
1411415355,0.634772,2.223,91.8334,-0.0898973,-0.0857865,0.935323,5.28608,-0.792385,-0.0212097,0.76661,-0.0669223,-0.283022,2.5,-4.6,0,12609,49.501,24.277,12017.4
1411515712,0.634772,2.223,91.8306,-0.0915727,-0.0647533,0.934042,5.32386,-0.741792,-0.0297306,0.580207,-0.0371944,-0.114719,2.5,-4.6,0,12609,49.501,24.277,12017.4
1411616156,0.634772,2.223,91.8281,-0.0899475,-0.0509676,0.933152,5.35006,-0.702937,-0.0202685,0.342756,-0.00410856,0.52844,-0.8,-4.7,0,12609,49.501,24.277,12017.4
1411716534,0.634772,2.223,91.8293,-0.0878927,-0.0234546,0.93203,5.36216,-0.674571,-0.0309207,0.166925,0.0154782,0.280221,-0.8,-4.7,0,12609,49.501,24.277,12017.4
1411816967,0.634772,2.223,91.8326,-0.0624157,0.147916,0.930302,5.36335,-0.659943,0.0503935,-0.314312,0.135965,0.593659,-0.8,-4.7,0,12609,49.501,24.277,12017.4
1411917327,0.634772,2.223,91.85,-0.0639463,0.289864,0.924069,5.20356,-0.805652,0.0248272,-2.52343,0.29896,-0.569871,-0.8,-4.7,0,12609,49.411,25.464,12582
1412017694,0.634772,2.223,91.8516,-0.0784845,0.36677,0.915414,4.98319,-1.05494,-0.0485742,-3.34445,0.219635,0.993806,-0.8,-4.7,0,12609,49.411,25.464,12582
1412118046,0.634772,2.223,91.8412,-0.095711,0.400528,0.908017,4.72115,-1.37379,-0.053721,-4.01408,0.162817,1.23667,-0.8,-4.7,0,12609,49.411,25.464,12582
1412218442,0.634772,2.223,91.8437,-0.109684,0.403039,0.902237,4.47036,-1.71316,-0.0730751,-4.06524,-0.0738313,1.48686,-0.8,-4.7,0,12609,49.411,25.464,12582
1412318732,0.634772,2.223,91.8139,-0.11855,0.356501,0.901337,4.21236,-2.0735,-0.0964649,-3.95778,-0.134216,1.63156,-0.8,-4.7,0,12609,49.411,25.464,12582
1412419088,0.634772,2.223,91.7978,-0.118549,0.297532,0.905635,4.00269,-2.3823,-0.0683182,-3.35671,-0.141111,1.30854,-0.8,-4.7,0,12609,49.411,25.464,12582
1412519459,0.634772,2.223,91.7993,-0.116178,0.23995,0.911084,3.83523,-2.61183,-0.0574464,-2.52063,-0.052277,1.1368,-0.8,-4.7,0,12609,49.411,25.464,12582
1412619883,0.634773,2.223,91.8101,-0.116794,0.189321,0.916588,3.70815,-2.80822,-0.0477067,-2.07753,-0.158038,0.509156,-2.9,0.7,0,12609,49.411,25.464,12582
1412720314,0.634773,2.223,91.816,-0.104485,0.14783,0.918819,3.60328,-2.95297,-0.0450105,-1.56268,-0.0647288,0.292973,-2.9,0.7,0,12609,49.411,25.464,12582
1412820727,0.634773,2.223,91.8408,0.0684664,0.142779,0.938761,3.5182,-3.07404,0.0804695,-1.1549,0.157985,1.12726,-2.9,0.7,0,12609,49.411,25.464,12582
1412921082,0.634773,2.223,91.859,0.250982,0.158142,0.95529,3.25882,-3.05072,0.0837675,-1.22706,2.44796,0.125322,-2.9,0.7,0,12609,49.411,25.464,12582
1413021446,0.634773,2.223,91.8589,0.354983,0.179536,0.962437,2.869,-2.94484,0.0103041,-1.34953,3.76258,0.844458,-2.9,0.7,0,12609,49.533,23.885,11831
1413121805,0.634773,2.223,91.8525,0.399136,0.19773,0.967682,2.29105,-2.80199,-0.0350354,-1.81002,4.3076,1.92112,-2.9,0.7,0,12609,49.533,23.885,11831
1413222135,0.634773,2.223,91.8306,0.419795,0.207462,0.968865,1.78238,-2.6645,-0.0841744,-1.73137,4.40383,2.07258,-2.9,0.7,0,12609,49.533,23.885,11831
1413322508,0.634773,2.223,91.7824,0.419584,0.210005,0.964292,1.25744,-2.51951,-0.125731,-1.71883,4.53375,2.11049,-2.9,0.7,0,12609,49.533,23.885,11831
1413422859,0.634773,2.223,91.7313,0.413552,0.212936,0.960669,0.729509,-2.37709,-0.145644,-1.75188,4.34442,2.48784,-2.9,0.7,0,12609,49.533,23.885,11831
1413523169,0.634773,2.223,91.7089,0.413364,0.217414,0.959765,0.1797,-2.23975,-0.153459,-1.93923,4.47752,2.84691,-2.9,0.7,0,12609,49.533,23.885,11831
1413623583,0.634773,2.223,91.694,0.389406,0.201809,0.950041,-0.364556,-2.08789,-0.130432,-1.8639,4.51974,2.4166,2.2,-3.7,0,12609,49.533,23.885,11831
1413724034,0.634773,2.223,91.6859,0.30343,0.155821,0.930004,-0.866548,-1.92792,-0.058213,-1.57225,4.00761,2.65756,2.2,-3.7,0,12609,49.533,23.885,11831
1413824461,0.634773,2.223,91.6971,0.12009,-0.0526855,0.90651,-1.22765,-1.76538,0.0826112,-0.656039,3.11252,1.56085,2.2,-3.7,0,12609,49.533,23.885,11831
1413924839,0.634773,2.223,91.7305,-0.129592,-0.267782,0.935672,-1.16048,-1.53475,0.0975056,2.72599,0.127134,-0.85041,2.2,-3.7,0,12609,49.533,23.885,11831
1414025218,0.634773,2.223,91.7486,-0.309351,-0.360714,0.98336,-0.822405,-1.3258,-0.0474949,3.64438,-1.77155,1.03756,2.2,-3.7,0,12535,49.712,21.754,10814.3
1414125566,0.634773,2.223,91.7561,-0.383178,-0.374712,1.00462,-0.3097,-1.13106,-0.043775,3.94025,-2.63357,2.72705,2.2,-3.7,0,12535,49.712,21.754,10814.3
1414225928,0.634773,2.223,91.7724,-0.399747,-0.357892,1.00347,0.239727,-0.969128,-0.0344023,3.78145,-2.87705,2.97932,2.2,-3.7,0,12535,49.712,21.754,10814.3
1414326268,0.634773,2.223,91.7557,-0.397326,-0.331518,0.996116,0.774875,-0.834712,-0.013816,3.51255,-2.893,2.8618,2.2,-3.7,0,12535,49.712,21.754,10814.3
1414427934,0.634773,2.223,91.7437,-0.390172,-0.301679,0.986478,1.29323,-0.736358,0.00743259,3.25958,-2.95994,2.27606,2.2,-3.7,0,12535,49.712,21.754,10814.3
1414528479,0.634773,2.223,91.7579,-0.385378,-0.276474,0.978093,1.77394,-0.667422,0.0124189,2.8851,-2.85935,1.97605,2.2,-3.7,0,12535,49.712,21.754,10814.3
1414629015,0.634773,2.223,91.7704,-0.379723,-0.258591,0.972604,2.23793,-0.621321,0.00245102,2.64502,-2.83601,1.80618,2.8,3.7,0,12535,49.712,21.754,10814.3
1414729403,0.634773,2.223,91.7671,-0.305676,-0.222117,0.951917,2.69025,-0.597799,0.000766751,2.41868,-2.87995,1.61037,2.8,3.7,0,12535,49.712,21.754,10814.3
1414829795,0.634773,2.223,91.7686,-0.0260145,-0.162843,0.912918,3.04986,-0.546629,0.0833849,1.9406,-1.6011,1.73661,2.8,3.7,0,12535,49.712,21.754,10814.3
1414930164,0.634773,2.223,91.7837,0.236746,-0.092141,0.909587,3.06072,-0.353961,0.137976,1.16313,1.76167,0.245724,2.8,3.7,0,12535,49.712,21.754,10814.3
1415030537,0.634773,2.223,91.7917,0.366212,-0.0529701,0.921064,2.85008,-0.0907437,0.0689363,0.521544,3.78094,0.322105,2.8,3.7,0,12535,49.696,22.76,11310.8
1415130898,0.634773,2.223,91.8127,0.425735,-0.0399716,0.929148,2.5318,0.207546,0.0284505,0.255502,4.4099,1.72099,2.8,3.7,0,12535,49.696,22.76,11310.8
1415231245,0.634773,2.223,91.8307,0.446371,-0.030373,0.936609,2.17677,0.514762,-0.0214262,0.150413,4.62471,1.56328,2.8,3.7,0,12535,49.696,22.76,11310.8
1415331595,0.634773,2.223,91.8041,0.448777,-0.0280233,0.940558,1.79405,0.822423,-0.0601553,0.0823573,4.75438,1.76598,2.8,3.7,0,12535,49.696,22.76,11310.8
1415431957,0.634773,2.223,91.7637,0.446637,-0.0293786,0.942741,1.40747,1.14411,-0.096546,0.221859,4.59315,2.26412,2.8,3.7,0,12535,49.696,22.76,11310.8
1415532347,0.634773,2.223,91.7473,0.427226,-0.0368741,0.942221,1.00281,1.46093,-0.0970205,0.127648,4.51695,2.4342,2.8,3.7,0,12535,49.696,22.76,11310.8
1415632766,0.634773,2.223,91.7373,0.400404,-0.0500962,0.938843,0.617797,1.77205,-0.0922738,0.209856,4.3377,2.18777,1.9,2.2,0,12535,49.696,22.76,11310.8
1415733139,0.634773,2.223,91.7199,0.360232,-0.0566546,0.93542,0.256389,2.06913,-0.0598172,0.155328,4.02423,1.90696,1.9,2.2,0,12535,49.696,22.76,11310.8
1415833500,0.634773,2.223,91.7072,0.270774,-0.0274303,0.935189,-0.0735214,2.33829,-0.00679741,0.03733,3.67495,1.39887,1.9,2.2,0,12535,49.696,22.76,11310.8
1415933871,0.634773,2.223,91.7146,0.168568,-0.0076329,0.934822,-0.315458,2.51098,0.0210876,-0.0326282,2.57777,0.664396,1.9,2.2,0,12535,49.696,22.76,11310.8
1416034236,0.634773,2.223,91.7299,0.0852549,-0.000806004,0.93372,-0.479096,2.58737,0.0272442,-0.288265,1.42417,0.107841,1.9,2.2,0,12535,49.323,31.002,15291.1
1416136413,0.634773,2.223,91.7447,0.0349846,-0.00675312,0.931779,-0.579032,2.62205,0.0310681,-0.252073,0.766771,0.0421485,1.9,2.2,0,12535,49.323,31.002,15291.1
1416241424,0.634773,2.223,91.7621,0.0107324,-0.0179302,0.929983,-0.646907,2.63437,0.029675,-0.185649,0.214745,-0.0420996,1.9,2.2,0,12535,49.323,31.002,15291.1
1416341764,0.634773,2.223,91.7832,0.000955116,-0.0306283,0.928642,-0.664291,2.64532,0.0274399,0.0627371,0.042426,-0.166183,1.9,2.2,0,12535,49.323,31.002,15291.1
1416442147,0.634773,2.223,91.8034,-0.00148753,-0.0377687,0.927742,-0.671179,2.66209,0.0323528,0.146221,0.0552189,-0.0776205,1.9,2.2,0,12535,49.323,31.002,15291.1
1416542561,0.634773,2.223,91.8112,0.000380339,-0.0406643,0.927177,-0.675175,2.67178,0.0130073,0.14049,0.0701823,-0.216004,1.9,2.2,0,12535,49.323,31.002,15291.1
1416642966,0.634773,2.223,91.8229,0.0055764,-0.0431819,0.926748,-0.676269,2.69782,0.0170701,0.281387,0.172684,-0.356013,-3.6,-3.5,0,12535,49.323,31.002,15291.1
1416743295,0.634773,2.223,91.8232,-0.00627708,-0.0230579,0.924958,-0.675451,2.71922,0.012979,0.234956,0.200624,0.419881,-3.6,-3.5,0,12535,49.323,31.002,15291.1
1416843673,0.634773,2.223,91.8243,-0.138825,0.112994,0.9183,-0.670266,2.6928,0.0643334,-0.496002,-0.374214,-0.195814,-3.6,-3.5,0,12535,49.323,31.002,15291.1
1416944084,0.634773,2.223,91.8248,-0.270304,0.217925,0.898693,-0.62475,2.43602,-0.0120815,-1.98441,-2.14226,-0.400456,-3.6,-3.5,0,12535,49.323,31.002,15291.1
1417044494,0.634773,2.223,91.8159,-0.359553,0.28519,0.87844,-0.537947,2.04316,-0.0726502,-2.57187,-2.87847,1.31543,-3.6,-3.5,0,12535,49.323,31.002,15291.1
1417144844,0.634773,2.223,91.815,-0.397131,0.313905,0.868833,-0.422962,1.53787,-0.0981609,-2.96492,-3.34041,2.30503,-3.6,-3.5,0,12535,49.3,31.002,15284
1417245174,0.634773,2.223,91.8155,-0.394507,0.321439,0.867755,-0.301568,0.965263,-0.0760827,-3.21383,-3.48254,2.90597,-3.6,-3.5,0,12535,49.3,31.002,15284
1417345593,0.634773,2.223,91.8003,-0.374616,0.31578,0.871158,-0.197301,0.422352,-0.0523146,-3.13932,-3.27054,2.63021,-3.6,-3.5,0,12535,49.3,31.002,15284
1417445992,0.634773,2.223,91.7882,-0.355514,0.309934,0.874598,-0.0997446,-0.0907964,-0.0366854,-3.0163,-3.1265,2.29974,-3.6,-3.5,0,12535,49.3,31.002,15284
1417546356,0.634773,2.223,91.7885,-0.343216,0.308411,0.877195,-0.0222813,-0.591099,-0.0242522,-3.06826,-2.94522,2.20076,-3.6,-3.5,0,12535,49.3,31.002,15284
1417646737,0.634773,2.223,91.7802,-0.33256,0.30319,0.880109,0.0467694,-1.05753,-0.0155947,-2.89982,-2.71189,1.90755,4.2,1.3,0,12535,49.3,31.002,15284
1417747105,0.634773,2.223,91.7706,-0.305843,0.268688,0.890725,0.106017,-1.51632,-0.0131722,-2.93765,-2.57965,1.9543,4.2,1.3,0,12535,49.3,31.002,15284
1417847474,0.634773,2.223,91.7668,-0.161425,0.0562965,0.920622,0.168049,-1.92756,0.0619131,-2.29498,-2.21864,1.19826,4.2,1.3,0,12535,49.3,31.002,15284
1417947814,0.634773,2.223,91.7803,0.039459,-0.223982,0.921474,0.249365,-1.94318,0.0765093,0.954524,-0.1888,0.155476,4.2,1.3,0,12535,49.3,31.002,15284
1418048234,0.634773,2.223,91.7926,0.163663,-0.379753,0.898718,0.32575,-1.62208,0.00961609,3.35272,1.69174,0.324947,4.2,1.3,0,12535,49.3,31.002,15284
1418148589,0.634773,2.223,91.7854,0.224623,-0.440592,0.882895,0.404791,-1.16154,-0.0661695,3.99984,2.18964,1.97216,4.2,1.3,0,12535,49.454,25.282,12503
1418248941,0.634773,2.223,91.7816,0.243838,-0.448354,0.880156,0.471864,-0.598508,-0.0803078,4.31721,2.64773,2.62853,4.2,1.3,0,12535,49.454,25.282,12503
1418349267,0.634773,2.223,91.7428,0.237736,-0.429374,0.886007,0.528084,-0.02404,-0.0769673,4.15063,2.67136,2.85709,4.2,1.3,0,12535,49.454,25.282,12503
1418449629,0.634773,2.223,91.6975,0.221167,-0.407797,0.891775,0.577272,0.52994,-0.0583554,3.91203,2.62261,2.80391,4.2,1.3,0,12535,49.454,25.282,12503
1418549981,0.634773,2.223,91.6976,0.201483,-0.394332,0.895354,0.623551,1.04627,-0.0416123,3.66929,2.41064,2.48521,4.2,1.3,0,12535,49.454,25.282,12503
1418650345,0.634773,2.223,91.7117,0.178994,-0.38394,0.898507,0.68026,1.53755,-0.00969011,3.54923,2.12952,2.15725,2.6,4.5,0,12535,49.454,25.282,12503
1418752430,0.634773,2.223,91.708,0.180333,-0.349732,0.902594,0.76008,2.00362,0.0153793,3.48096,1.72414,2.19927,2.6,4.5,0,12535,49.454,25.282,12503
1418857769,0.634773,2.223,91.7074,0.276535,-0.209907,0.896092,0.797231,2.46779,0.105227,2.95907,2.21646,1.77725,2.6,4.5,0,12535,49.454,25.282,12503
1418958143,0.634773,2.223,91.7292,0.353113,-0.0942012,0.907413,0.611501,2.80305,0.0733108,1.12713,3.35485,0.640959,2.6,4.5,0,12535,49.454,25.282,12503
1419058492,0.634773,2.223,91.7439,0.395894,-0.026242,0.923709,0.327771,3.08996,0.0140201,0.190293,3.76282,1.02246,2.6,4.5,0,12535,49.454,25.282,12503
1419158886,0.634773,2.223,91.7645,0.410301,0.0047098,0.934193,-0.0303828,3.3559,-0.00862998,-0.284877,4.00057,1.49319,2.6,4.5,0,12535,49.454,24.252,11993.6
1419259244,0.634773,2.223,91.7841,0.405222,0.0111531,0.938112,-0.420389,3.60734,-0.00881303,-0.531737,4.0828,1.55885,2.6,4.5,0,12535,49.454,24.252,11993.6
1419359614,0.634773,2.223,91.7603,0.364466,0.00535692,0.938953,-0.795327,3.84842,-0.00802972,-0.461895,3.85584,1.63203,2.6,4.5,0,12535,49.454,24.252,11993.6
1419459946,0.634773,2.223,91.7294,0.301129,-0.00229536,0.938845,-1.16897,4.09592,0.00633922,-0.328202,3.13301,1.24871,2.6,4.5,0,12535,49.454,24.252,11993.6
1419560306,0.634773,2.223,91.7369,0.246736,-0.0124697,0.935969,-1.40451,4.24769,0.0125214,-0.22946,2.47293,0.609012,2.6,4.5,0,12535,49.454,24.252,11993.6
1419660710,0.634773,2.223,91.7495,0.20165,-0.022331,0.932975,-1.58324,4.37758,0.00846191,-0.0228176,1.94099,0.301184,-1.1,-4,0,12535,49.454,24.252,11993.6
1419761078,0.634773,2.223,91.7528,0.149065,-0.0239108,0.931918,-1.72751,4.49547,0.0158494,0.108557,1.59181,0.613326,-1.1,-4,0,12535,49.454,24.252,11993.6
1419861440,0.634773,2.223,91.7665,-0.0936049,0.0595196,0.927045,-1.80882,4.54775,0.0920007,-0.204781,0.448012,0.556387,-1.1,-4,0,12535,49.454,24.252,11993.6
1419961811,0.634773,2.223,91.7977,-0.330114,0.128508,0.908085,-1.69452,4.29675,0.132648,-1.32589,-2.87227,0.224326,-1.1,-4,0,12535,49.454,24.252,11993.6
1420062184,0.634773,2.223,91.8197,-0.455523,0.162449,0.894621,-1.47537,3.92533,0.008429,-1.73057,-4.24021,0.774345,-1.1,-4,0,12535,49.454,24.252,11993.6
1420162526,0.634773,2.223,91.8306,-0.513403,0.181571,0.885878,-1.18675,3.44782,-0.0465513,-1.81519,-4.53097,2.68032,-1.1,-4,0,12535,49.454,24.252,11993.6
1420262880,0.634773,2.223,91.838,-0.533781,0.195758,0.877744,-0.869911,2.93037,-0.0823661,-1.90114,-4.93075,2.61423,-1.1,-4,0,12535,49.454,24.252,11993.6
1420363240,0.634773,2.223,91.8041,-0.51511,0.205708,0.872383,-0.552809,2.37646,-0.113871,-2.09396,-4.82176,3.24422,-1.1,-4,0,12535,49.454,24.252,11993.6
1420463619,0.634773,2.223,91.7575,-0.473438,0.208025,0.874297,-0.263058,1.82254,-0.112438,-2.18077,-4.53646,3.18553,-1.1,-4,0,12535,49.454,24.252,11993.6
1420563972,0.634773,2.223,91.731,-0.430624,0.203302,0.87984,-0.00304121,1.29178,-0.0778401,-2.23133,-4.2661,2.73683,-1.1,-4,0,12535,49.454,24.252,11993.6
1420664377,0.634773,2.223,91.7201,-0.401381,0.189335,0.888692,0.228652,0.810926,-0.0377456,-2.00888,-3.76349,2.42594,1.5,4.2,0,12520,49.339,26.81,13227.8
1420764675,0.634773,2.223,91.7064,-0.360304,0.167728,0.899719,0.441506,0.358917,-0.00300004,-1.97437,-3.59553,2.0617,1.5,4.2,0,12520,49.339,26.81,13227.8
1420865103,0.634773,2.223,91.6966,-0.122498,0.078889,0.932676,0.627324,-0.0208665,0.0593492,-1.50176,-2.8635,1.2015,1.5,4.2,0,12520,49.339,26.81,13227.8
1420965514,0.634773,2.223,91.7234,0.202305,-0.0361402,0.932079,0.629119,-0.0806603,0.0811988,-0.155885,0.504303,-0.25844,1.5,4.2,0,12520,49.339,26.81,13227.8
1421065876,0.634773,2.223,91.7495,0.389385,-0.0949678,0.913938,0.438939,0.14281,0.00994471,0.790386,3.34422,0.482538,1.5,4.2,0,12520,49.339,26.81,13227.8
1421166225,0.634773,2.223,91.7621,0.47304,-0.120811,0.901285,0.147923,0.506006,-0.0282606,1.13287,4.43771,2.06507,1.5,4.2,0,12520,49.339,26.81,13227.8
1421266569,0.634773,2.223,91.7787,0.487914,-0.124768,0.898624,-0.191111,0.940585,-0.0254756,1.26337,4.78039,2.73174,1.5,4.2,0,12520,49.339,26.81,13227.8
1421366935,0.634773,2.223,91.7677,0.474439,-0.120796,0.900188,-0.538107,1.38144,-0.0014501,1.25068,4.79307,2.59868,1.5,4.2,0,12520,49.339,26.81,13227.8
1421467251,0.634773,2.223,91.7477,0.458066,-0.114061,0.903624,-0.872879,1.7935,-0.000662511,1.07053,4.60687,2.26821,1.5,4.2,0,12520,49.339,26.81,13227.8
1421567616,0.634773,2.223,91.7444,0.446404,-0.106163,0.90667,-1.19723,2.19657,0.000219547,1.0977,4.35411,2.29819,1.5,4.2,0,12520,49.339,26.81,13227.8
1421668091,0.634773,2.223,91.7365,0.409709,-0.0912942,0.91255,-1.52521,2.58207,-0.000834591,0.920183,4.30989,1.94074,1.9,0.4,0,12520,49.241,29.045,14302
1421768431,0.634773,2.223,91.7312,0.29774,-0.0808877,0.922297,-1.81754,2.92066,0.0100508,0.730675,3.62147,1.75199,1.9,0.4,0,12520,49.241,29.045,14302
1421868759,0.634773,2.223,91.7233,-0.00640195,-0.0899365,0.938327,-2.01723,3.17605,0.0814906,0.641483,2.21947,0.903143,1.9,0.4,0,12520,49.241,29.045,14302
1421969121,0.634773,2.223,91.739,-0.283113,-0.0935874,0.94511,-1.88835,3.21076,0.105012,0.846173,-1.55597,0.0874595,1.9,0.4,0,12520,49.241,29.045,14302
1422069479,0.634773,2.223,91.7622,-0.417783,-0.0957706,0.948708,-1.57863,3.1029,0.0324043,0.8125,-3.6306,0.70525,1.9,0.4,0,12520,49.241,29.045,14302
1422169845,0.634773,2.223,91.7839,-0.444637,-0.0849172,0.943884,-1.17199,2.93294,-0.00547725,0.786597,-4.19243,1.97554,1.9,0.4,0,12520,49.241,29.045,14302
1422270162,0.634773,2.223,91.812,-0.395972,-0.0642472,0.933792,-0.769045,2.74471,0.00428692,0.624855,-4.11662,1.5549,1.9,0.4,0,12520,49.241,29.045,14302
1422370532,0.634773,2.223,91.8054,-0.31976,-0.0475456,0.927377,-0.451605,2.57404,-0.0108693,0.338507,-3.46196,1.02448,1.9,0.4,0,12520,49.241,29.045,14302
1422470870,0.634773,2.223,91.7928,-0.247091,-0.0377019,0.925537,-0.214222,2.43298,-0.0193228,0.137056,-2.65637,0.704604,1.9,0.4,0,12520,49.241,29.045,14302
1422571253,0.634773,2.223,91.8072,-0.191587,-0.0349526,0.926498,-0.0188935,2.31699,-0.0155523,0.120529,-2.14038,0.603036,1.9,0.4,0,12520,49.241,29.045,14302
1422671622,0.634773,2.223,91.8254,-0.147896,-0.0342578,0.927795,0.13087,2.23539,-0.00785386,0.140886,-1.56855,0.212073,-3.8,-4.5,0,12520,49.285,27.052,13332.6
1422771966,0.634773,2.223,91.8208,-0.124562,-0.021018,0.926421,0.255008,2.16298,-0.0118078,0.0252929,-1.23098,-0.0244643,-3.8,-4.5,0,12520,49.285,27.052,13332.6
1422872317,0.634773,2.223,91.8086,-0.175913,0.103126,0.921255,0.360686,2.10059,0.0343256,-0.248472,-1.16627,0.534728,-3.8,-4.5,0,12520,49.285,27.052,13332.6
1422972693,0.634773,2.223,91.8063,-0.238441,0.215037,0.905201,0.417627,1.86096,-0.00345824,-1.75322,-1.8637,0.229233,-3.8,-4.5,0,12520,49.285,27.052,13332.6
1423073049,0.634773,2.223,91.7955,-0.278629,0.284879,0.888508,0.460767,1.50697,-0.0567309,-2.61817,-2.26106,1.04391,-3.8,-4.5,0,12520,49.285,27.052,13332.6
1423173415,0.634773,2.223,91.7842,-0.298426,0.316557,0.87946,0.498358,1.06713,-0.07135,-3.03814,-2.52311,1.90041,-3.8,-4.5,0,12520,49.285,27.052,13332.6
1423273739,0.634773,2.223,91.7769,-0.304448,0.320411,0.877562,0.513395,0.608576,-0.066404,-3.14388,-2.48049,2.03651,-3.8,-4.5,0,12520,49.285,27.052,13332.6
1423374111,0.634773,2.223,91.7643,-0.303486,0.312536,0.879371,0.537411,0.141755,-0.0510195,-3.11754,-2.53777,2.1369,-3.8,-4.5,0,12520,49.285,27.052,13332.6
