timestamp,lat,log,alt,roll,pitch,yaw,vel_x,vel_y,vel_z,acc_x,acc_y,acc_z,act_vx,act_vy,act_yr,capacity,vol,cur,power
245614905,0.634769,2.223,94.8283,-0.0117392,0.0239807,0.881322,-0.0794519,-0.0468631,-0.00111097,-0.0767281,0.0471662,0.109316,-0.6,-1.3,0,11039,48.112,25.148,12099.2
245715322,0.634769,2.223,94.8202,-0.0103512,0.0229079,0.881161,-0.081479,-0.0520485,0.0051042,-0.131516,0.032323,0.317802,-0.6,-1.3,0,11039,48.112,25.148,12099.2
245815669,0.634769,2.223,94.8194,-0.0179197,0.0255829,0.881605,-0.0839877,-0.0544632,0.00261203,-0.134289,0.0396507,0.0839616,-0.6,-1.3,0,11039,48.112,25.148,12099.2
245916057,0.634769,2.223,94.8201,-0.105337,0.0594268,0.877685,-0.0730758,-0.0718957,0.0362487,-0.234299,-0.355224,0.0311892,-0.6,-1.3,0,11039,48.112,25.148,12099.2
246016453,0.634769,2.223,94.8175,-0.190198,0.0900629,0.872129,-0.00812957,-0.187857,0.0172815,-0.571886,-1.3386,-0.0828787,-0.6,-1.3,0,11039,48.112,25.148,12099.2
246116796,0.634769,2.223,94.8123,-0.234784,0.107787,0.868248,0.104871,-0.381616,-0.0031435,-0.839155,-2.00081,0.469991,-0.6,-1.3,0,11039,48.112,25.148,12099.2
246217120,0.634769,2.223,94.8142,-0.237001,0.108841,0.868425,0.230503,-0.597455,-0.00556649,-0.883879,-2.12894,0.781474,-0.6,-1.3,0,11039,48.112,25.148,12099.2
246317433,0.634769,2.223,94.8262,-0.211764,0.100474,0.870972,0.346817,-0.806768,0.0184454,-0.866853,-2.01077,0.726408,-0.6,-1.3,0,11039,48.112,25.148,12099.2
246417786,0.634769,2.223,94.8263,-0.173065,0.0856153,0.874256,0.432514,-0.976448,0.0124167,-0.734843,-1.53514,0.48764,-0.6,-1.3,0,11039,48.112,25.148,12099.2
246518153,0.634769,2.223,94.8187,-0.136659,0.0720094,0.876563,0.513663,-1.09636,0.0263742,-0.408477,-1.19888,0.436954,-0.6,-1.3,0,11039,48.112,25.148,12099.2
246618505,0.634769,2.223,94.813,-0.110579,0.064213,0.877926,0.562433,-1.18717,0.0162278,-0.451352,-0.81374,0.0313709,-0.6,-1.3,0,11039,48.112,25.148,12099.2
246718830,0.634769,2.223,94.8159,-0.0907011,0.0568387,0.878887,0.603813,-1.25604,0.0117644,-0.332775,-0.665,0.140131,-0.6,-1.3,0,11039,48.113,25.308,12176.4
246819165,0.634769,2.223,94.8159,-0.0747213,0.0501948,0.879759,0.639283,-1.3149,0.0105772,-0.275585,-0.474964,0.318859,-0.6,-1.3,0,11039,48.113,25.308,12176.4
246919499,0.634769,2.223,94.81,-0.0632305,0.0443941,0.880275,0.662852,-1.35856,0.0122906,-0.266833,-0.416848,0.0739214,-0.6,-1.3,0,11039,48.113,25.308,12176.4
247019795,0.634769,2.223,94.8018,-0.055377,0.0386055,0.880694,0.685732,-1.39705,0.00833474,-0.135433,-0.251694,0.34273,-0.6,-1.3,0,11039,48.113,25.308,12176.4
247120951,0.634769,2.223,94.7933,-0.0500368,0.0346283,0.881022,0.699644,-1.41923,0.00544734,-0.158,-0.214632,-0.124704,-0.6,-1.3,0,11039,48.113,25.308,12176.4
247223157,0.634769,2.223,94.7895,-0.0475944,0.0328571,0.880991,0.710018,-1.4336,0.011678,-0.11281,-0.139542,0.0183938,-0.6,-1.3,0,11039,48.113,25.308,12176.4
247330334,0.634769,2.223,94.7849,-0.0453058,0.0323775,0.881233,0.723476,-1.4432,0.0230676,-0.0686193,-0.185641,0.135223,-0.6,-1.3,0,11039,48.113,25.308,12176.4
247430732,0.634769,2.223,94.7816,-0.0414834,0.0332971,0.881326,0.732304,-1.44912,0.0197219,-0.0800836,-0.083498,0.223997,-0.6,-1.3,0,11039,48.113,25.308,12176.4
247531066,0.634769,2.223,94.778,-0.0397439,0.0331472,0.881225,0.736816,-1.45006,0.0277745,-0.0769942,-0.0478903,0.332506,-0.6,-1.3,0,11039,48.113,25.308,12176.4
247631442,0.634769,2.223,94.7802,-0.0392292,0.0326159,0.881207,0.742274,-1.44909,0.0327728,-0.0312768,-0.0372221,0.00245006,-4.1,-0.4,0,11039,48.113,25.308,12176.4
247731807,0.634769,2.223,94.7876,-0.0310571,0.0496668,0.883227,0.745843,-1.44154,0.0277955,-0.00242389,-0.0204923,0.0304693,-4.1,-0.4,0,11039,48.095,25.847,12431.1
247832212,0.634769,2.223,94.7951,0.0229199,0.185809,0.887169,0.725212,-1.43636,0.0754808,-0.554366,0.292426,-0.0757513,-4.1,-0.4,0,11039,48.095,25.847,12431.1
247932543,0.634769,2.223,94.8014,0.0640696,0.307948,0.892907,0.554904,-1.53939,0.0176097,-2.06127,0.671315,0.333972,-4.1,-0.4,0,11039,48.095,25.847,12431.1
248032871,0.634769,2.223,94.8016,0.0894573,0.38561,0.898049,0.28032,-1.70874,-0.0154722,-2.9956,0.979509,1.19741,-4.1,-0.4,0,11039,48.095,25.847,12431.1
248134203,0.634769,2.223,94.8037,0.0978806,0.422143,0.899331,-0.146996,-1.96108,-0.018086,-3.68099,1.23449,1.80883,-4.1,-0.4,0,11039,48.095,25.847,12431.1
248238085,0.634769,2.223,94.8087,0.0897274,0.433869,0.898023,-0.514749,-2.20119,0.00667245,-3.78457,1.16503,1.94019,-4.1,-0.4,0,11039,48.095,25.847,12431.1
248338484,0.634769,2.223,94.8181,0.0747452,0.425287,0.894963,-0.870018,-2.44828,0.0189466,-3.82767,1.01303,1.69785,-4.1,-0.4,0,11039,48.095,25.847,12431.1
248438847,0.634769,2.223,94.8281,0.053662,0.380682,0.89047,-1.1928,-2.69259,0.0301203,-3.44602,0.799493,1.64299,-4.1,-0.4,0,11039,48.095,25.847,12431.1
248539201,0.634769,2.223,94.831,0.0336925,0.325626,0.886807,-1.45795,-2.89013,0.0412224,-3.08154,0.708908,0.534729,-4.1,-0.4,0,11039,48.095,25.847,12431.1
248639511,0.634769,2.223,94.8303,0.0170735,0.273737,0.884747,-1.66779,-3.04734,0.0297818,-2.27703,0.560183,1.04094,-4.1,-0.4,0,11039,48.095,25.847,12431.1
248739850,0.634769,2.223,94.8359,0.00156429,0.226055,0.882605,-1.82727,-3.18513,0.0439033,-1.89004,0.291222,0.457847,-4.1,-0.4,0,11039,48.068,25.847,12424.1
248840274,0.634769,2.223,94.8442,-0.00842345,0.187685,0.882383,-1.94275,-3.29036,0.0381983,-1.42887,0.202064,-0.0613118,-4.1,-0.4,0,11039,48.068,25.847,12424.1
248940664,0.634769,2.223,94.8524,-0.0133638,0.159896,0.88228,-2.02679,-3.3753,0.0313425,-1.03729,0.047557,0.0581589,-4.1,-0.4,0,11039,48.068,25.847,12424.1
249041026,0.634769,2.223,94.859,-0.0118349,0.137339,0.882099,-2.07625,-3.44267,0.0325852,-0.71705,-0.0621133,0.28062,-4.1,-0.4,0,11039,48.068,25.847,12424.1
249141328,0.634769,2.223,94.8661,-0.00974276,0.124681,0.882097,-2.11323,-3.49851,0.0385999,-0.705954,0.0112901,-0.0997883,-4.1,-0.4,0,11039,48.068,25.847,12424.1
249241625,0.634769,2.223,94.8702,-0.0115864,0.110538,0.881888,-2.15662,-3.52897,0.00300308,-0.45188,0.13635,-0.148342,-4.1,-0.4,0,11039,48.068,25.847,12424.1
249342001,0.634769,2.223,94.8672,-0.0100246,0.101464,0.88224,-2.18397,-3.56565,-0.00107006,-0.430198,0.0819737,0.0621272,-4.1,-0.4,0,11039,48.068,25.847,12424.1
249442373,0.634769,2.223,94.8598,-0.00707557,0.0945942,0.881932,-2.19437,-3.59257,-0.0199435,-0.319817,-0.0209384,0.0526831,-4.1,-0.4,0,11039,48.068,25.847,12424.1
249542752,0.634769,2.223,94.8516,-0.00621293,0.0904944,0.882312,-2.1845,-3.61455,-0.018029,-0.17015,-0.0952376,0.0745437,-4.1,-0.4,0,11039,48.068,25.847,12424.1
249643161,0.634769,2.223,94.8428,-0.00442737,0.0896083,0.882362,-2.20992,-3.62751,-0.0274155,-0.246601,0.15649,0.322064,3.8,-2.6,0,11039,48.068,25.847,12424.1
249743469,0.634769,2.223,94.8336,-0.00785035,0.0710809,0.880294,-2.21941,-3.64418,-0.0133729,-0.227579,0.0674063,0.469667,3.8,-2.6,0,11039,48.058,26.023,12506.1
249845295,0.634769,2.223,94.837,-0.0620392,-0.138207,0.883083,-2.20186,-3.63009,0.0341039,0.468238,-0.0729645,0.836364,3.8,-2.6,0,11039,48.058,26.023,12506.1
249947507,0.634769,2.223,94.8441,-0.107212,-0.31054,0.898319,-1.93612,-3.43349,0.063612,3.1292,-0.685059,0.71621,3.8,-2.6,0,11039,48.058,26.023,12506.1
250047797,0.634768,2.223,94.8474,-0.138251,-0.409127,0.911162,-1.574,-3.15739,0.00597308,4.16472,-0.928773,1.47366,3.8,-2.6,0,11039,48.058,26.023,12506.1
250148176,0.634768,2.223,94.8372,-0.155096,-0.459072,0.918618,-1.12532,-2.82617,-0.0258492,4.78316,-1.14346,2.17165,3.8,-2.6,0,11039,48.058,26.023,12506.1
250248539,0.634768,2.223,94.8109,-0.161031,-0.483661,0.92208,-0.642731,-2.45779,-0.0882341,5.49929,-1.20417,2.20148,3.8,-2.6,0,11039,48.058,26.023,12506.1
250348914,0.634768,2.223,94.7877,-0.154978,-0.487509,0.92226,-0.146998,-2.07451,-0.115081,5.09912,-1.03413,2.986,3.8,-2.6,0,11039,48.058,26.023,12506.1
250449279,0.634768,2.223,94.7801,-0.146254,-0.470999,0.918666,0.340227,-1.68541,-0.105426,4.92967,-1.00353,3.48302,3.8,-2.6,0,11039,48.058,26.023,12506.1
250549634,0.634769,2.223,94.7805,-0.143893,-0.447131,0.914744,0.833538,-1.29757,-0.0404029,4.96877,-1.13255,2.78052,3.8,-2.6,0,11039,48.058,26.023,12506.1
250649964,0.634769,2.223,94.7862,-0.141345,-0.425044,0.912023,1.29926,-0.941817,0.006446,4.62667,-0.963524,2.69968,3.8,-2.6,0,11039,48.058,26.023,12506.1
250750290,0.634769,2.223,94.8072,-0.143238,-0.403395,0.910063,1.71041,-0.621655,0.0306119,4.23539,-0.968554,2.18875,3.8,-2.6,0,11039,48.058,26.559,12763.7
250851188,0.634769,2.223,94.8335,-0.147478,-0.385601,0.909214,2.11456,-0.331507,0.0548934,4.09726,-1.09374,1.70203,3.8,-2.6,0,11039,48.058,26.559,12763.7
250951583,0.634769,2.223,94.8598,-0.151426,-0.368969,0.908088,2.47221,-0.0706969,0.0536553,3.66626,-0.98846,1.57095,3.8,-2.6,0,11039,48.058,26.559,12763.7
251051972,0.634769,2.223,94.8855,-0.151506,-0.343331,0.90579,2.82985,0.178777,0.0540063,3.62786,-1.01473,1.24489,3.8,-2.6,0,11039,48.058,26.559,12763.7
251156777,0.634769,2.223,94.9046,-0.138441,-0.290409,0.899154,3.2176,0.424904,0.053304,3.0635,-1.04738,0.791658,3.8,-2.6,0,11039,48.058,26.559,12763.7
251257152,0.634769,2.223,94.9176,-0.12194,-0.236935,0.8929,3.47588,0.589721,0.047264,2.48389,-0.862494,0.611244,3.8,-2.6,0,11039,48.058,26.559,12763.7
251357427,0.634769,2.223,94.9352,-0.108939,-0.186418,0.888716,3.67442,0.712675,0.0358112,1.93632,-0.780689,0.130096,3.8,-2.6,0,11039,48.058,26.559,12763.7
251457721,0.634769,2.223,94.9539,-0.0977292,-0.148991,0.885913,3.82396,0.800307,0.0251052,1.4284,-0.642868,-0.155093,3.8,-2.6,0,11039,48.058,26.559,12763.7
251558063,0.634769,2.223,94.9682,-0.0879651,-0.121984,0.884294,3.94579,0.868258,0.00802609,1.17544,-0.541249,-0.218227,3.8,-2.6,0,11039,48.058,26.559,12763.7
251658470,0.634769,2.223,94.978,-0.0790417,-0.101692,0.883233,4.02723,0.927128,-0.00864814,0.879418,-0.354374,-0.0212912,0,-1.9,0,11039,48.058,26.559,12763.7
251758839,0.634769,2.223,94.9876,-0.0627011,-0.0572151,0.882922,4.10863,0.976942,-0.000716791,0.8792,-0.363919,0.331996,0,-1.9,0,11039,48.058,26.559,12763.7
251859178,0.634769,2.223,95.0002,-0.0078042,0.183431,0.883635,4.12072,0.976591,0.0567389,-0.471859,-0.00864783,0.208701,0,-1.9,0,11039,48.058,26.559,12763.7
251959491,0.634769,2.223,95.0145,0.026856,0.363027,0.887056,3.88084,0.782814,-0.00924046,-3.23022,0.55435,0.00781286,0,-1.9,0,11039,48.058,26.559,12763.7
252059824,0.634769,2.223,95.015,0.0383802,0.47141,0.890147,3.54307,0.507379,-0.082967,-4.15654,0.749784,1.51041,0,-1.9,0,11039,48.058,26.559,12763.7
252160209,0.634769,2.223,95.0269,0.0356866,0.50416,0.888808,3.12146,0.139798,-0.115775,-4.8167,0.722742,2.42902,0,-1.9,0,11039,48.058,26.559,12763.7
252260542,0.634769,2.223,95.0511,0.0264204,0.453695,0.883565,2.68195,-0.234043,-0.0967583,-4.85708,0.839291,2.17514,0,-1.9,0,11039,48.018,26.353,12654.2
252360898,0.634769,2.223,95.0572,0.0133938,0.360023,0.878662,2.31948,-0.540396,-0.0895631,-4.04826,0.674358,1.54494,0,-1.9,0,11039,48.018,26.353,12654.2
252461226,0.63477,2.223,95.0376,0.000756841,0.262642,0.877545,2.04647,-0.770014,-0.0665817,-2.95522,0.496935,0.93612,0,-1.9,0,11039,48.018,26.353,12654.2
252561596,0.63477,2.223,95.0222,-0.0121532,0.183142,0.878205,1.84546,-0.932837,-0.0609593,-2.05176,0.398155,0.669622,0,-1.9,0,11039,48.018,26.353,12654.2
252661945,0.63477,2.223,95.0127,-0.025837,0.124691,0.879083,1.69493,-1.05085,-0.0527986,-1.48123,0.26602,-0.540408,0,-1.9,0,11039,48.018,26.353,12654.2
252762335,0.63477,2.223,94.9893,-0.0402692,0.0811008,0.88058,1.60583,-1.13937,-0.0902394,-0.896042,0.0613406,0.213117,0,-1.9,0,11039,48.018,26.353,12654.2
252862683,0.63477,2.223,94.9502,-0.0446962,0.0557186,0.881456,1.56324,-1.20537,-0.0842685,-0.436353,-0.136059,0.341442,0,-1.9,0,11039,48.018,26.353,12654.2
252963099,0.63477,2.223,94.9192,-0.0448241,0.0364966,0.881895,1.53004,-1.25098,-0.0945689,-0.227808,-0.0317115,0.36062,0,-1.9,0,11039,48.018,26.353,12654.2
253063447,0.63477,2.223,94.8982,-0.0442964,0.0257121,0.882052,1.50701,-1.27696,-0.0882428,-0.141097,0.0502629,0.198356,0,-1.9,0,11039,48.018,26.353,12654.2
253163788,0.63477,2.223,94.8773,-0.044567,0.0198424,0.882103,1.49547,-1.29772,-0.068163,-0.104539,0.0669533,0.349007,0,-1.9,0,11039,48.018,26.353,12654.2
253264106,0.63477,2.223,94.8634,-0.0445601,0.0155241,0.881847,1.49834,-1.32116,-0.0612584,-0.0628921,-0.10235,0.266529,0,-1.9,0,11039,47.916,30.943,14826.6
253364455,0.63477,2.223,94.8568,-0.0434188,0.0153238,0.881734,1.50948,-1.31587,-0.0354686,0.0727853,-0.0460388,0.221969,0,-1.9,0,11039,47.916,30.943,14826.6
253464848,0.63477,2.223,94.8565,-0.0420779,0.017286,0.881605,1.52576,-1.31374,-0.0287735,0.0999443,0.0140147,0.223071,0,-1.9,0,11039,47.916,30.943,14826.6
253565202,0.63477,2.223,94.8618,-0.040623,0.0198278,0.881258,1.54914,-1.31013,-0.0147619,0.104363,-0.0340623,0.368073,0,-1.9,0,11039,47.916,30.943,14826.6
253665589,0.63477,2.223,94.8737,-0.0396046,0.0237219,0.880948,1.56591,-1.3086,-0.00187435,-0.0495541,-0.0901694,-0.0449665,-2.4,1.8,0,11039,47.916,30.943,14826.6
253765966,0.63477,2.223,94.8884,-0.0247199,0.0352621,0.880746,1.57584,-1.31024,-0.000987303,-0.0333827,-0.0211451,0.441862,-2.4,1.8,0,11039,47.916,30.943,14826.6
253866344,0.63477,2.223,94.8956,0.121471,0.123182,0.89164,1.52872,-1.2966,0.0333751,-0.678278,0.882904,-0.52282,-2.4,1.8,0,11039,47.916,30.943,14826.6
253966683,0.63477,2.223,94.906,0.256552,0.189797,0.907247,1.28494,-1.25621,-0.0122427,-1.42502,2.29432,0.390106,-2.4,1.8,0,11039,47.916,30.943,14826.6
254067063,0.63477,2.223,94.917,0.33514,0.229161,0.919382,0.921431,-1.1912,-0.0428636,-1.98634,3.28365,0.973151,-2.4,1.8,0,11039,47.916,30.943,14826.6
254167431,0.63477,2.223,94.9202,0.372293,0.248668,0.924786,0.479377,-1.11046,-0.0510251,-2.11319,3.60674,2.08619,-2.4,1.8,0,11039,47.916,30.943,14826.6
254267719,0.63477,2.223,94.9226,0.376296,0.254787,0.925628,0.0146426,-1.02511,-0.0479864,-2.12629,3.72601,2.05673,-2.4,1.8,0,11039,48.018,28.823,13840.2
254368082,0.63477,2.223,94.9117,0.357963,0.257401,0.924254,-0.449033,-0.944574,-0.036362,-2.16735,3.60446,2.09621,-2.4,1.8,0,11039,48.018,28.823,13840.2
254468432,0.63477,2.223,94.8975,0.336517,0.260526,0.923475,-0.896062,-0.873342,-0.0181516,-2.14277,3.52179,1.83974,-2.4,1.8,0,11039,48.018,28.823,13840.2
254568786,0.63477,2.223,94.8866,0.29568,0.248866,0.91759,-1.31993,-0.831612,-0.0218832,-2.24991,3.2771,1.39633,-2.4,1.8,0,11039,48.018,28.823,13840.2
254669097,0.63477,2.223,94.8812,0.242654,0.222739,0.909236,-1.67684,-0.811702,-0.00159146,-1.87002,2.54623,1.53119,-2.4,1.8,0,11039,48.018,28.823,13840.2
254769461,0.63477,2.223,94.8762,0.192684,0.193487,0.902362,-1.97247,-0.798514,0.0274414,-1.60806,2.07986,0.917956,-2.4,1.8,0,11039,48.018,28.823,13840.2
254869832,0.63477,2.223,94.8707,0.150998,0.166321,0.897504,-2.18454,-0.791976,0.0146744,-1.27616,1.59207,0.410267,-2.4,1.8,0,11039,48.018,28.823,13840.2
254970211,0.63477,2.223,94.8706,0.117073,0.143533,0.894018,-2.3559,-0.785832,0.00223525,-0.961506,1.21816,0.177966,-2.4,1.8,0,11039,48.018,28.823,13840.2
255070560,0.63477,2.223,94.8765,0.0907621,0.126705,0.89163,-2.48362,-0.78413,-0.00412109,-0.716309,0.936252,-0.413136,-2.4,1.8,0,11039,48.018,28.823,13840.2
255170889,0.63477,2.223,94.8756,0.0735349,0.113448,0.890199,-2.5815,-0.787832,-0.00231764,-0.650629,0.673387,0.382823,-2.4,1.8,0,11039,48.018,28.823,13840.2
255271252,0.63477,2.223,94.8667,0.0622714,0.101302,0.888963,-2.67066,-0.804038,-0.0142553,-0.642466,0.578771,0.321806,-2.4,1.8,0,11039,48.002,26.15,12552.5
255371563,0.634769,2.223,94.8667,0.0520604,0.0913434,0.887767,-2.73464,-0.815371,0.00325852,-0.511497,0.456343,0.014454,-2.4,1.8,0,11039,48.002,26.15,12552.5
255471915,0.634769,2.223,94.8667,0.0461603,0.0827423,0.886698,-2.7835,-0.825028,-0.00855135,-0.385184,0.405523,-0.042424,-2.4,1.8,0,11039,48.002,26.15,12552.5
255572286,0.634769,2.223,94.863,0.0404073,0.0753825,0.886169,-2.81829,-0.824993,-0.0301535,-0.150181,0.313772,0.344706,-2.4,1.8,0,11039,48.002,26.15,12552.5
255672676,0.634769,2.223,94.8582,0.0349713,0.0720734,0.885804,-2.83461,-0.827525,0.00345417,-0.144904,0.161714,0.233012,2.8,1.1,0,11039,48.002,26.15,12552.5
255773041,0.634769,2.223,94.8599,0.0224375,0.0307054,0.882217,-2.86151,-0.840513,0.00255766,-0.378755,0.240823,0.222534,2.8,1.1,0,11039,48.002,26.15,12552.5
255874368,0.634769,2.223,94.8662,-0.0199761,-0.181432,0.883642,-2.82575,-0.813124,0.0618863,0.850151,-0.0698722,0.613551,2.8,1.1,0,11039,48.002,26.15,12552.5
255974693,0.634769,2.223,94.8879,-0.0447271,-0.345073,0.887756,-2.5846,-0.613602,0.0400782,3.1282,-0.462474,0.0543357,2.8,1.1,0,11039,48.002,26.15,12552.5
256075093,0.634769,2.223,94.9043,-0.0581392,-0.438304,0.889261,-2.25512,-0.350049,-0.0454713,4.00705,-0.653093,1.39525,2.8,1.1,0,11039,48.002,26.15,12552.5
256175408,0.634769,2.223,94.8974,-0.0692733,-0.473074,0.887542,-1.8302,0.00482976,-0.0689853,4.80399,-0.759769,2.24318,2.8,1.1,0,11039,48.002,26.15,12552.5
256275686,0.634769,2.223,94.8701,-0.0700151,-0.465256,0.884141,-1.39102,0.358291,-0.0850204,4.70954,-0.858189,2.46673,2.8,1.1,0,11039,48.002,26.15,12552.5
256376062,0.634769,2.223,94.8413,-0.0568719,-0.449011,0.88113,-0.957265,0.713229,-0.0888902,4.73391,-0.713298,2.0839,2.8,1.1,0,10994,47.999,26.962,12941.5
256476419,0.634769,2.223,94.8243,-0.0299904,-0.436306,0.87722,-0.553685,1.05635,-0.0706122,4.1989,-0.702501,2.96221,2.8,1.1,0,10994,47.999,26.962,12941.5
256576768,0.634769,2.223,94.8179,0.00171339,-0.38783,0.872252,-0.118238,1.46312,-0.0387357,3.9994,-0.257554,1.86113,2.8,1.1,0,10994,47.999,26.962,12941.5
256677147,0.634769,2.223,94.8191,0.0249351,-0.3187,0.870264,0.109577,1.71572,-0.0215234,3.56769,-0.0315731,1.57645,2.8,1.1,0,10994,47.999,26.962,12941.5
256777524,0.634769,2.223,94.8309,0.0410286,-0.247111,0.871808,0.359011,2.0243,0.0161826,2.73017,0.21207,0.785048,2.8,1.1,0,10994,47.999,26.962,12941.5
256877871,0.634769,2.223,94.8499,0.054291,-0.182348,0.874558,0.497428,2.22807,0.0247859,2.03019,0.391422,0.126638,2.8,1.1,0,10994,47.999,26.962,12941.5
256978228,0.634769,2.223,94.8717,0.0613623,-0.134242,0.877095,0.576836,2.39391,0.0268244,1.42351,0.54137,0.280833,2.8,1.1,0,10994,47.999,26.962,12941.5
257078594,0.634769,2.223,94.9008,0.0587009,-0.0993393,0.879426,0.624188,2.52686,0.0168452,1.03063,0.561989,-0.31088,2.8,1.1,0,10994,47.999,26.962,12941.5
257178910,0.634769,2.223,94.9237,0.0535797,-0.0769399,0.880617,0.644382,2.62971,0.0179102,0.64786,0.517532,0.0126602,2.8,1.1,0,10994,47.999,26.962,12941.5
257280367,0.634769,2.223,94.9413,0.0458816,-0.0607168,0.881129,0.65608,2.71482,0.0126495,0.544545,0.452045,-0.27726,2.8,1.1,0,10994,47.999,26.962,12941.5
257385511,0.634769,2.223,94.9607,0.0363583,-0.0494277,0.881528,0.659723,2.77214,-0.0040727,0.303624,0.349807,-0.197965,2.8,1.1,0,10994,48.017,25.443,12217
257485828,0.634769,2.223,94.9786,0.0279989,-0.0427786,0.881561,0.673687,2.81061,-0.00345505,0.330581,0.132727,-0.221794,2.8,1.1,0,10994,48.017,25.443,12217
257586110,0.634769,2.223,94.9884,0.0216087,-0.0395472,0.882239,0.674658,2.84001,-0.00446523,0.165787,0.0637849,-0.259065,2.8,1.1,0,10994,48.017,25.443,12217
257686513,0.634769,2.223,94.9861,0.0185297,-0.0394376,0.881777,0.678496,2.86669,-0.0407253,0.198246,0.071012,-0.281123,4.9,0.6,0,10994,48.017,25.443,12217
257786871,0.634769,2.223,94.9843,0.00679215,-0.0616771,0.880145,0.666745,2.87746,-0.0365477,-0.0373288,0.100486,0.336716,4.9,0.6,0,10994,48.017,25.443,12217
257887219,0.634769,2.223,94.9816,-0.033268,-0.183723,0.885089,0.712681,2.91348,-0.0395271,0.917621,-0.303084,-0.360154,4.9,0.6,0,10994,48.017,25.443,12217
257987567,0.634769,2.223,94.975,-0.0644673,-0.28624,0.891067,0.873552,3.02891,-0.0842664,1.9845,-0.548219,0.53114,4.9,0.6,0,10994,48.017,25.443,12217
258088088,0.634769,2.223,94.9614,-0.0798455,-0.338773,0.894353,1.11115,3.19854,-0.11236,2.86703,-0.753502,1.07379,4.9,0.6,0,10994,48.017,25.443,12217
258188503,0.634769,2.223,94.9366,-0.0748225,-0.332216,0.891943,1.40507,3.40555,-0.105023,3.09879,-0.896806,1.45738,4.9,0.6,0,10994,48.017,25.443,12217
258288899,0.634769,2.223,94.9079,-0.0583339,-0.29709,0.887898,1.67014,3.59912,-0.0855542,2.86169,-0.735727,1.36037,4.9,0.6,0,10994,48.017,25.443,12217
258389991,0.634769,2.223,94.8822,-0.0402073,-0.251053,0.884614,1.87448,3.76594,-0.0617198,2.35919,-0.524802,0.578679,4.9,0.6,0,10994,48.076,26.932,12947.8
258494130,0.634769,2.223,94.8549,-0.0251436,-0.210705,0.883164,2.02291,3.88905,-0.0526981,1.74857,-0.314577,0.776838,4.9,0.6,0,10994,48.076,26.932,12947.8
258594485,0.63477,2.223,94.8651,-0.0156147,-0.175635,0.882496,2.16149,4.02648,-0.0326049,1.3821,-0.106852,0.493904,4.9,0.6,0,10994,48.076,26.932,12947.8
258694834,0.63477,2.223,94.8773,-0.0106101,-0.147505,0.882394,2.25001,4.11081,-0.00310233,1.03986,-0.120904,0.482413,4.9,0.6,0,10994,48.076,26.932,12947.8
258795228,0.63477,2.223,94.8882,-0.00672953,-0.127473,0.882882,2.31854,4.17347,0.0103815,0.874579,-0.1239,-0.477959,4.9,0.6,0,10994,48.076,26.932,12947.8
258895577,0.63477,2.223,94.902,-0.00521308,-0.111571,0.883571,2.35509,4.21625,0.00389835,0.499733,-0.0169575,-0.0173839,4.9,0.6,0,10994,48.076,26.932,12947.8
258995881,0.63477,2.223,94.9256,-0.00772049,-0.104338,0.883585,2.3952,4.25562,0.010219,0.468962,-0.10655,-0.126744,4.9,0.6,0,10994,48.076,26.932,12947.8
259096266,0.63477,2.223,94.9421,-0.00411882,-0.0986708,0.883385,2.43652,4.29513,0.00801945,0.535909,-0.0574136,-0.294688,4.9,0.6,0,10994,48.076,26.932,12947.8
259196614,0.63477,2.223,94.9482,-0.00142462,-0.0900841,0.882803,2.45515,4.33465,-0.00556234,0.376833,0.12578,-0.111142,4.9,0.6,0,10994,48.076,26.932,12947.8
259296955,0.63477,2.223,94.9525,-0.00572144,-0.0828962,0.882315,2.46801,4.36411,-0.00384009,0.283275,0.0535794,-0.0477866,4.9,0.6,0,10994,48.076,26.932,12947.8
259397323,0.63477,2.223,94.9601,-0.00941227,-0.0791127,0.881952,2.48292,4.38759,-0.012087,0.206145,-0.00108241,-0.133246,4.9,0.6,0,10994,47.979,25.684,12322.9
259497664,0.63477,2.223,94.9613,-0.0109832,-0.0761677,0.881826,2.49434,4.40396,-0.0112152,0.202533,0.0398584,-0.0700235,4.9,0.6,0,10994,47.979,25.684,12322.9
259597994,0.63477,2.223,94.9617,-0.0135324,-0.0731727,0.881637,2.50613,4.41491,-0.0191722,0.138706,-0.0508449,-0.281445,4.9,0.6,0,10994,47.979,25.684,12322.9
259698431,0.63477,2.223,94.9589,-0.0149347,-0.0698697,0.881777,2.51821,4.42479,-0.0293453,0.15431,-0.0425152,-0.0964529,1.7,-0.7,0,10994,47.979,25.684,12322.9
259798768,0.63477,2.223,94.9583,-0.0284051,-0.0408736,0.879573,2.53835,4.43645,-0.0259119,0.304299,-0.032917,0.433288,1.7,-0.7,0,10994,47.979,25.684,12322.9
259899115,0.63477,2.223,94.9597,-0.101337,0.139891,0.873529,2.54209,4.3902,0.0229365,-0.804488,-0.477362,0.324492,1.7,-0.7,0,10994,47.979,25.684,12322.9
260000893,0.63477,2.223,94.9523,-0.161227,0.275734,0.857281,2.45178,4.10251,-0.00856926,-2.77275,-1.18892,0.512254,1.7,-0.7,0,10994,47.979,25.684,12322.9
260103101,0.63477,2.223,94.9532,-0.199848,0.358615,0.840834,2.32716,3.71267,-0.0701084,-3.64946,-1.49199,1.28241,1.7,-0.7,0,10994,47.979,25.684,12322.9
260203446,0.63477,2.223,94.9668,-0.212273,0.384783,0.832737,2.184,3.23202,-0.093332,-4.21901,-1.81575,1.90476,1.7,-0.7,0,10994,47.979,25.684,12322.9
260303799,0.63477,2.223,94.9701,-0.198118,0.354905,0.836821,2.03578,2.75074,-0.0758028,-4.10124,-1.72381,1.84891,1.7,-0.7,0,10994,47.979,25.684,12322.9
260404155,0.63477,2.223,94.9535,-0.171723,0.291757,0.847732,1.91292,2.34352,-0.0793569,-3.49735,-1.46508,1.40289,1.7,-0.7,0,10994,47.993,26.158,12554
260504509,0.63477,2.223,94.9435,-0.136604,0.228847,0.858178,1.82139,2.00369,-0.0783853,-2.98899,-1.32665,0.807138,1.7,-0.7,0,10994,47.993,26.158,12554
260604881,0.63477,2.223,94.9497,-0.109265,0.164868,0.866717,1.73371,1.73875,-0.0550949,-2.41559,-0.937513,0.2882,1.7,-0.7,0,10994,47.993,26.158,12554
260705208,0.63477,2.223,94.9509,-0.0895539,0.104916,0.873448,1.6892,1.54855,-0.0604327,-1.61433,-0.816107,0.0467425,1.7,-0.7,0,10994,47.993,26.158,12554
260805501,0.63477,2.223,94.9418,-0.0771614,0.0651683,0.877121,1.66487,1.40676,-0.057794,-1.09665,-0.581277,0.147165,1.7,-0.7,0,10994,47.993,26.158,12554
260905868,0.63477,2.223,94.9319,-0.0692184,0.0356358,0.879721,1.66186,1.30092,-0.0523611,-0.739125,-0.587575,0.179572,1.7,-0.7,0,10994,47.993,26.158,12554
261006176,0.63477,2.223,94.925,-0.0598102,0.0163334,0.880928,1.67361,1.22787,-0.0451448,-0.430266,-0.447624,0.157174,1.7,-0.7,0,10994,47.993,26.158,12554
261106490,0.63477,2.223,94.9141,-0.0518938,0.00548306,0.881229,1.69221,1.16853,-0.0473607,-0.302789,-0.434416,-0.0119052,1.7,-0.7,0,10994,47.993,26.158,12554
261206858,0.63477,2.223,94.9013,-0.0450035,-0.00260623,0.881318,1.70937,1.134,-0.043008,-0.115269,-0.229014,0.186273,1.7,-0.7,0,10994,47.993,26.158,12554
261307208,0.63477,2.223,94.8945,-0.0409723,-0.00604697,0.881517,1.73279,1.11244,-0.0416744,-0.0697605,-0.234783,0.345089,1.7,-0.7,0,10994,47.993,26.158,12554
261407575,0.634771,2.223,94.8922,-0.0372937,-0.00672514,0.881633,1.75117,1.0971,-0.0301144,-0.0883279,-0.0706635,0.0602128,1.7,-0.7,0,10950,47.992,25.872,12416.5
261507933,0.634771,2.223,94.8901,-0.0333214,-0.00472877,0.88193,1.76322,1.09115,-0.0276818,-0.104149,-0.0786995,0.219049,1.7,-0.7,0,10950,47.992,25.872,12416.5
261608358,0.634771,2.223,94.8877,-0.0306156,-0.00335165,0.881944,1.78252,1.08744,-0.0211549,-0.043937,-0.11583,-0.0511116,1.7,-0.7,0,10950,47.992,25.872,12416.5
261708725,0.634771,2.223,94.8797,-0.0257475,-0.00188524,0.88205,1.79232,1.0887,-0.0298107,-0.084101,0.00689887,-0.0291332,-0.7,-5,0,10950,47.992,25.872,12416.5
261809112,0.634771,2.223,94.8765,-0.0408136,0.0141559,0.881847,1.8047,1.09354,-0.0171052,0.0185789,0.0400162,0.577833,-0.7,-5,0,10950,47.992,25.872,12416.5
261909476,0.634771,2.223,94.874,-0.156063,0.0898103,0.875311,1.8093,1.04745,-0.000690691,-0.618364,-0.584918,-0.0081653,-0.7,-5,0,10950,47.992,25.872,12416.5
262009802,0.634771,2.223,94.8713,-0.273336,0.151244,0.861477,1.87342,0.837176,-0.0191811,-1.25124,-1.66645,1.23348,-0.7,-5,0,10950,47.992,25.872,12416.5
262110132,0.634771,2.223,94.8756,-0.342157,0.185726,0.850326,1.98319,0.526687,-0.0318818,-1.76775,-2.6852,0.95875,-0.7,-5,0,10950,47.992,25.872,12416.5
262210442,0.634771,2.223,94.8852,-0.37629,0.20245,0.843977,2.11357,0.151937,-0.0367974,-2.01398,-3.1088,1.58189,-0.7,-5,0,10950,47.992,25.872,12416.5
262310791,0.634771,2.223,94.8866,-0.383626,0.206129,0.843064,2.26746,-0.237791,-0.0307393,-2.01863,-3.30659,1.58942,-0.7,-5,0,10950,47.992,25.872,12416.5
262411141,0.634771,2.223,94.8782,-0.377344,0.205772,0.843636,2.41247,-0.633525,-0.026273,-2.02528,-3.2048,1.77012,-0.7,-5,0,10905,48.013,25.554,12269.2
262511485,0.634771,2.223,94.8701,-0.369274,0.202762,0.844978,2.55377,-1.02706,-0.016494,-2.02158,-3.16409,1.57242,-0.7,-5,0,10905,48.013,25.554,12269.2
262611839,0.634771,2.223,94.8639,-0.361406,0.199038,0.84652,2.68199,-1.41082,-0.0397743,-1.96456,-2.89945,1.96302,-0.7,-5,0,10905,48.013,25.554,12269.2
262712217,0.634771,2.223,94.8581,-0.354498,0.19363,0.848022,2.8107,-1.7847,-0.0132483,-1.89152,-2.9652,1.50482,-0.7,-5,0,10905,48.013,25.554,12269.2
262812555,0.634771,2.223,94.8524,-0.345732,0.184311,0.851209,2.93733,-2.14042,-0.0177303,-1.82708,-2.82831,1.47219,-0.7,-5,0,10905,48.013,25.554,12269.2
262912947,0.634771,2.223,94.8493,-0.310204,0.160263,0.858649,3.06264,-2.47024,-0.00963428,-1.56682,-2.58142,1.48732,-0.7,-5,0,10905,48.013,25.554,12269.2
263013278,0.634771,2.223,94.8548,-0.267187,0.136775,0.865495,3.18288,-2.73504,0.00368012,-1.27101,-2.20852,1.03907,-0.7,-5,0,10905,48.013,25.554,12269.2
263113614,0.634771,2.223,94.8658,-0.227314,0.112587,0.871252,3.26796,-2.94407,0.0137156,-1.0513,-1.66029,0.817643,-0.7,-5,0,10905,48.013,25.554,12269.2
263213968,0.634771,2.223,94.8767,-0.195363,0.0919795,0.874733,3.3352,-3.11315,0.0279644,-0.82912,-1.36471,0.46543,-0.7,-5,0,10905,48.013,25.554,12269.2
263314313,0.634771,2.223,94.8889,-0.169804,0.0790822,0.876996,3.39419,-3.23728,0.0263185,-0.638855,-0.995363,0.357925,-0.7,-5,0,10905,48.013,25.554,12269.2
263414616,0.634771,2.223,94.9031,-0.148333,0.0709373,0.878033,3.4508,-3.33321,0.0331652,-0.479798,-0.894093,-0.00942898,-0.7,-5,0,10905,48.013,25.554,12269.2
263514976,0.634771,2.223,94.9135,-0.13119,0.0639444,0.879271,3.48265,-3.4133,0.0201722,-0.472327,-0.678826,-0.227142,-0.7,-5,0,10905,47.96,25.88,12412
263615312,0.634771,2.223,94.924,-0.119968,0.0597898,0.879845,3.51427,-3.47373,0.0133412,-0.379143,-0.552303,-0.132817,-0.7,-5,0,10905,47.96,25.88,12412
263715742,0.634772,2.223,94.9303,-0.110575,0.0588744,0.880485,3.52963,-3.52523,-0.000385202,-0.383487,-0.410113,0.00999217,-3.63942,4.6639,0,10905,47.96,25.88,12412
263816117,0.634772,2.223,94.9323,-0.0823642,0.0483637,0.880836,3.53889,-3.55225,-0.0192445,-0.281002,-0.252191,0.572892,-3.62382,4.84196,0,10905,47.96,25.88,12412
263916457,0.634772,2.223,94.9367,0.103671,0.011345,0.883744,3.52578,-3.53895,0.0352192,-0.00974317,0.517526,0.404311,-3.60369,5.02213,0,10905,47.96,25.88,12412
264016751,0.634772,2.223,94.9485,0.275801,-0.0177317,0.878271,3.3648,-3.33504,0.0212612,0.441124,2.7253,0.0615942,-3.61801,5.16977,0,10905,47.96,25.88,12412
264118442,0.634772,2.223,94.9457,0.389734,-0.0303049,0.870656,3.09986,-3.01972,-0.0444001,0.594598,3.93335,1.09064,-3.65466,5.28464,0,10905,47.96,25.88,12412
264218796,0.634772,2.223,94.9369,0.445949,-0.0325341,0.866268,2.75896,-2.62191,-0.0645295,0.703373,4.61071,2.06763,-3.67399,5.40535,0,10905,47.96,25.88,12412
264319199,0.634772,2.223,94.9218,0.457977,-0.0252818,0.866457,2.37975,-2.21016,-0.103816,0.565102,4.92031,2.15967,-3.68057,5.5075,0,10905,47.96,25.88,12412
264419595,0.634772,2.223,94.8987,0.439822,-0.0193942,0.86654,1.99299,-1.79328,-0.114882,0.523216,4.77686,2.53828,-3.68374,5.59974,0,10905,47.96,25.88,12412
264519974,0.634772,2.223,94.8793,0.395362,-0.0104782,0.868529,1.60654,-1.38529,-0.0977243,0.51525,4.72068,2.48167,-3.68497,5.65469,0,10905,47.911,27.331,13094.6
264620362,0.634772,2.223,94.8691,0.333555,0.00167547,0.872421,1.27568,-1.04078,-0.0860498,0.271689,3.96509,1.95476,-3.67105,5.71082,0,10905,47.911,27.331,13094.6
264720667,0.634772,2.223,94.8657,0.269704,0.00942693,0.87505,0.980726,-0.753853,-0.0500816,0.212378,3.4462,1.39005,-3.66888,5.71907,0,10905,47.911,27.331,13094.6
264822191,0.634772,2.223,94.8667,0.207009,0.0241677,0.878424,0.743599,-0.523471,-0.0258684,0.113563,2.81808,0.728492,-3.65734,5.73281,0,10905,47.911,27.331,13094.6
264924072,0.634772,2.223,94.8741,0.221627,0.08873,0.886584,0.504685,-0.326239,0.001488,-0.271981,2.2154,0.710189,-3.60859,5.71317,0,10905,47.911,27.331,13094.6
265025631,0.634772,2.223,94.8895,0.267932,0.152291,0.898748,0.220934,-0.219727,-0.0012158,-1.10374,2.5428,0.948043,-3.5196,5.69366,0,10905,47.911,27.331,13094.6
265126339,0.634772,2.223,94.8985,0.308425,0.197265,0.910418,-0.137266,-0.122413,-0.0354576,-1.50435,2.99489,1.0094,-3.42741,5.65288,0,10905,47.911,27.331,13094.6
265227127,0.634772,2.223,94.8998,0.330652,0.220721,0.917247,-0.554232,-0.039349,-0.0337411,-1.77604,3.22765,1.71321,-3.36728,5.61532,0,10905,47.911,27.331,13094.6
265327484,0.634772,2.223,94.904,0.338873,0.229921,0.920754,-1.00011,0.0415847,-0.0275397,-1.97877,3.52494,1.59436,-3.32329,5.56764,0,10905,47.911,27.331,13094.6
265427809,0.634772,2.223,94.906,0.338887,0.232901,0.922209,-1.43346,0.112024,-0.0169344,-1.89121,3.32738,1.76978,-3.28989,5.51733,0,10905,47.911,27.331,13094.6
265528254,0.634772,2.223,94.9048,0.334679,0.233747,0.922758,-1.85625,0.176231,-0.0212569,-2.00887,3.34266,1.32948,-3.24693,5.4552,0,10905,47.909,28.39,13601.4
265628637,0.634772,2.223,94.8981,0.32821,0.231835,0.922615,-2.27699,0.221911,-0.0262762,-1.97241,3.16946,1.6945,-3.20701,5.38591,0,10905,47.909,28.39,13601.4
265729005,0.634772,2.223,94.8921,0.320019,0.226491,0.921512,-2.68491,0.268637,-0.0265914,-1.87196,3.14045,1.51031,-3.15634,5.3074,0,10905,47.909,28.39,13601.4
265831076,0.634772,2.223,94.8905,0.312646,0.220906,0.920424,-3.07289,0.319148,-0.0233818,-1.78973,3.02092,1.43849,-3.10474,5.21784,0,10905,47.909,28.39,13601.4
265936841,0.634772,2.223,94.8905,0.306216,0.215797,0.919411,-3.43431,0.354479,-0.0239365,-1.73317,2.82509,1.20078,-3.03492,5.12075,0,10905,47.909,28.39,13601.4
266037213,0.634772,2.223,94.8839,0.30131,0.210899,0.918646,-3.79624,0.374901,-0.0154767,-1.87653,2.61931,1.66347,-2.96473,5.01281,0,10905,47.909,28.39,13601.4
266137557,0.634771,2.223,94.8824,0.297385,0.205439,0.918067,-4.13272,0.408817,-0.0190293,-1.61525,2.69321,1.16626,-2.87837,4.90085,0,10905,47.909,28.39,13601.4
266237919,0.634771,2.223,94.8868,0.285453,0.196314,0.915247,-4.4476,0.453489,-0.0205291,-1.41835,2.61764,1.01904,-2.80617,4.77354,0,10905,47.909,28.39,13601.4
266338290,0.634771,2.223,94.8869,0.243747,0.169531,0.907437,-4.74689,0.484174,-0.0149051,-1.31809,2.36057,1.01398,-2.7537,4.64255,0,10905,47.909,28.39,13601.4
266438685,0.634771,2.223,94.8829,0.191646,0.136257,0.899278,-4.97425,0.510715,-0.00319019,-0.98583,1.81826,0.632097,-2.70191,4.4989,0,10905,47.909,28.39,13601.4
266539042,0.634771,2.223,94.8849,0.140543,0.101593,0.892323,-5.1312,0.528249,0.00462961,-0.673189,1.31126,0.25894,-2.63447,4.35467,0,10905,47.908,25.851,12384.7
266639401,0.634771,2.223,94.8924,0.0933886,0.0697626,0.887998,-5.22112,0.55134,0.017382,-0.28109,0.878385,0.0353074,-2.55153,4.20239,0,10905,47.908,25.851,12384.7
266739801,0.634771,2.223,94.897,0.0555261,0.0424548,0.88555,-5.2587,0.549316,0.0292041,-0.124591,0.358474,-0.20387,-2.45769,4.05688,0,10905,47.908,25.851,12384.7
266840242,0.634771,2.223,94.8966,0.0255064,0.0195967,0.884435,-5.24209,0.567732,0.00782245,0.335902,0.0446163,0.144905,-2.35643,3.90459,0,10905,47.908,25.851,12384.7
266940568,0.634771,2.223,94.8991,-0.000272876,0.0033774,0.883412,-5.17629,0.572264,0.0104555,0.446413,-0.225758,0.143781,-2.26148,3.76512,0,10905,47.908,25.851,12384.7
267042195,0.634771,2.223,94.9024,-0.0220764,-0.0118665,0.883906,-5.08305,0.584432,-0.000102583,0.721665,-0.450002,-0.383044,-2.16069,3.623,0,10905,47.908,25.851,12384.7
267149048,0.634771,2.223,94.9043,-0.0432654,-0.0249261,0.884306,-4.95519,0.59229,0.00312179,0.776988,-0.700022,0.42932,-2.06949,3.49336,0,10905,47.908,25.851,12384.7
267249416,0.634771,2.223,94.8986,-0.0581485,-0.03325,0.884507,-4.81184,0.586792,0.00158895,0.836489,-0.933752,0.0918026,-1.97677,3.35423,0,10905,47.908,25.851,12384.7
267349781,0.634771,2.223,94.896,-0.0668006,-0.0351298,0.884848,-4.6601,0.581537,-0.0202304,0.795322,-0.986549,0.0403856,-1.89942,3.23621,0,10905,47.908,25.851,12384.7
267450138,0.63477,2.223,94.8973,-0.0705923,-0.0322685,0.884137,-4.48301,0.577723,0.0173928,0.937272,-1.04565,1.50154,-1.82419,3.1124,0,10905,47.908,25.851,12384.7
267550492,0.63477,2.223,94.8986,-0.0687131,-0.0290071,0.884003,-4.33394,0.560507,-0.00895671,0.61809,-1.02216,-0.56457,-1.76207,3.00847,0,10905,47.792,29.128,13920.9
267650840,0.63477,2.223,94.8979,-0.0661858,-0.0277409,0.884416,-4.1979,0.537234,-0.0256372,0.583562,-0.951826,0.326217,-1.69304,2.89782,0,10905,47.792,29.128,13920.9
267751221,0.63477,2.223,94.9,-0.062005,-0.0234997,0.883835,-4.05361,0.525242,-0.0304081,0.62907,-0.916759,-0.0523106,-1.63932,2.80224,0,10905,47.792,29.128,13920.9
267851596,0.63477,2.223,94.9066,-0.0576723,-0.0212177,0.883052,-3.9338,0.513564,-0.0374078,0.524272,-0.737236,0.121485,-1.58009,2.69908,0,10905,47.792,29.128,13920.9
267951953,0.63477,2.223,94.9053,-0.0549548,-0.0217132,0.883351,-3.79853,0.498942,-0.05681,0.589091,-0.922535,0.0654512,-1.52742,2.61,0,10905,47.792,29.128,13920.9
268052366,0.63477,2.223,94.8953,-0.0537139,-0.0207629,0.883403,-3.65814,0.508687,-0.0603309,0.752456,-0.801252,0.414195,-1.47008,2.51419,0,10905,47.792,29.128,13920.9
268152734,0.63477,2.223,94.8885,-0.0545563,-0.0180062,0.883043,-3.53393,0.504406,-0.045571,0.592065,-0.798547,-0.0203846,-1.4219,2.42681,0,10905,47.792,29.128,13920.9
268253087,0.63477,2.223,94.8921,-0.0546055,-0.0150041,0.882733,-3.40526,0.487123,-0.0369569,0.565346,-0.952804,0.210078,-1.37005,2.33502,0,10905,47.792,29.128,13920.9
268353431,0.63477,2.223,94.8928,-0.0509186,-0.0109117,0.882681,-3.28293,0.474917,-0.0331883,0.494856,-0.837119,0.104895,-1.324,2.25069,0,10905,47.792,29.128,13920.9
268453771,0.63477,2.223,94.8931,-0.0480979,-0.0100696,0.881958,-3.17425,0.457792,-0.0288906,0.471697,-0.78405,0.228727,-1.27706,2.16368,0,10905,47.792,29.128,13920.9
268554138,0.63477,2.223,94.8982,-0.0436789,-0.00890987,0.881508,-3.07117,0.443481,-0.0101382,0.401367,-0.759996,-0.559003,-1.23261,2.08172,0,10905,47.785,29.41,14053.6
268654482,0.63477,2.223,94.9124,-0.0437327,-0.00896771,0.881403,-2.97141,0.4412,-0.025081,0.477947,-0.651917,0.0312252,-1.18562,1.99961,0,10905,47.785,29.41,14053.6
268754884,0.63477,2.223,94.9252,-0.0446245,-0.00710958,0.881082,-2.88281,0.440166,-0.00887026,0.46235,-0.601256,0.0491226,-1.14214,1.91958,0,10905,47.785,29.41,14053.6
268855172,0.63477,2.223,94.9332,-0.0414249,-0.00407027,0.882078,-2.78846,0.430033,-0.0139948,0.437275,-0.716722,-0.565287,-1.09604,1.84141,0,10905,47.785,29.41,14053.6
268955489,0.63477,2.223,94.9349,-0.0435758,-0.00486469,0.882724,-2.70488,0.425967,-0.0297353,0.452872,-0.649756,0.214598,-1.05238,1.76391,0,10905,47.785,29.41,14053.6
269055858,0.63477,2.223,94.9341,-0.0463535,-0.00507064,0.883142,-2.61843,0.413625,-0.0387522,0.424685,-0.73351,0.269328,-1.00945,1.68795,0,10905,47.785,29.41,14053.6
269156283,0.63477,2.223,94.9295,-0.0481327,-0.0050646,0.883371,-2.52986,0.404072,-0.0269346,0.380801,-0.745056,-0.043457,-0.968128,1.61206,0,10905,47.785,29.41,14053.6
269256595,0.63477,2.223,94.9233,-0.0486417,-0.00665245,0.883384,-2.43847,0.390085,-0.046897,0.432719,-0.82365,-0.086254,-0.928203,1.53899,0,10905,47.785,29.41,14053.6
269356946,0.63477,2.223,94.9178,-0.05296,-0.00717409,0.883387,-2.35327,0.384751,-0.0688881,0.422858,-0.736692,0.114546,-0.890389,1.46736,0,10905,47.785,29.41,14053.6
269457296,0.63477,2.223,94.9122,-0.0547557,-0.00677017,0.88348,-2.26288,0.376831,-0.0440188,0.468646,-0.723713,0.0573675,-0.853822,1.39943,0,10905,47.785,29.41,14053.6
269557635,0.63477,2.223,94.9088,-0.055536,-0.00194522,0.883168,-2.16917,0.367462,-0.0624353,0.424388,-0.852126,-0.431765,-0.819893,1.33183,0,10905,47.978,24.67,11836.2
269658457,0.634769,2.223,94.9094,-0.0568257,0.000388682,0.882709,-2.06175,0.347741,-0.022143,0.303445,-0.824625,0.567347,-0.787224,1.26756,0,10905,47.978,24.67,11836.2
269760364,0.634769,2.223,94.918,-0.056119,0.00172062,0.88302,-1.98141,0.326747,-0.0209713,0.229927,-0.671484,0.702066,-0.755978,1.20593,0,10905,47.978,24.67,11836.2
269861392,0.634769,2.223,94.9284,-0.0544565,0.00180671,0.883093,-1.90777,0.310962,-0.0312987,0.311482,-0.663361,-0.21209,-0.725581,1.14807,0,10905,47.978,24.67,11836.2
269961829,0.634769,2.223,94.939,-0.0540001,0.00308466,0.883196,-1.83117,0.299135,-0.0383227,0.285551,-0.609544,0.052173,-0.697029,1.09107,0,10905,47.978,24.67,11836.2
270063417,0.634769,2.223,94.9472,-0.0533708,0.00456482,0.883307,-1.75681,0.279962,-0.0295964,0.212578,-0.641691,-0.169221,-0.667456,1.03449,0,10905,47.978,24.67,11836.2
270163793,0.634769,2.223,94.9516,-0.0538866,0.00459268,0.883757,-1.69014,0.26427,-0.0381883,0.214509,-0.62148,-0.11071,-0.642254,0.985601,0,10905,47.978,24.67,11836.2
270264186,0.634769,2.223,94.9486,-0.0530165,0.00560711,0.883717,-1.61877,0.249101,-0.0393077,0.251592,-0.628624,0.0292981,-0.616198,0.936699,0,10905,47.978,24.67,11836.2
270364591,0.634769,2.223,94.9442,-0.0539978,0.00706427,0.883934,-1.55309,0.221364,-0.0463379,0.131879,-0.709515,0.035765,-0.592115,0.890668,0,10905,47.978,24.67,11836.2
270464984,0.634769,2.223,94.9448,-0.0511675,0.00581969,0.883724,-1.474,0.19932,-0.0449995,0.219583,-0.72742,0.0845093,-0.568322,0.846928,0,10905,47.978,24.67,11836.2
270565297,0.634769,2.223,94.9403,-0.0480481,0.00577914,0.883276,-1.40356,0.175647,-0.0413903,0.205636,-0.721183,0.141797,-0.546277,0.805934,0,10905,48.009,23.72,11387.7
270665671,0.634769,2.223,94.9387,-0.0448515,0.00422213,0.883187,-1.34501,0.162143,-0.0412345,0.217632,-0.512518,0.0343473,-0.523753,0.767425,0,10905,48.009,23.72,11387.7
270766046,0.634769,2.223,94.9379,-0.043036,0.00348869,0.882814,-1.29005,0.145432,-0.0359407,0.113111,-0.496698,0.281784,-0.50354,0.731004,0,10905,48.009,23.72,11387.7
270866397,0.634769,2.223,94.9333,-0.0398809,0.00116778,0.88262,-1.23776,0.128187,-0.0507727,0.185414,-0.482599,0.0808436,-0.483252,0.696294,0,10905,48.009,23.72,11387.7
270966719,0.634769,2.223,94.9286,-0.0389981,0.000396856,0.882129,-1.18215,0.117494,-0.0511725,0.21185,-0.483902,0.00878526,-0.464029,0.661442,0,10905,48.009,23.72,11387.7
271066901,0.634769,2.223,94.9244,-0.0373772,0.000642074,0.882081,-1.1376,0.101903,-0.0428551,0.0497165,-0.423244,0.218055,-0.444107,0.628492,0,10905,48.009,23.72,11387.7
271167245,0.634769,2.223,94.9206,-0.0356283,0.00128731,0.882037,-1.09428,0.0948027,-0.0486061,0.183405,-0.391535,0.0756971,-0.425868,0.596212,0,10905,48.009,23.72,11387.7
271267637,0.634769,2.223,94.9125,-0.0344768,0.00413226,0.881928,-1.04942,0.0962316,-0.0385695,0.218027,-0.353793,0.0308317,-0.407427,0.566237,0,10905,48.009,23.72,11387.7
271368032,0.634769,2.223,94.9114,-0.0339513,0.00552433,0.881618,-1.01481,0.0882506,-0.0355283,0.0658928,-0.350373,-0.0693889,-0.391461,0.53578,0,10905,48.009,23.72,11387.7
271468249,0.634769,2.223,94.9118,-0.0335438,0.00505762,0.881854,-0.967873,0.0853786,-0.0359752,0.20779,-0.393775,0.136345,-0.374947,0.507536,0,10905,48.009,23.72,11387.7
271568654,0.634769,2.223,94.9088,-0.0342089,0.00536216,0.88168,-0.938127,0.0822818,-0.0352721,0.0563325,-0.235595,0.342377,-0.360552,0.479417,0,10905,48.009,23.72,11387.7
271669065,0.634769,2.223,94.9034,-0.0361307,0.00323938,0.881635,-0.902861,0.0812343,-0.0290392,0.152484,-0.302524,0.108917,-0.345764,0.453412,0,10905,48,23.72,11385.6
271769457,0.634769,2.223,94.9003,-0.0368101,0.000903406,0.881318,-0.862209,0.0786476,-0.0202632,0.183404,-0.359881,-0.00549611,-0.333218,0.427262,0,10905,48,23.72,11385.6
271869788,0.634769,2.223,94.9026,-0.0371192,0.000952859,0.880997,-0.812728,0.0738777,-0.0191205,0.215935,-0.408601,-0.144948,-0.32014,0.403012,0,10905,48,23.72,11385.6
271970183,0.634769,2.223,94.9042,-0.0376978,0.00173376,0.881343,-0.760644,0.0746861,-0.0325515,0.223949,-0.382421,0.0905191,-0.30892,0.380217,0,10905,48,23.72,11385.6
272070539,0.634769,2.223,94.9037,-0.0368909,0.00434715,0.8814,-0.725992,0.0668774,-0.0285409,0.0579683,-0.334643,-0.0824619,-0.296824,0.358455,0,10905,48,23.72,11385.6
272170907,0.634769,2.223,94.9055,-0.0371962,0.00451686,0.881527,-0.683864,0.0591308,-0.0199645,0.129934,-0.362321,0.0651328,-0.287962,0.338893,0,10905,48,23.72,11385.6
272271271,0.634769,2.223,94.9065,-0.0349983,0.00573896,0.881391,-0.6432,0.0554601,-0.0211127,0.157506,-0.353586,-0.168606,-0.277974,0.319714,0,10905,48,23.72,11385.6
272371628,0.634769,2.223,94.909,-0.0338793,0.00715566,0.880758,-0.610286,0.0517921,-0.0160463,0.0802275,-0.277985,-0.130792,-0.26964,0.302305,0,10905,48,23.72,11385.6
272471928,0.634769,2.223,94.9055,-0.0327267,0.00866486,0.880432,-0.577022,0.0403834,-0.0215014,0.0310594,-0.309107,0.0173984,-0.260529,0.286577,0,10905,48,23.72,11385.6
272572392,0.634769,2.223,94.8976,-0.0315797,0.00808433,0.880172,-0.549934,0.0323683,-0.0295928,0.0989282,-0.21271,0.0631958,-0.253371,0.272338,0,10905,48,23.72,11385.6
272674429,0.634769,2.223,94.8919,-0.0302894,0.00863161,0.879769,-0.51791,0.0233852,-0.027421,0.067953,-0.244543,0.0429338,-0.245541,0.25892,0,10905,47.97,25.104,12042.4
272774822,0.634769,2.223,94.8864,-0.0298804,0.00865993,0.879369,-0.489497,0.0269582,-0.0255535,0.207476,-0.215567,0.0948208,-0.23146,0.234893,0,10905,47.97,25.104,12042.4
272875220,0.634769,2.223,94.8892,-0.0325323,0.00915325,0.879354,-0.462657,0.0263166,-0.00961938,0.158321,-0.293292,0.0285047,2.2,-1,0,10905,47.97,25.104,12042.4
272975584,0.634769,2.223,94.8923,-0.032462,0.00792737,0.879542,-0.437533,0.0194734,-0.0166562,0.0644758,-0.248212,0.120662,2.2,-1,0,10905,47.97,25.104,12042.4
273075959,0.634769,2.223,94.8968,-0.0341022,-0.00105245,0.879772,-0.416054,0.0154567,-0.00994176,0.14421,-0.245185,-0.185185,2.2,-1,0,10905,47.97,25.104,12042.4
273176374,0.634769,2.223,94.8979,-0.0387711,-0.00698465,0.880034,-0.379376,0.0219341,-0.0179033,0.268556,-0.231446,0.0686392,2.2,-1,0,10905,47.97,25.104,12042.4
273276728,0.634769,2.223,94.902,-0.0427856,-0.0106827,0.880244,-0.337075,0.0298916,-0.0212833,0.299409,-0.298108,0.0477776,2.2,-1,0,10905,47.97,25.104,12042.4
273377077,0.634769,2.223,94.9038,-0.0441527,-0.0111627,0.880083,-0.277416,0.0435261,-0.00403307,0.376107,-0.349067,0.0417123,2.2,-1,0,10905,47.97,25.104,12042.4
273477455,0.634769,2.223,94.9062,-0.0443349,-0.00895076,0.880076,-0.230774,0.0549956,-0.023114,0.284299,-0.256719,-0.243548,2.2,-1,0,10905,47.97,25.104,12042.4
273577818,0.634769,2.223,94.9094,-0.0450949,-0.00718963,0.879887,-0.184074,0.0639045,-0.0185452,0.31589,-0.268767,0.10612,2.2,-1,0,10905,47.97,25.104,12042.4
273678168,0.634769,2.223,94.9112,-0.0443997,-0.00404989,0.879808,-0.143071,0.065506,-0.018191,0.179541,-0.31703,0.245837,2.2,-1,0,10905,47.938,25.195,12078
273778538,0.634769,2.223,94.9183,-0.0419913,0.000196036,0.879518,-0.103484,0.0583146,-0.00437846,0.154878,-0.299863,-0.392146,2.2,-1,0,10905,47.938,25.195,12078
273878896,0.634769,2.223,94.9236,-0.0390129,0.00496972,0.879188,-0.0679896,0.0566751,-0.0174039,0.124516,-0.251873,-0.0207377,2.2,-1,0,10905,47.938,25.195,12078
273979185,0.634769,2.223,94.9297,-0.0383031,0.00494944,0.878219,-0.0380098,0.0514396,-0.0203642,0.0623497,-0.273185,-0.177816,2.2,-1,0,10905,47.938,25.195,12078
274079404,0.634769,2.223,94.9336,-0.0863163,-0.108772,0.880427,-0.00339139,0.0425029,0.00217422,0.303412,-0.365828,0.308461,2.2,-1,0,10905,47.938,25.195,12078
274179787,0.634769,2.223,94.9339,-0.141655,-0.235493,0.895062,0.194052,0.130426,-0.0208738,1.9921,-1.03805,0.0300757,2.2,-1,0,10905,47.938,25.195,12078
274280168,0.634769,2.223,94.9246,-0.179813,-0.316274,0.908813,0.49583,0.276174,-0.0573094,2.92227,-1.30198,1.11364,2.2,-1,0,10905,47.938,25.195,12078
274380408,0.634769,2.223,94.9015,-0.185423,-0.327628,0.911868,0.875708,0.447475,-0.0512981,3.30685,-1.61434,1.57434,2.2,-1,0,10905,47.938,25.195,12078
274480804,0.634769,2.223,94.8781,-0.166306,-0.292525,0.90659,1.23584,0.614542,-0.052166,3.11958,-1.4993,1.27397,2.2,-1,0,10905,47.938,25.195,12078
274581183,0.634769,2.223,94.8589,-0.138501,-0.240387,0.898837,1.53708,0.741382,-0.03222,2.57751,-1.34498,1.03709,2.2,-1,0,10905,47.938,25.195,12078
274681542,0.634769,2.223,94.844,-0.110973,-0.188134,0.892739,1.76751,0.84953,-0.0395831,2.05323,-1.01525,0.550529,2.2,-1,0,10905,47.938,25.195,12078
274781935,0.634769,2.223,94.8377,-0.0895996,-0.140254,0.888122,1.94653,0.927861,-0.0302475,1.44777,-0.768731,0.701548,2.2,-1,0,10905,47.938,25.195,12078
274882355,0.634769,2.223,94.8423,-0.0706316,-0.100915,0.885141,2.08619,0.98995,-0.00623338,1.12537,-0.596125,0.17537,-1.1,-3.6,0,10905,47.938,25.195,12078
274982670,0.634769,2.223,94.8575,-0.0705533,-0.0467598,0.88093,2.18207,1.03307,-0.000199433,0.778184,-0.338342,0.648334,-1.1,-3.6,0,10905,47.938,25.195,12078
275083018,0.634769,2.223,94.8835,-0.148693,0.120685,0.872725,2.23229,1.0152,0.0558914,-0.310404,-0.601466,0.190468,-1.1,-3.6,0,10905,47.938,25.195,12078
275183391,0.634769,2.223,94.9109,-0.227048,0.24488,0.852475,2.22559,0.779582,0.0165244,-2.16009,-1.53257,0.0404857,-1.1,-3.6,0,10905,47.938,25.195,12078
275283753,0.634769,2.223,94.9362,-0.283038,0.314455,0.832842,2.20987,0.41727,-0.0216799,-2.91488,-2.14022,1.1469,-1.1,-3.6,0,10861,47.921,25.411,12177.2
275384121,0.634769,2.223,94.9637,-0.310838,0.34419,0.820994,2.1856,-0.0232666,-0.0301234,-3.38645,-2.49691,1.59711,-1.1,-3.6,0,10861,47.921,25.411,12177.2
275484463,0.634769,2.223,94.9744,-0.319347,0.343356,0.817457,2.15836,-0.484534,-0.0317178,-3.33546,-2.45416,2.04586,-1.1,-3.6,0,10861,47.921,25.411,12177.2
275584793,0.634769,2.223,94.9641,-0.323055,0.325826,0.819456,2.13516,-0.940103,-0.0186263,-3.35598,-2.58527,1.62819,-1.1,-3.6,0,10861,47.921,25.411,12177.2
275685163,0.634769,2.223,94.9541,-0.319532,0.30093,0.825859,2.13492,-1.38186,-0.0318233,-3.12491,-2.59004,1.66836,-1.1,-3.6,0,10861,47.921,25.411,12177.2
275785485,0.634769,2.223,94.955,-0.286296,0.25576,0.839667,2.1446,-1.79045,-0.0350061,-2.67041,-2.32707,1.6845,-1.1,-3.6,0,10861,47.921,25.411,12177.2
275885776,0.634769,2.223,94.9416,-0.245835,0.205717,0.852997,2.1528,-2.13197,-0.0260212,-2.25706,-1.9977,1.12086,-1.1,-3.6,0,10861,47.921,25.411,12177.2
275986114,0.63477,2.223,94.9212,-0.205593,0.158701,0.863258,2.17645,-2.39808,-0.027218,-1.63331,-1.72956,0.611671,-1.1,-3.6,0,10861,47.921,25.411,12177.2
276086443,0.63477,2.223,94.9091,-0.170549,0.120872,0.870262,2.21587,-2.59101,-0.0251541,-1.0964,-1.4056,-0.0705528,-1.1,-3.6,0,10861,47.921,25.411,12177.2
276186809,0.63477,2.223,94.8984,-0.14249,0.0935318,0.874792,2.24132,-2.73574,-0.033532,-0.809276,-0.961952,0.260374,-1.1,-3.6,0,10861,47.921,25.411,12177.2
276287216,0.63477,2.223,94.882,-0.121012,0.0740965,0.87731,2.26281,-2.85204,-0.0390523,-0.640671,-0.779566,0.188112,-1.1,-3.6,0,10861,47.863,27.238,13036.9
276387601,0.63477,2.223,94.8622,-0.105829,0.0595604,0.879413,2.28536,-2.9313,-0.0391773,-0.377763,-0.536879,0.222185,-1.1,-3.6,0,10861,47.863,27.238,13036.9
276487932,0.63477,2.223,94.8526,-0.0928597,0.0492959,0.87993,2.30079,-3.0009,-0.0319059,-0.381663,-0.475584,0.0393043,-1.1,-3.6,0,10861,47.863,27.238,13036.9
276588318,0.63477,2.223,94.8514,-0.0828325,0.0430433,0.880664,2.31557,-3.05241,-0.00707167,-0.286409,-0.355547,0.232218,-1.1,-3.6,0,10861,47.863,27.238,13036.9
276688669,0.63477,2.223,94.8534,-0.0731754,0.0372852,0.881404,2.33595,-3.08082,-0.0119086,-0.0869194,-0.274642,-0.0466297,-1.1,-3.6,0,10861,47.863,27.238,13036.9
276789063,0.63477,2.223,94.8567,-0.0672959,0.036416,0.881977,2.35033,-3.10133,-0.00418551,-0.0984477,-0.204942,0.151937,-1.1,-3.6,0,10861,47.863,27.238,13036.9
276889470,0.63477,2.223,94.8614,-0.0654384,0.036587,0.882418,2.35977,-3.10607,0.000453774,-0.0146422,-0.083007,0.16349,0.6,-2.5,0,10861,47.863,27.238,13036.9
276989837,0.63477,2.223,94.8673,-0.0515546,0.0125034,0.885465,2.3604,-3.1098,0.0105341,-0.196488,-0.0271774,0.331502,0.6,-2.5,0,10861,47.863,27.238,13036.9
277090220,0.63477,2.223,94.8793,0.0301045,-0.128026,0.881372,2.38602,-3.06003,0.0561616,0.779048,0.305716,0.268111,0.6,-2.5,0,10861,47.863,27.238,13036.9
277190565,0.63477,2.223,94.8834,0.0855995,-0.213603,0.873156,2.42752,-2.82695,0.00610303,2.07793,1.18592,-0.190663,0.6,-2.5,0,10861,47.863,27.238,13036.9
277290924,0.63477,2.223,94.8733,0.106676,-0.243388,0.869662,2.48317,-2.50977,-0.0346881,2.63701,1.55512,0.656966,0.6,-2.5,0,10816,47.8,28.204,13481.5
277391232,0.63477,2.223,94.8541,0.0988038,-0.224155,0.872328,2.54002,-2.17099,-0.0372229,2.64101,1.5069,0.94772,0.6,-2.5,0,10816,47.8,28.204,13481.5
277491573,0.63477,2.223,94.8375,0.069126,-0.169954,0.877471,2.59821,-1.86097,-0.0413803,2.4133,1.32771,0.613152,0.6,-2.5,0,10816,47.8,28.204,13481.5
277591838,0.63477,2.223,94.8211,0.0382005,-0.120344,0.880488,2.63615,-1.63715,-0.0162769,1.68685,1.02803,0.143547,0.6,-2.5,0,10816,47.8,28.204,13481.5
277692103,0.63477,2.223,94.8105,0.0134685,-0.0823341,0.881767,2.66092,-1.46822,-0.0276919,1.2376,0.726573,0.212898,0.6,-2.5,0,10816,47.8,28.204,13481.5
277792396,0.63477,2.223,94.8045,-0.00598358,-0.0509863,0.882223,2.68605,-1.34329,-0.0221223,0.878968,0.43498,0.088014,0.6,-2.5,0,10816,47.8,28.204,13481.5
277892752,0.63477,2.223,94.8076,-0.0194955,-0.0281019,0.881911,2.70251,-1.26477,-0.00951315,0.470528,0.283113,0.160684,0.6,-2.5,0,10816,47.8,28.204,13481.5
277993114,0.63477,2.223,94.8145,-0.029951,-0.0135509,0.881326,2.71048,-1.19769,-0.00256241,0.359689,0.206934,0.0518293,0.6,-2.5,0,10816,47.8,28.204,13481.5
278093500,0.63477,2.223,94.8203,-0.0361131,-0.00238585,0.880776,2.71542,-1.15877,-0.0110961,0.15048,0.0791006,0.301026,0.6,-2.5,0,10816,47.8,28.204,13481.5
278193879,0.63477,2.223,94.8231,-0.0413568,0.00680523,0.880818,2.72992,-1.13387,0.0216275,0.128511,-0.0687926,0.182207,0.6,-2.5,0,10816,47.8,28.204,13481.5
278294250,0.63477,2.223,94.8266,-0.043276,0.0134158,0.880844,2.73337,-1.1162,0.0157196,0.0289452,0.00410538,0.0154835,0.6,-2.5,0,10816,47.839,26.353,12607
278394594,0.634771,2.223,94.8211,-0.045166,0.0185815,0.881076,2.73446,-1.11111,0.0229979,-0.0204191,-0.0585733,0.267117,0.6,-2.5,0,10816,47.839,26.353,12607
278494954,0.634771,2.223,94.8203,-0.0441651,0.0222079,0.881191,2.73376,-1.11223,0.0137063,-0.129753,-0.0228342,-0.0246924,0.6,-2.5,0,10816,47.839,26.353,12607
278595334,0.634771,2.223,94.8223,-0.0431129,0.0225669,0.880918,2.72243,-1.13052,0.00350455,-0.231688,-0.0398444,0.203473,0.6,-2.5,0,10816,47.839,26.353,12607
278695707,0.634771,2.223,94.8224,-0.0408873,0.0208561,0.881027,2.71973,-1.14009,0.0260741,-0.0764473,-0.012092,0.29481,0.6,-2.5,0,10816,47.839,26.353,12607
278796180,0.634771,2.223,94.8226,-0.0402666,0.0208237,0.881208,2.7161,-1.14475,0.036455,-0.0857682,0.00730824,0.147012,0.6,-2.5,0,10816,47.839,26.353,12607
278896562,0.634771,2.223,94.8284,-0.0411865,0.0193656,0.881804,2.70869,-1.14953,0.0264176,-0.0810909,-0.0419939,-0.137344,-3.7,4.9,0,10816,47.839,26.353,12607
278996925,0.634771,2.223,94.8323,-0.0238637,0.0290263,0.881637,2.70383,-1.15931,0.0288177,-0.0883814,-0.0661077,0.256959,-3.7,4.9,0,10816,47.839,26.353,12607
279097292,0.634771,2.223,94.8366,0.127151,0.109217,0.891427,2.64853,-1.17148,0.0688962,-0.57775,0.688414,0.173663,-3.7,4.9,0,10816,47.839,26.353,12607
279197652,0.634771,2.223,94.837,0.267331,0.171469,0.907246,2.38439,-1.12991,0.0169433,-1.4482,2.52111,0.0828229,-3.7,4.9,0,10816,47.839,26.353,12607
279297986,0.634771,2.223,94.8332,0.352836,0.207419,0.92005,1.9928,-1.05718,-0.0298618,-1.86203,3.37802,1.39523,-3.7,4.9,0,10816,47.857,25.867,12379.2
279398385,0.634771,2.223,94.8362,0.396103,0.223142,0.926132,1.51719,-0.955036,-0.0426473,-1.93328,3.84458,2.29945,-3.7,4.9,0,10816,47.857,25.867,12379.2
279498732,0.634771,2.223,94.8297,0.400815,0.225149,0.926824,1.00612,-0.833011,-0.0329751,-1.97711,4.12627,2.43149,-3.7,4.9,0,10816,47.857,25.867,12379.2
279599079,0.634771,2.223,94.8173,0.392839,0.224129,0.925729,0.51576,-0.732551,-0.0372302,-1.91641,3.81238,2.39009,-3.7,4.9,0,10816,47.857,25.867,12379.2
279699441,0.634771,2.223,94.8112,0.381177,0.226469,0.926384,0.0277069,-0.631609,-0.0160352,-1.94024,3.76442,2.35303,-3.7,4.9,0,10816,47.857,25.867,12379.2
279799797,0.634771,2.223,94.8103,0.367728,0.22805,0.926923,-0.455377,-0.547153,0.0113545,-2.14915,3.78981,2.00461,-3.7,4.9,0,10816,47.857,25.867,12379.2
279900190,0.634771,2.223,94.8118,0.354061,0.229002,0.927037,-0.892054,-0.47305,-4.84483e-05,-1.89841,3.34007,1.86328,-3.7,4.9,0,10816,47.857,25.867,12379.2
280000558,0.634771,2.223,94.8097,0.340164,0.22815,0.926102,-1.33157,-0.409447,0.0164249,-1.93308,3.26164,1.97468,-3.7,4.9,0,10816,47.857,25.867,12379.2
280100918,0.634771,2.223,94.8068,0.330979,0.222824,0.92332,-1.75146,-0.34733,0.0171283,-1.93224,3.30428,1.40017,-3.7,4.9,0,10816,47.857,25.867,12379.2
280201275,0.634771,2.223,94.813,0.321354,0.216388,0.919976,-2.14367,-0.282007,0.0266949,-1.7722,3.05249,1.45847,-3.7,4.9,0,10816,47.857,25.867,12379.2
280301599,0.634771,2.223,94.8228,0.312977,0.210771,0.917605,-2.52397,-0.230628,0.0341788,-1.78855,3.00384,1.07573,-3.7,4.9,0,10816,47.857,25.867,12379.2
280401975,0.634771,2.223,94.8323,0.306143,0.204947,0.915447,-2.87754,-0.181912,0.0319334,-1.60531,2.69861,1.42687,-3.7,4.9,0,10772,47.866,25.729,12315.4
280502290,0.634771,2.223,94.8358,0.301567,0.20152,0.913741,-3.20066,-0.121447,0.0155546,-1.41411,2.5353,1.21602,-3.7,4.9,0,10772,47.866,25.729,12315.4
280602620,0.634771,2.223,94.8398,0.297501,0.198868,0.913016,-3.52973,-0.0811656,0.0494611,-1.63872,2.55948,1.118,-3.7,4.9,0,10772,47.866,25.729,12315.4
280702986,0.634771,2.223,94.8462,0.296446,0.197851,0.912366,-3.84252,-0.0441502,0.0239647,-1.53626,2.50302,0.91891,-3.7,4.9,0,10772,47.866,25.729,12315.4
280803348,0.63477,2.223,94.8446,0.295278,0.196447,0.912301,-4.14652,0.00594932,0.0124297,-1.44441,2.55278,1.0385,-3.7,4.9,0,10772,47.866,25.729,12315.4
280903765,0.63477,2.223,94.8436,0.289501,0.193245,0.911003,-4.44637,0.0645858,0.0235778,-1.22129,2.52598,1.21589,-2.9,1.8,0,10772,47.866,25.729,12315.4
281004144,0.63477,2.223,94.8544,0.244695,0.176033,0.904838,-4.73271,0.106985,0.0175501,-1.29161,2.37918,1.08351,-2.9,1.8,0,10772,47.866,25.729,12315.4
281104501,0.63477,2.223,94.8627,0.0116436,0.109252,0.874381,-4.95231,0.121418,0.0996256,-0.953224,1.41704,1.18394,-2.9,1.8,0,10772,47.866,25.729,12315.4
281204855,0.63477,2.223,94.88,-0.22813,0.0455345,0.870629,-4.84955,0.00564365,0.18106,-0.129849,-1.6798,0.490327,-2.9,1.8,0,10772,47.866,25.729,12315.4
281305233,0.63477,2.223,94.8951,-0.327406,0.0224614,0.877038,-4.57999,-0.187056,0.0981172,0.192583,-3.43934,-0.353345,-2.9,1.8,0,10772,47.866,25.729,12315.4
281405628,0.63477,2.223,94.9073,-0.328004,0.0163852,0.880686,-4.27021,-0.402877,0.00480309,0.302771,-3.49401,0.772951,-2.9,1.8,0,10772,47.805,28.265,13512.1
281506031,0.63477,2.223,94.916,-0.279835,0.00710564,0.885309,-3.96549,-0.609179,-0.00411117,0.345299,-3.34362,0.557327,-2.9,1.8,0,10772,47.805,28.265,13512.1
281606417,0.63477,2.223,94.9244,-0.210358,-0.00450328,0.889036,-3.70578,-0.739392,-0.0307259,0.558154,-2.50074,0.241696,-2.9,1.8,0,10772,47.805,28.265,13512.1
281706745,0.63477,2.223,94.909,-0.156649,-0.00266956,0.888159,-3.50161,-0.830521,-0.0575721,0.498236,-1.88194,0.143636,-2.9,1.8,0,10772,47.805,28.265,13512.1
281807095,0.63477,2.223,94.8805,-0.121301,0.0127372,0.885881,-3.33457,-0.909,-0.0637147,0.336975,-1.44515,0.0829839,-2.9,1.8,0,10772,47.805,28.265,13512.1
281907426,0.63477,2.223,94.859,-0.0905576,0.0300908,0.883915,-3.19008,-0.991903,-0.0741107,0.118153,-1.24476,0.0200397,-2.9,1.8,0,10772,47.805,28.265,13512.1
282007729,0.63477,2.223,94.8471,-0.0589928,0.0429901,0.883126,-3.0792,-1.06492,-0.0655517,0.026538,-0.919153,0.491154,-2.9,1.8,0,10772,47.805,28.265,13512.1
282109469,0.63477,2.223,94.8422,-0.0290314,0.0562054,0.882871,-2.99833,-1.11672,-0.0388627,-0.00541557,-0.590281,0.241351,-2.9,1.8,0,10772,47.805,28.265,13512.1
282209848,0.63477,2.223,94.8383,-0.00268733,0.068851,0.883101,-2.94039,-1.15982,-0.0308779,-0.163431,-0.398006,-0.0628502,-2.9,1.8,0,10772,47.805,28.265,13512.1
282310236,0.63477,2.223,94.8441,0.0142848,0.0743974,0.883251,-2.91822,-1.19641,-0.0270923,-0.32477,-0.131259,-0.10004,-2.9,1.8,0,10772,47.805,28.265,13512.1
282410513,0.63477,2.223,94.8588,0.0257185,0.0752333,0.883164,-2.90737,-1.22213,-0.00544487,-0.280476,-0.0547481,0.231742,-2.9,1.8,0,10772,47.643,30.185,14381
282510801,0.63477,2.223,94.8726,0.0371967,0.0730668,0.883389,-2.90824,-1.24698,0.00627788,-0.341023,0.055258,-0.00249234,-2.9,1.8,0,10772,47.643,30.185,14381
282611156,0.634769,2.223,94.8806,0.0432158,0.0732664,0.883443,-2.91494,-1.26054,0.020988,-0.274664,0.166172,-0.0858933,-2.9,1.8,0,10772,47.643,30.185,14381
282711521,0.634769,2.223,94.8968,0.0474542,0.0745933,0.883859,-2.92403,-1.26507,0.0112521,-0.248693,0.165828,-0.186491,-2.9,1.8,0,10772,47.643,30.185,14381
282811860,0.634769,2.223,94.9113,0.0502894,0.0743813,0.884243,-2.94322,-1.26597,0.0120561,-0.269958,0.255768,-0.149126,-2.9,1.8,0,10772,47.643,30.185,14381
282912323,0.634769,2.223,94.921,0.0503627,0.0733695,0.884225,-2.96498,-1.25528,-0.00136681,-0.195952,0.27558,-0.26998,0.5,-1.7,0,10772,47.643,30.185,14381
283012686,0.634769,2.223,94.9215,0.0398361,0.0553309,0.881439,-2.99501,-1.25593,-0.0107958,-0.319513,0.301623,-0.11724,0.5,-1.7,0,10772,47.643,30.185,14381
283113050,0.634769,2.223,94.9203,-0.0963086,-0.0953102,0.882666,-3.00339,-1.25441,0.0360001,0.114173,-0.0926988,0.423346,0.5,-1.7,0,10772,47.643,30.185,14381
283213421,0.634769,2.223,94.9242,-0.225053,-0.206593,0.903796,-2.74151,-1.20238,0.0365798,2.02867,-1.79218,0.128323,0.5,-1.7,0,10772,47.643,30.185,14381
283313791,0.634769,2.223,94.9115,-0.311849,-0.27404,0.923803,-2.36411,-1.16414,-0.0410858,2.62298,-2.63012,0.883751,0.5,-1.7,0,10772,47.643,30.185,14381
283414152,0.634769,2.223,94.8891,-0.36112,-0.309663,0.93645,-1.86123,-1.11383,-0.091214,3.26399,-3.27748,1.8983,0.5,-1.7,0,10772,47.916,27.015,12944.5
283514501,0.634769,2.223,94.8642,-0.378047,-0.312681,0.93802,-1.19727,-1.05899,-0.11939,3.27135,-3.51726,2.48421,0.5,-1.7,0,10772,47.916,27.015,12944.5
283614840,0.634769,2.223,94.8388,-0.374063,-0.299044,0.933011,-0.623021,-1.01753,-0.124499,3.30423,-3.53014,2.56872,0.5,-1.7,0,10772,47.916,27.015,12944.5
