timestamp,lat,log,alt,roll,pitch,yaw,vel_x,vel_y,vel_z,acc_x,acc_y,acc_z,act_vx,act_vy,act_yr,capacity,vol,cur,power
4036530843,0.634768,2.223,97.6072,-0.0223676,0.0218792,0.899819,0.0167131,0.0840776,0.00945633,0.091311,0.132218,-0.108568,5,0.5,0,12521,49.712,25.225,12539.9
4036631328,0.634768,2.223,97.6052,-0.0265472,0.0229755,0.89985,0.0131135,0.090216,0.0118327,0.0431058,0.11427,0.14422,5,0.5,0,12521,49.712,25.225,12539.9
4036731655,0.634768,2.223,97.6151,-0.0299724,0.0187608,0.900556,0.0282248,0.0953758,0.0190636,0.155273,-0.0301073,0.213588,5,0.5,0,12521,49.712,25.225,12539.9
4036832082,0.634768,2.223,97.6234,-0.0158615,-0.125354,0.900766,0.0352985,0.0961322,0.0522727,0.319004,0.0210866,0.283991,5,0.5,0,12521,49.712,25.225,12539.9
4036932405,0.634768,2.223,97.6326,0.00663087,-0.301902,0.897221,0.161442,0.290641,0.0171798,2.56039,0.283428,-0.0595328,5,0.5,0,12521,49.68,25.306,12572
4037032904,0.634768,2.223,97.6389,0.020137,-0.387389,0.894638,0.354771,0.596196,-0.0416919,3.58367,0.451135,1.04042,5,0.5,0,12521,49.68,25.306,12572
4037133264,0.634768,2.223,97.632,0.0281165,-0.4352,0.892957,0.610602,0.992531,-0.0506538,4.30388,0.509257,1.8673,5,0.5,0,12521,49.68,25.306,12572
4037233633,0.634768,2.223,97.6153,0.0289544,-0.442658,0.89219,0.875883,1.41052,-0.0319338,4.19655,0.47205,2.46809,5,0.5,0,12521,49.68,25.306,12572
4037334012,0.634768,2.223,97.5965,0.0230214,-0.433187,0.892205,1.1335,1.82372,-0.0153599,4.27828,0.531552,2.02623,5,0.5,0,12521,49.68,25.306,12572
4037434373,0.634768,2.223,97.5773,0.0152357,-0.419572,0.892681,1.38988,2.23164,-0.00655941,4.16493,0.495434,2.15003,5,0.5,0,12521,49.68,25.306,12572
4037534751,0.634768,2.223,97.568,0.00965948,-0.407062,0.893231,1.64319,2.59745,0.00476153,3.90156,0.30848,1.97524,4.1,-4,0,12521,49.68,25.306,12572
4037635142,0.634768,2.223,97.5746,-0.0153601,-0.347191,0.898547,1.88275,2.94644,0.0251707,3.59006,0.257945,1.87031,4.1,-4,0,12521,49.68,25.306,12572
4037735511,0.634768,2.223,97.5893,-0.180961,-0.194337,0.920788,2.10644,3.21304,0.154272,2.85232,-0.327821,1.12835,4.1,-4,0,12521,49.68,25.306,12572
4037836246,0.634768,2.223,97.611,-0.323562,-0.0807447,0.913376,2.33443,3.17085,0.0902907,0.95311,-2.4033,-0.432327,4.1,-4,0,12521,49.68,25.306,12572
4037937607,0.634768,2.223,97.6273,-0.411506,-0.0250882,0.899301,2.59821,2.99304,0.0029626,0.064974,-3.06847,1.28786,4.1,-4,0,12521,49.704,25.619,12733.7
4038038899,0.634768,2.223,97.6593,-0.441989,-0.00362354,0.890222,2.92903,2.71515,0.0169618,-0.164446,-3.90482,1.76857,4.1,-4,0,12521,49.704,25.619,12733.7
4038139250,0.634768,2.223,97.6929,-0.447374,0.00209148,0.885144,3.23585,2.42716,0.00900918,-0.397774,-3.90362,1.70393,4.1,-4,0,12521,49.704,25.619,12733.7
4038240679,0.634768,2.223,97.7148,-0.444159,-0.00583314,0.886417,3.5286,2.14091,0.00118772,-0.342819,-3.76509,1.61748,4.1,-4,0,12521,49.704,25.619,12733.7
4038345966,0.634768,2.223,97.726,-0.433991,-0.0191635,0.890023,3.82989,1.86285,-0.0190514,-0.234457,-3.73342,1.66288,4.1,-4,0,12521,49.704,25.619,12733.7
4038446239,0.634768,2.223,97.7323,-0.417858,-0.0375087,0.895589,4.13055,1.59504,-0.0344706,-0.119019,-3.64569,1.51032,4.1,-4,0,12521,49.704,25.619,12733.7
4038546535,0.634768,2.223,97.7372,-0.372318,-0.0524656,0.89883,4.42612,1.35775,-0.0175013,0.0773105,-3.2795,1.55531,-2.6,4.9,0,12521,49.704,25.619,12733.7
4038646829,0.634768,2.223,97.7374,-0.308499,-0.0485413,0.89824,4.67505,1.16883,-0.0180791,0.220576,-2.78053,0.936657,-2.6,4.9,0,12521,49.704,25.619,12733.7
4038747182,0.634768,2.223,97.7393,-0.095449,0.0868629,0.893789,4.89772,1.00978,0.0929137,0.127909,-2.09863,1.38539,-2.6,4.9,0,12521,49.704,25.619,12733.7
4038847577,0.634769,2.223,97.7595,0.190987,0.219674,0.919515,4.75822,0.879544,0.164899,-1.81569,0.831402,0.762277,-2.6,4.9,0,12521,49.704,25.619,12733.7
4038947925,0.634769,2.223,97.7866,0.358509,0.274823,0.947046,4.25277,0.838719,0.0737947,-2.85969,3.62296,0.168864,-2.6,4.9,0,12521,49.649,25.297,12559.7
4039048316,0.634769,2.223,97.8098,0.417763,0.284422,0.955624,3.74761,0.851896,-0.0659581,-2.6273,3.85069,2.10101,-2.6,4.9,0,12521,49.649,25.297,12559.7
4039148640,0.634769,2.223,97.817,0.430394,0.286803,0.95863,3.17204,0.898573,-0.117181,-2.78954,4.53831,1.89807,-2.6,4.9,0,12521,49.649,25.297,12559.7
4039248935,0.634769,2.223,97.823,0.435569,0.293285,0.962198,2.64036,0.938962,-0.219249,-2.66007,4.21258,1.81793,-2.6,4.9,0,12521,49.649,25.297,12559.7
4039349644,0.634769,2.223,97.8178,0.426524,0.311972,0.970589,2.03105,0.967521,-0.24909,-2.89815,4.26557,2.99017,-2.6,4.9,0,12521,49.649,25.297,12559.7
4039450931,0.634769,2.223,97.777,0.393608,0.317057,0.970671,1.38831,0.974802,-0.23667,-3.08203,4.28657,3.12177,-2.6,4.9,0,12521,49.649,25.297,12559.7
4039551329,0.634769,2.223,97.7378,0.357007,0.306668,0.963739,0.769006,0.934495,-0.183313,-3.10459,3.58719,3.62803,4.3,-1.6,0,12521,49.649,25.297,12559.7
4039651667,0.634769,2.223,97.71,0.327458,0.272658,0.948422,0.188417,0.904708,-0.108616,-3.09737,3.58295,2.69202,4.3,-1.6,0,12521,49.649,25.297,12559.7
4039752066,0.634769,2.223,97.6908,0.15494,0.0779583,0.90864,-0.311463,0.911219,-0.0110897,-2.31095,3.12829,1.79776,4.3,-1.6,0,12521,49.649,25.297,12559.7
4039852413,0.634769,2.223,97.6738,-0.0852139,-0.181345,0.910567,-0.407224,0.987768,0.0111226,0.72379,0.626327,-0.0500833,4.3,-1.6,0,12521,49.649,25.297,12559.7
4039952785,0.634769,2.223,97.6686,-0.233574,-0.321905,0.939673,-0.145006,1.12104,-0.0450477,2.96142,-1.55624,0.560785,4.3,-1.6,0,12521,49.649,25.297,12559.7
4040053135,0.634769,2.223,97.6842,-0.310484,-0.389246,0.96087,0.261278,1.27526,-0.0752948,3.62748,-2.24739,2.08355,4.3,-1.6,0,12521,49.605,28.989,14380
4040153446,0.634769,2.223,97.6976,-0.341585,-0.406914,0.9665,0.768597,1.43852,-0.064727,3.98567,-2.68004,2.82861,4.3,-1.6,0,12521,49.605,28.989,14380
4040253738,0.634769,2.223,97.6842,-0.344163,-0.399684,0.963318,1.30346,1.58496,-0.0548971,3.94982,-2.87876,2.90821,4.3,-1.6,0,12521,49.605,28.989,14380
4040354206,0.634769,2.223,97.6696,-0.334428,-0.385572,0.95706,1.82753,1.71403,-0.0470058,3.59208,-2.74362,2.96768,4.3,-1.6,0,12521,49.605,28.989,14380
4040455264,0.634769,2.223,97.665,-0.305486,-0.36094,0.948708,2.33016,1.84396,-0.00945716,3.50896,-2.589,2.69961,4.3,-1.6,0,12521,49.605,28.989,14380
4040556470,0.634769,2.223,97.6647,-0.247759,-0.307995,0.933752,2.77331,1.95503,0.023357,3.06515,-2.35098,1.90037,3.3,1,0,12521,49.605,28.989,14380
4040656831,0.634769,2.223,97.6721,-0.154988,-0.248959,0.912776,3.12208,2.05449,0.0533076,2.41552,-1.795,1.56141,3.3,1,0,12521,49.605,28.989,14380
4040757192,0.634769,2.223,97.6888,0.100672,-0.124004,0.884026,3.3578,2.17189,0.122003,1.83514,-0.544379,0.689107,3.3,1,0,12521,49.605,28.989,14380
4040857541,0.634769,2.223,97.7139,0.286421,-0.000321686,0.89789,3.22998,2.35008,0.152451,0.186513,2.50343,0.10389,3.3,1,0,12521,49.605,28.989,14380
4040957906,0.634769,2.223,97.7466,0.345997,0.0533649,0.914462,2.95161,2.5153,0.0385336,-0.738639,3.75557,-0.59271,3.3,1,0,12521,49.605,28.989,14380
4041058264,0.634769,2.223,97.7712,0.331002,0.0628834,0.918889,2.62884,2.67442,-0.0571982,-0.946833,3.54665,0.998463,3.3,1,0,12521,49.741,25.55,12708.8
4041158609,0.634769,2.223,97.7832,0.270992,0.0595587,0.919063,2.30838,2.82334,-0.0629815,-0.92727,3.27126,1.12354,3.3,1,0,12521,49.741,25.55,12708.8
4041258970,0.634769,2.223,97.7913,0.200429,0.0471663,0.915758,2.07162,2.92634,-0.0777599,-0.771008,2.51323,0.173724,3.3,1,0,12521,49.741,25.55,12708.8
4041359340,0.634769,2.223,97.791,0.141922,0.036165,0.912222,1.88359,3.00241,-0.0866834,-0.643999,1.90677,0.202259,3.3,1,0,12521,49.741,25.55,12708.8
4041459688,0.634769,2.223,97.7697,0.0984224,0.0234301,0.9086,1.73011,3.05221,-0.077624,-0.609566,1.42534,0.329945,3.3,1,0,12521,49.741,25.55,12708.8
4041560116,0.634769,2.223,97.7568,0.0698879,0.00821528,0.904136,1.61154,3.08504,-0.0763049,-0.463478,1.12525,-0.0387746,0.8,0.4,0,12521,49.741,25.55,12708.8
4041660498,0.634769,2.223,97.7569,0.0486159,0.00787236,0.899673,1.51224,3.11315,-0.0692336,-0.343005,0.829972,0.159692,0.8,0.4,0,12521,49.741,25.55,12708.8
4041760908,0.634769,2.223,97.7512,-0.0117478,0.16713,0.896892,1.4304,3.14449,-0.012772,-0.505099,0.623782,0.54384,0.8,0.4,0,12521,49.741,25.55,12708.8
4041861279,0.634769,2.223,97.7437,-0.0633027,0.297538,0.889042,1.26796,2.94565,-0.0406712,-2.71166,-0.169634,-0.205857,0.8,0.4,0,12521,49.741,25.55,12708.8
4041961759,0.634769,2.223,97.7339,-0.0856176,0.350438,0.884331,1.0725,2.63054,-0.101039,-3.44708,-0.535076,1.10802,0.8,0.4,0,12521,49.741,25.55,12708.8
4042062093,0.634769,2.223,97.7193,-0.0869635,0.33969,0.884127,0.868228,2.27444,-0.107122,-3.64746,-0.587633,1.39766,0.8,0.4,0,12521,49.398,30.456,15044.7
4042162471,0.634769,2.223,97.7079,-0.0734879,0.288912,0.887394,0.677113,1.93972,-0.0940585,-3.38777,-0.575968,1.17723,0.8,0.4,0,12521,49.398,30.456,15044.7
4042262827,0.634769,2.223,97.705,-0.0566077,0.227027,0.891304,0.518223,1.66978,-0.0688158,-2.70985,-0.411033,1.03382,0.8,0.4,0,12521,49.398,30.456,15044.7
4042363191,0.634769,2.223,97.7047,-0.0479248,0.16608,0.894817,0.395182,1.46635,-0.0459863,-2.11639,-0.2536,0.405985,0.8,0.4,0,12521,49.398,30.456,15044.7
4042463569,0.634769,2.223,97.697,-0.0430242,0.118195,0.897403,0.309712,1.31967,-0.0434719,-1.45832,-0.151334,0.44625,0.8,0.4,0,12521,49.398,30.456,15044.7
4042563999,0.634769,2.223,97.6915,-0.0398773,0.0808306,0.898573,0.249898,1.21235,-0.0262237,-0.994438,-0.177952,0.0438051,-2.7,-4.2,0,12521,49.398,30.456,15044.7
4042664428,0.634769,2.223,97.6911,-0.0458878,0.0622861,0.898311,0.210464,1.13335,-0.0300777,-0.697594,-0.0896988,0.0587146,-2.7,-4.2,0,12521,49.398,30.456,15044.7
4042764787,0.634769,2.223,97.6905,-0.138498,0.118164,0.890411,0.187207,1.06246,0.00835271,-0.72681,-0.329307,-0.0549256,-2.7,-4.2,0,12521,49.398,30.456,15044.7
4042865165,0.634769,2.223,97.6863,-0.246586,0.176269,0.877785,0.199272,0.860118,-0.0387362,-1.4473,-1.40856,0.280687,-2.7,-4.2,0,12521,49.398,30.456,15044.7
4042965491,0.634769,2.223,97.6739,-0.317179,0.213449,0.867118,0.267515,0.539882,-0.0530871,-1.92721,-2.30291,1.26478,-2.7,-4.2,0,12521,49.398,30.456,15044.7
4043065861,0.634769,2.223,97.6679,-0.350107,0.231935,0.861598,0.368529,0.156188,-0.050299,-2.06687,-2.78321,1.80937,-2.7,-4.2,0,12521,49.686,25.655,12746.9
4043166206,0.634769,2.223,97.6603,-0.361261,0.238307,0.860117,0.479335,-0.249751,-0.0383833,-2.21916,-2.97477,1.65969,-2.7,-4.2,0,12521,49.686,25.655,12746.9
4043266521,0.634769,2.223,97.6615,-0.359951,0.239962,0.860429,0.585451,-0.656535,-0.0242717,-2.24436,-2.87497,1.86252,-2.7,-4.2,0,12521,49.686,25.655,12746.9
4043367776,0.634769,2.223,97.6703,-0.352176,0.238678,0.861473,0.696059,-1.05935,-0.0166181,-2.2523,-2.93649,1.62614,-2.7,-4.2,0,12521,49.686,25.655,12746.9
4043474089,0.634769,2.223,97.6731,-0.34242,0.236003,0.862713,0.81617,-1.52878,-0.00609655,-2.15884,-2.71137,1.65187,-2.7,-4.2,0,12521,49.686,25.655,12746.9
4043574480,0.634769,2.223,97.6791,-0.333231,0.231927,0.86376,0.90967,-1.8848,-0.00379967,-2.01253,-2.54617,1.36099,-4.7,3.3,0,12521,49.686,25.655,12746.9
4043675772,0.63477,2.223,97.6853,-0.299456,0.227876,0.865942,0.99351,-2.2358,0.00148908,-2.01007,-2.49704,1.46069,-4.7,3.3,0,12521,49.686,25.655,12746.9
4043776117,0.63477,2.223,97.695,-0.0702613,0.221738,0.902319,1.0462,-2.5997,0.164373,-2.0818,-1.87953,2.03318,-4.7,3.3,0,12521,49.686,25.655,12746.9
4043876492,0.63477,2.223,97.7124,0.233289,0.199836,0.931438,0.880098,-2.69539,0.18608,-1.69777,1.19489,0.692017,-4.7,3.3,0,12521,49.686,25.655,12746.9
4043976972,0.63477,2.223,97.7268,0.386549,0.186039,0.93161,0.51861,-2.5988,0.105226,-1.6438,3.99138,-0.243505,-4.7,3.3,0,12521,49.686,25.655,12746.9
4044077346,0.63477,2.223,97.7307,0.429951,0.185662,0.927322,0.134643,-2.44506,-0.106215,-1.34363,4.25707,0.90131,-4.7,3.3,0,12521,49.617,25.039,12423.6
4044177667,0.63477,2.223,97.7272,0.437489,0.188786,0.923436,-0.349232,-2.25324,-0.148675,-1.48434,4.63275,2.17747,-4.7,3.3,0,12521,49.617,25.039,12423.6
4044278019,0.63477,2.223,97.7205,0.417927,0.196277,0.921168,-0.85049,-2.06,-0.156533,-1.53564,4.52641,2.45966,-4.7,3.3,0,12521,49.617,25.039,12423.6
4044378361,0.63477,2.223,97.6907,0.390088,0.208135,0.922315,-1.33549,-1.87511,-0.127022,-1.41372,4.27162,2.49053,-4.7,3.3,0,12521,49.617,25.039,12423.6
4044478709,0.63477,2.223,97.6626,0.365502,0.22118,0.924774,-1.79933,-1.7183,-0.107892,-1.60051,3.97679,2.16998,-4.7,3.3,0,12521,49.617,25.039,12423.6
4044579168,0.634769,2.223,97.6628,0.341313,0.235408,0.927858,-2.25655,-1.60262,-0.0771968,-1.78782,3.65798,2.11695,-0.3,0.2,0,12521,49.617,25.039,12423.6
4044679525,0.634769,2.223,97.6579,0.3084,0.23684,0.925105,-2.69017,-1.50848,-0.0592906,-1.81504,3.38359,1.65845,-0.3,0.2,0,12521,49.617,25.039,12423.6
4044779842,0.634769,2.223,97.6518,0.175234,0.0706263,0.901377,-3.12526,-1.44717,0.0402994,-1.87169,3.03484,2.39303,-0.3,0.2,0,12521,49.617,25.039,12423.6
4044880288,0.634769,2.223,97.6608,-0.0576515,-0.198091,0.908346,-3.24769,-1.29548,0.0928844,0.768674,1.27938,0.243082,-0.3,0.2,0,12521,49.617,25.039,12423.6
4044980647,0.634769,2.223,97.6793,-0.224218,-0.344634,0.942666,-2.97203,-1.09642,0.0473993,3.52326,-1.48352,-0.297126,-0.3,0.2,0,12521,49.617,25.039,12423.6
4045081017,0.634769,2.223,97.687,-0.297232,-0.376511,0.958071,-2.55701,-0.898602,-0.0900861,4.07758,-2.32737,1.41658,-0.3,0.2,0,12521,49.617,25.039,12423.6
4045181373,0.634769,2.223,97.6788,-0.295925,-0.345187,0.951267,-2.04769,-0.707413,-0.0996079,4.10747,-2.63985,2.29484,-0.3,0.2,0,12521,49.575,26.663,13218.2
4045281730,0.634769,2.223,97.6655,-0.238533,-0.276677,0.933002,-1.58966,-0.544006,-0.0806108,3.5452,-2.19419,2.05872,-0.3,0.2,0,12521,49.575,26.663,13218.2
4045382043,0.634769,2.223,97.6287,-0.171547,-0.199524,0.917014,-1.23501,-0.411174,-0.0536803,2.77495,-1.75512,1.48336,-0.3,0.2,0,12521,49.575,26.663,13218.2
4045482339,0.634769,2.223,97.597,-0.119893,-0.134656,0.907416,-0.986152,-0.306536,-0.0179654,1.9862,-1.1184,0.953578,-0.3,0.2,0,12521,49.575,26.663,13218.2
4045582750,0.634769,2.223,97.6018,-0.0906233,-0.0847882,0.902311,-0.825393,-0.228947,-0.000460424,1.32269,-0.662821,0.436558,-1.8,4.1,0,12521,49.575,26.663,13218.2
4045683092,0.634769,2.223,97.6,-0.0625736,-0.0445728,0.898306,-0.70858,-0.172446,-0.0089988,0.86765,-0.403856,0.226403,-1.8,4.1,0,12521,49.575,26.663,13218.2
4045783455,0.634769,2.223,97.5983,0.110911,0.0430414,0.90073,-0.619134,-0.132228,0.0316337,0.540814,-0.101862,0.424772,-1.8,4.1,0,12521,49.575,26.663,13218.2
4045883862,0.634769,2.223,97.6053,0.269178,0.113739,0.915102,-0.778012,-0.034172,0.018699,-0.566374,2.24215,-0.0445309,-1.8,4.1,0,12521,49.575,26.663,13218.2
4045984203,0.634769,2.223,97.6106,0.35705,0.151554,0.926813,-1.0782,0.0958167,-0.0286265,-1.00224,3.20438,1.00832,-1.8,4.1,0,12521,49.575,26.663,13218.2
4046084503,0.634769,2.223,97.6191,0.392855,0.170137,0.932924,-1.47828,0.251959,-0.0388703,-1.27028,3.78384,2.00463,-1.8,4.1,0,12521,49.575,26.663,13218.2
4046184858,0.634769,2.223,97.6382,0.403543,0.17936,0.935965,-1.91588,0.397278,-0.0184137,-1.54817,3.95257,2.09741,-1.8,4.1,0,12521,49.56,28.039,13896.1
4046285233,0.634769,2.223,97.6575,0.401223,0.181544,0.936413,-2.35119,0.544513,-0.00710941,-1.47993,3.97756,1.97578,-1.8,4.1,0,12521,49.56,28.039,13896.1
4046385590,0.634769,2.223,97.664,0.367763,0.170927,0.931111,-2.79078,0.685863,0.0012052,-1.50537,4.0124,1.79747,-1.8,4.1,0,12521,49.56,28.039,13896.1
4046485945,0.634769,2.223,97.6744,0.311793,0.148466,0.922745,-3.17228,0.811559,0.0209301,-1.23609,3.4043,1.43137,-1.8,4.1,0,12521,49.56,28.039,13896.1
4046586324,0.634769,2.223,97.6859,0.250453,0.12548,0.915712,-3.48236,0.917607,0.0341425,-1.00065,2.84663,0.884202,-4.3,4.8,0,12521,49.56,28.039,13896.1
4046686690,0.634769,2.223,97.6923,0.192582,0.117062,0.911295,-3.72407,0.998919,0.0318303,-0.750633,2.12567,0.557734,-4.3,4.8,0,12521,49.56,28.039,13896.1
4046787115,0.634769,2.223,97.7018,0.150104,0.192408,0.911509,-3.91371,1.04894,0.0490302,-0.861192,1.55304,0.339305,-4.3,4.8,0,12521,49.56,28.039,13896.1
4046887495,0.634769,2.223,97.7086,0.13806,0.278996,0.920598,-4.12651,0.99894,0.00256384,-1.84589,1.23928,-0.0255721,-4.3,4.8,0,12521,49.56,28.039,13896.1
4046987870,0.634769,2.223,97.7026,0.133686,0.336327,0.928052,-4.43994,0.842758,-0.0338704,-2.50366,1.06807,1.10439,-4.3,4.8,0,12521,49.56,28.039,13896.1
4047088281,0.634768,2.223,97.7009,0.135872,0.366405,0.933996,-4.74474,0.662917,-0.0276315,-3.00809,1.06222,1.22414,-4.3,4.8,0,12521,49.56,28.039,13896.1
4047188644,0.634768,2.223,97.7068,0.141503,0.371591,0.936306,-5.04981,0.46296,-0.0376971,-3.19311,1.04861,1.22673,-4.3,4.8,0,12521,49.488,28.987,14345.1
4047288993,0.634768,2.223,97.7078,0.134113,0.340171,0.932698,-5.35501,0.281556,-0.0278502,-2.97204,1.11817,1.11222,-4.3,4.8,0,12521,49.488,28.987,14345.1
4047389351,0.634768,2.223,97.7027,0.119525,0.297908,0.926923,-5.60775,0.122493,-0.0180056,-2.56111,0.915167,0.819466,-4.3,4.8,0,12521,49.488,28.987,14345.1
4047489710,0.634768,2.223,97.7013,0.107522,0.256527,0.921704,-5.82097,-0.00685355,-0.0159478,-2.0873,0.822914,0.740207,-4.3,4.8,0,12521,49.488,28.987,14345.1
4047590128,0.634768,2.223,97.698,0.093556,0.218109,0.916759,-5.99895,-0.107075,-0.00829666,-1.70133,0.706183,0.41138,1.4,1.2,0,12521,49.488,28.987,14345.1
4047690516,0.634768,2.223,97.6968,0.0687378,0.162513,0.908889,-6.13509,-0.185281,-0.00871052,-1.35224,0.582684,0.48739,1.4,1.2,0,12521,49.488,28.987,14345.1
4047790884,0.634768,2.223,97.6945,-0.0585292,-0.0684427,0.902744,-6.21292,-0.235617,0.0580112,-0.424676,0.146769,1.07989,1.4,1.2,0,12521,49.488,28.987,14345.1
4047891243,0.634768,2.223,97.7072,-0.176683,-0.252459,0.923651,-5.94971,-0.140255,0.0927762,2.65066,-1.58317,-0.0578387,1.4,1.2,0,12521,49.488,28.987,14345.1
4047991602,0.634768,2.223,97.716,-0.240911,-0.352278,0.943261,-5.56294,-0.0136531,-0.0131298,3.4374,-2.13608,1.10915,1.4,1.2,0,12521,49.488,28.987,14345.1
4048091947,0.634768,2.223,97.7159,-0.275725,-0.408845,0.957107,-5.05571,0.169287,-0.0268264,4.27668,-2.50088,2.03508,1.4,1.2,0,12521,49.488,28.987,14345.1
4048192328,0.634767,2.223,97.7012,-0.297605,-0.437039,0.964069,-4.50975,0.369957,-0.0825266,4.46572,-2.59633,2.50857,1.4,1.2,0,12521,49.482,27.643,13678.3
4048292746,0.634767,2.223,97.6692,-0.308579,-0.438064,0.963136,-3.93062,0.580544,-0.121009,4.49461,-2.61413,2.94344,1.4,1.2,0,12521,49.482,27.643,13678.3
4048393193,0.634767,2.223,97.6196,-0.319274,-0.417708,0.955858,-3.33262,0.775452,-0.161725,4.42538,-2.81093,3.03081,1.4,1.2,0,12521,49.482,27.643,13678.3
4048493607,0.634767,2.223,97.571,-0.315195,-0.387681,0.94613,-2.70556,0.953241,-0.150871,4.25674,-2.89747,3.51477,1.4,1.2,0,12521,49.482,27.643,13678.3
4048594056,0.634767,2.223,97.5417,-0.27142,-0.357246,0.936688,-2.09108,1.11522,-0.108653,4.08286,-2.9103,3.38628,-4.2,-3.2,0,12521,49.482,27.643,13678.3
4048694418,0.634767,2.223,97.5335,-0.211236,-0.274345,0.917617,-1.55672,1.27608,-0.029873,3.67795,-2.35985,2.7592,-4.2,-3.2,0,12521,49.482,27.643,13678.3
4048794766,0.634767,2.223,97.5375,-0.22776,-0.0337925,0.902671,-1.135,1.38594,0.151332,2.63205,-2.04962,1.89486,-4.2,-3.2,0,12521,49.482,27.643,13678.3
4048895130,0.634767,2.223,97.5578,-0.265642,0.193324,0.876196,-0.956914,1.2212,0.102225,-0.93959,-2.51982,-0.62195,-4.2,-3.2,0,12521,49.482,27.643,13678.3
4048995471,0.634767,2.223,97.5807,-0.288467,0.305627,0.852098,-0.884492,0.893214,0.0010667,-2.37688,-2.43236,0.929948,-4.2,-3.2,0,12521,49.482,27.643,13678.3
4049095813,0.634767,2.223,97.611,-0.298827,0.355237,0.838263,-0.843966,0.458941,-0.00254185,-3.0136,-2.54507,2.09373,-4.2,-3.2,0,12521,49.482,27.643,13678.3
4049196185,0.634767,2.223,97.6599,-0.301977,0.366062,0.832834,-0.827767,-0.00533193,0.0127776,-3.3262,-2.62723,1.94359,-4.2,-3.2,0,12477,49.531,26.666,13207.9
4049296543,0.634767,2.223,97.7027,-0.300458,0.359297,0.832898,-0.821656,-0.463222,0.0272626,-3.26906,-2.55923,1.94545,-4.2,-3.2,0,12477,49.531,26.666,13207.9
4049396866,0.634767,2.223,97.7086,-0.298095,0.346914,0.835155,-0.8206,-0.890913,0.018603,-3.07019,-2.43684,1.27866,-4.2,-3.2,0,12477,49.531,26.666,13207.9
4049498783,0.634767,2.223,97.7135,-0.295215,0.336699,0.837191,-0.81652,-1.30916,0.0167518,-2.95302,-2.38634,1.64676,-4.2,-3.2,0,12477,49.531,26.666,13207.9
4049603460,0.634767,2.223,97.7361,-0.292685,0.32716,0.839208,-0.814281,-1.72063,0.0111023,-2.8307,-2.31845,1.49743,0.9,-3.3,0,12477,49.531,26.666,13207.9
4049703830,0.634767,2.223,97.7469,-0.289748,0.300409,0.845009,-0.807903,-2.11263,-0.00618361,-2.71545,-2.33185,1.2425,0.9,-3.3,0,12477,49.531,26.666,13207.9
4049804149,0.634767,2.223,97.7347,-0.276473,0.092765,0.868334,-0.803563,-2.51817,0.046869,-2.44986,-2.20793,1.91757,0.9,-3.3,0,12477,49.531,26.666,13207.9
4049904480,0.634767,2.223,97.7324,-0.24243,-0.167744,0.909737,-0.616364,-2.66021,0.0951188,0.657501,-2.10909,0.868923,0.9,-3.3,0,12477,49.531,26.666,13207.9
4050004796,0.634767,2.223,97.7341,-0.220368,-0.304298,0.93718,-0.323692,-2.55986,0.0226143,3.08196,-1.73777,-0.172624,0.9,-3.3,0,12477,49.531,26.666,13207.9
4050105150,0.634767,2.223,97.7193,-0.220092,-0.349723,0.949357,0.00460517,-2.37821,-0.0810623,3.54154,-1.41999,1.32534,0.9,-3.3,0,12477,49.531,26.666,13207.9
4050205461,0.634767,2.223,97.6839,-0.225004,-0.352088,0.954159,0.38812,-2.16322,-0.0904666,3.76088,-1.47605,1.91966,0.9,-3.3,0,12477,49.531,26.666,13207.9
4050305775,0.634767,2.223,97.6576,-0.236166,-0.335016,0.954436,0.76999,-1.95436,-0.0937362,3.64878,-1.51716,2.03826,0.9,-3.3,0,12477,49.597,28.102,13937.7
4050406151,0.634767,2.223,97.6344,-0.241916,-0.306163,0.95174,1.16991,-1.76225,-0.0864001,3.72533,-1.75366,1.99703,0.9,-3.3,0,12477,49.597,28.102,13937.7
4050506530,0.634767,2.223,97.6155,-0.225773,-0.255753,0.942205,1.54318,-1.59724,-0.0614164,3.09026,-1.64075,1.73548,0.9,-3.3,0,12477,49.597,28.102,13937.7
4050606936,0.634767,2.223,97.6077,-0.206831,-0.205861,0.932232,1.84478,-1.46225,-0.0442221,2.6349,-1.37139,1.15105,-0.8,-0.2,0,12477,49.597,28.102,13937.7
4050707260,0.634767,2.223,97.6054,-0.179983,-0.151991,0.92047,2.10074,-1.36048,-0.0312446,2.07928,-1.31355,1.00754,-0.8,-0.2,0,12477,49.597,28.102,13937.7
4050807518,0.634767,2.223,97.6176,0.0177072,-0.0111191,0.903793,2.32917,-1.28496,0.0381823,1.70521,-1.07613,1.0589,-0.8,-0.2,0,12477,49.597,28.102,13937.7
4050907870,0.634767,2.223,97.6421,0.248149,0.149031,0.921212,2.14096,-1.17525,0.0460893,-0.99867,2.51668,-0.457266,-0.8,-0.2,0,12477,49.597,28.102,13937.7
4051008197,0.634767,2.223,97.6606,0.353465,0.227252,0.940861,1.73707,-1.07573,-0.0591568,-1.84605,3.66414,1.27336,-0.8,-0.2,0,12477,49.597,28.102,13937.7
4051108558,0.634768,2.223,97.6741,0.364814,0.243393,0.942024,1.23461,-0.984406,-0.0556345,-2.30294,4.00241,2.06269,-0.8,-0.2,0,12477,49.597,28.102,13937.7
4051208889,0.634768,2.223,97.6979,0.310695,0.217242,0.928743,0.757918,-0.899563,-0.0356331,-2.15615,3.73175,1.70856,-0.8,-0.2,0,12477,49.597,28.102,13937.7
4051309208,0.634768,2.223,97.7192,0.224955,0.169053,0.91429,0.372245,-0.82805,-0.0213246,-1.68248,2.99911,1.08729,-0.8,-0.2,0,12389,49.481,27.404,13559.8
4051409571,0.634768,2.223,97.7182,0.145143,0.128351,0.906358,0.0981027,-0.762557,-5.32717e-06,-1.10732,2.21963,0.453293,-0.8,-0.2,0,12389,49.481,27.404,13559.8
4051509936,0.634768,2.223,97.722,0.0847869,0.103458,0.903912,-0.097043,-0.727217,-0.00144238,-0.858653,1.48967,0.128192,-0.8,-0.2,0,12389,49.481,27.404,13559.8
4051610370,0.634768,2.223,97.7365,0.0393842,0.0866647,0.902204,-0.240108,-0.716656,-0.00396854,-0.660478,0.885323,0.0559555,4.3,-4.3,0,12389,49.481,27.404,13559.8
4051710742,0.634767,2.223,97.7424,-0.00447727,0.0510503,0.898104,-0.34497,-0.71174,-0.018683,-0.565078,0.55416,0.122572,4.3,-4.3,0,12389,49.481,27.404,13559.8
4051811111,0.634767,2.223,97.7261,-0.115845,-0.11136,0.903509,-0.38498,-0.702788,0.00995182,0.322943,-0.0985535,0.201079,4.3,-4.3,0,12389,49.481,27.404,13559.8
4051911455,0.634767,2.223,97.7142,-0.212703,-0.228548,0.924535,-0.189978,-0.618486,-0.0335666,2.14958,-1.34758,-0.00236881,4.3,-4.3,0,12389,49.481,27.404,13559.8
4052011882,0.634767,2.223,97.7035,-0.273981,-0.292233,0.941572,0.129954,-0.514415,-0.0784909,2.85726,-2.0093,1.15105,4.3,-4.3,0,12389,49.481,27.404,13559.8
4052112282,0.634767,2.223,97.6823,-0.303151,-0.321016,0.950179,0.537392,-0.38791,-0.0824506,3.25432,-2.2168,2.08144,4.3,-4.3,0,12389,49.481,27.404,13559.8
4052212618,0.634767,2.223,97.6548,-0.311563,-0.328487,0.952364,0.979889,-0.256723,-0.0730458,3.34705,-2.34532,2.36272,4.3,-4.3,0,12389,49.481,27.404,13559.8
4052313143,0.634767,2.223,97.63,-0.31261,-0.325231,0.950694,1.43126,-0.139369,-0.06111,3.28939,-2.38119,2.36688,4.3,-4.3,0,12389,49.423,28.567,14118.7
4052413520,0.634767,2.223,97.6069,-0.310969,-0.318422,0.948201,1.87468,-0.0263828,-0.044213,3.15422,-2.33929,2.14048,4.3,-4.3,0,12389,49.423,28.567,14118.7
4052513885,0.634768,2.223,97.5848,-0.307841,-0.308492,0.94532,2.30747,0.0777848,-0.0456169,3.02245,-2.29169,2.10833,4.3,-4.3,0,12389,49.423,28.567,14118.7
4052614304,0.634768,2.223,97.5714,-0.303895,-0.296247,0.942124,2.74265,0.169306,-0.0342465,2.94826,-2.39181,1.97018,1.9,3.3,0,12389,49.423,28.567,14118.7
4052714632,0.634768,2.223,97.5646,-0.273707,-0.277222,0.933615,3.15549,0.256437,-0.022123,2.76667,-2.24942,1.88593,1.9,3.3,0,12389,49.423,28.567,14118.7
4052816418,0.634768,2.223,97.5617,-0.0484947,-0.184459,0.891987,3.54645,0.35671,0.0665289,2.56317,-1.73511,2.0986,1.9,3.3,0,12389,49.423,28.567,14118.7
4052916891,0.634768,2.223,97.5777,0.243296,-0.0289057,0.890432,3.56404,0.542096,0.144728,1.0872,1.50832,0.368134,1.9,3.3,0,12389,49.423,28.567,14118.7
4053022631,0.634768,2.223,97.6073,0.388737,0.0518658,0.912065,3.27391,0.749672,0.0792329,-0.405818,3.84106,0.456646,1.9,3.3,0,12389,49.423,28.567,14118.7
4053124195,0.634768,2.223,97.6334,0.453627,0.0931639,0.930452,2.86657,0.965433,0.0172911,-0.952812,4.5225,1.64652,1.9,3.3,0,12389,49.423,28.567,14118.7
4053224567,0.634768,2.223,97.6625,0.474186,0.112003,0.941475,2.37754,1.20286,0.0102006,-1.13588,4.77314,2.48776,1.9,3.3,0,12389,49.423,28.567,14118.7
4053324916,0.634768,2.223,97.6887,0.471357,0.114604,0.945487,1.87091,1.4243,-0.00968726,-1.32172,4.91742,2.06614,1.9,3.3,0,12389,49.453,28.147,13919.5
4053425276,0.634768,2.223,97.699,0.453699,0.102691,0.942154,1.37311,1.63501,-0.0285103,-1.27121,4.72309,2.17637,1.9,3.3,0,12389,49.453,28.147,13919.5
4053525667,0.634768,2.223,97.7039,0.442739,0.0779992,0.933429,0.891383,1.85378,-0.034266,-1.08114,4.58688,2.13008,1.9,3.3,0,12389,49.453,28.147,13919.5
4053628873,0.634768,2.223,97.7108,0.433445,0.0528372,0.925404,0.349965,2.13553,-0.0176534,-0.753296,4.42514,2.00249,-3.3,1,0,12389,49.453,28.147,13919.5
4053732103,0.634768,2.223,97.7123,0.39312,0.0516927,0.921447,-0.0764747,2.39553,-0.0141485,-0.348511,4.28976,2.13775,-3.3,1,0,12389,49.453,28.147,13919.5
4053832491,0.634768,2.223,97.7062,0.233782,0.209329,0.9274,-0.493325,2.59483,0.113771,-0.978857,3.64428,1.95665,-3.3,1,0,12389,49.453,28.147,13919.5
4053932852,0.634768,2.223,97.7091,0.0127266,0.357316,0.899987,-0.823982,2.45767,0.0761938,-3.23692,1.26081,0.0613414,-3.3,1,0,12389,49.453,28.147,13919.5
4054033218,0.634768,2.223,97.7095,-0.093691,0.413885,0.882524,-1.04065,2.14845,-0.0406679,-3.67517,-0.441856,0.871248,-3.3,1,0,12389,49.453,28.147,13919.5
4054133558,0.634768,2.223,97.7038,-0.152817,0.443457,0.872108,-1.24506,1.72834,-0.0812559,-4.04183,-1.10355,1.99284,-3.3,1,0,12389,49.453,28.147,13919.5
4054234696,0.634768,2.223,97.7161,-0.163597,0.446863,0.872523,-1.43666,1.25379,-0.0808653,-4.25465,-1.35259,2.18954,-3.3,1,0,12389,49.453,28.147,13919.5
4054335393,0.634768,2.223,97.7227,-0.152884,0.43993,0.876554,-1.61345,0.778421,-0.0719576,-4.07263,-1.39256,2.33553,-3.3,1,0,12389,49.41,28.44,14052.2
4054435770,0.634768,2.223,97.6971,-0.13597,0.430936,0.880422,-1.79188,0.323218,-0.0663697,-4.03332,-1.26015,2.08673,-3.3,1,0,12389,49.41,28.44,14052.2
4054536093,0.634768,2.223,97.6798,-0.121897,0.424581,0.882446,-1.98042,-0.114483,-0.0486943,-3.90831,-1.04885,2.18304,-3.3,1,0,12389,49.41,28.44,14052.2
4054636474,0.634768,2.223,97.6828,-0.103186,0.388012,0.886562,-2.17241,-0.534431,-0.0398541,-3.84072,-0.886811,1.90948,3.2,2.6,0,12389,49.41,28.44,14052.2
4054736795,0.634768,2.223,97.6786,-0.0731279,0.295325,0.89474,-2.33245,-0.896179,-0.0220622,-3.35398,-0.783575,1.32415,3.2,2.6,0,12389,49.41,28.44,14052.2
4054837088,0.634768,2.223,97.6623,-0.00966536,0.00384912,0.902057,-2.45596,-1.16684,0.0103553,-2.18144,-0.455445,0.732331,3.2,2.6,0,12389,49.41,28.44,14052.2
4054937460,0.634768,2.223,97.65,0.0562316,-0.260834,0.891002,-2.39314,-1.06778,0.021116,1.69634,0.396195,0.153664,3.2,2.6,0,12389,49.41,28.44,14052.2
4055037819,0.634768,2.223,97.6484,0.0924346,-0.389475,0.877043,-2.23281,-0.743998,-0.0459241,3.5652,0.930427,0.926675,3.2,2.6,0,12389,49.41,28.44,14052.2
4055138112,0.634768,2.223,97.6363,0.116714,-0.449031,0.866983,-2.02331,-0.319124,-0.077664,4.39042,1.08143,2.00251,3.2,2.6,0,12389,49.41,28.44,14052.2
4055238537,0.634768,2.223,97.6128,0.126732,-0.464159,0.862512,-1.78118,0.178018,-0.0719259,4.57411,1.20676,2.88997,3.2,2.6,0,12389,49.41,28.44,14052.2
4055338896,0.634768,2.223,97.5911,0.130165,-0.457754,0.860869,-1.53322,0.68654,-0.0541643,4.68542,1.22724,2.68606,3.2,2.6,0,12389,49.405,28.787,14222.2
4055439207,0.634767,2.223,97.57,0.131943,-0.444568,0.861102,-1.30841,1.1863,-0.051017,4.41972,1.30576,2.757,3.2,2.6,0,12389,49.405,28.787,14222.2
4055539577,0.634767,2.223,97.5515,0.135065,-0.432008,0.86159,-1.08213,1.67934,-0.0196615,4.30442,1.26787,2.6638,3.2,2.6,0,12389,49.405,28.787,14222.2
4055640061,0.634767,2.223,97.5463,0.135558,-0.415466,0.862892,-0.872089,2.15304,0.000674658,4.10537,1.24369,2.33081,4.4,-2,0,12389,49.405,28.787,14222.2
4055740425,0.634767,2.223,97.548,0.101144,-0.360834,0.874564,-0.678786,2.6181,0.0308464,3.91672,1.21162,2.12591,4.4,-2,0,12389,49.405,28.787,14222.2
4055840784,0.634767,2.223,97.5537,-0.104706,-0.278914,0.913143,-0.501147,3.00946,0.130994,3.26141,0.789035,1.88721,4.4,-2,0,12389,49.405,28.787,14222.2
4055941123,0.634767,2.223,97.5705,-0.279906,-0.219097,0.930607,-0.200153,3.12462,0.132114,2.36985,-1.87303,0.106597,4.4,-2,0,12389,49.405,28.787,14222.2
4056041483,0.634767,2.223,97.595,-0.371118,-0.190735,0.931209,0.159923,3.11084,0.0388896,1.79433,-2.98555,0.730389,4.4,-2,0,12389,49.405,28.787,14222.2
4056141841,0.634768,2.223,97.6133,-0.410705,-0.175143,0.929494,0.596343,3.02225,0.0207578,1.58007,-3.65146,1.73665,4.4,-2,0,12389,49.405,28.787,14222.2
4056242163,0.634768,2.223,97.6421,-0.420254,-0.170323,0.927963,1.0278,2.89849,0.0244117,1.33216,-3.71345,1.77294,4.4,-2,0,12389,49.405,28.787,14222.2
4056343686,0.634768,2.223,97.6647,-0.411163,-0.173918,0.927398,1.44672,2.77407,0.0062803,1.36117,-3.70375,1.54761,4.4,-2,0,12389,49.405,28.787,14222.2
4056449923,0.634768,2.223,97.6551,-0.394338,-0.180617,0.927523,1.95422,2.63222,0.00011044,1.50159,-3.65573,1.50976,4.4,-2,0,12389,49.405,28.787,14222.2
4056552526,0.634768,2.223,97.6472,-0.37824,-0.188778,0.928973,2.34845,2.52833,-0.00974796,1.37814,-3.33266,1.45788,4.4,-2,0,12389,49.405,28.787,14222.2
4056652925,0.634768,2.223,97.6533,-0.336238,-0.182367,0.92409,2.7406,2.43596,-0.00461707,1.49129,-3.15272,1.32915,-1.5,0.2,0,12389,49.405,28.787,14222.2
4056753253,0.634768,2.223,97.662,-0.27112,-0.138801,0.915515,3.08346,2.36937,0.0104974,1.46177,-2.55308,1.43798,-1.5,0.2,0,12389,49.405,28.787,14222.2
4056853563,0.634768,2.223,97.6483,-0.109337,0.111694,0.900451,3.32391,2.28518,0.105564,0.370343,-1.80771,0.937723,-1.5,0.2,0,12389,49.405,28.787,14222.2
4056953825,0.634768,2.223,97.6502,0.0338698,0.309021,0.907936,3.18809,2.07197,0.0928869,-2.8769,0.171453,-0.327943,-1.5,0.2,0,12389,49.376,28.371,14008.5
4057054171,0.634768,2.223,97.6686,0.110665,0.405,0.92217,2.87206,1.82914,-0.01681,-3.80009,1.13753,1.19217,-1.5,0.2,0,12389,49.376,28.371,14008.5
4057154604,0.634768,2.223,97.6755,0.152325,0.454951,0.931579,2.44588,1.54712,-0.0306894,-4.33262,1.62202,2.1519,-1.5,0.2,0,12389,49.376,28.371,14008.5
4057254949,0.634768,2.223,97.6901,0.168014,0.480538,0.934522,1.97191,1.25983,-0.0634303,-4.55092,1.84617,2.36614,-1.5,0.2,0,12389,49.376,28.371,14008.5
4057355305,0.634768,2.223,97.7022,0.15912,0.48676,0.932845,1.47591,0.964075,-0.0764009,-4.56537,1.849,2.73495,-1.5,0.2,0,12389,49.376,28.371,14008.5
4057455655,0.634768,2.223,97.699,0.13552,0.485283,0.928052,0.973952,0.65792,-0.0806261,-4.68871,1.79391,2.67014,-1.5,0.2,0,12389,49.376,28.371,14008.5
4057556035,0.634768,2.223,97.6995,0.112686,0.473379,0.923083,0.488793,0.334428,-0.05926,-4.58591,1.55084,2.81376,-1.5,0.2,0,12389,49.376,28.371,14008.5
4057656416,0.634768,2.223,97.7196,0.0792758,0.413803,0.913352,0.0317239,0.0132531,-0.0339717,-4.47141,1.3883,2.34588,3.5,0.8,0,12389,49.376,28.371,14008.5
4057756778,0.634768,2.223,97.733,0.0561085,0.289414,0.907304,-0.338327,-0.256185,-0.00501582,-3.68516,0.977044,1.90837,3.5,0.8,0,12389,49.376,28.371,14008.5
4057857952,0.634768,2.223,97.7299,0.0642874,-0.018044,0.901082,-0.607345,-0.425413,0.0362276,-2.20215,0.938217,0.24802,3.5,0.8,0,12389,49.376,28.371,14008.5
4057963149,0.634768,2.223,97.7347,0.057054,-0.279462,0.893159,-0.634326,-0.269225,-0.000243774,1.79192,1.03778,-0.256933,3.5,0.8,0,12389,49.261,30.959,15250.7
4058063510,0.634768,2.223,97.7391,0.0480952,-0.413564,0.89073,-0.500388,0.0499461,-0.0653761,3.5775,0.769563,1.00234,3.5,0.8,0,12389,49.261,30.959,15250.7
4058163865,0.634768,2.223,97.728,0.0405603,-0.472368,0.890105,-0.279956,0.466762,-0.0862573,4.489,0.685075,2.05172,3.5,0.8,0,12389,49.261,30.959,15250.7
4058264268,0.634768,2.223,97.6955,0.0337996,-0.485507,0.890357,-0.0163836,0.927554,-0.0923961,4.6406,0.630096,2.71937,3.5,0.8,0,12389,49.261,30.959,15250.7
4058364622,0.634768,2.223,97.6556,0.0262119,-0.476155,0.891516,0.262593,1.39325,-0.0863993,4.63254,0.576297,2.75784,3.5,0.8,0,12389,49.261,30.959,15250.7
4058464951,0.634768,2.223,97.6076,0.0168312,-0.429037,0.893672,0.536425,1.83456,-0.0777404,4.39308,0.4937,2.66205,3.5,0.8,0,12389,49.261,30.959,15250.7
4058565215,0.634768,2.223,97.57,0.00532269,-0.358945,0.896134,0.788759,2.21829,-0.0352325,3.73992,0.357919,2.28175,3.5,0.8,0,12389,49.261,30.959,15250.7
4058665471,0.634768,2.223,97.5565,-0.00336364,-0.286411,0.897494,0.993754,2.51539,0.00682014,2.89866,0.242577,1.57567,-2.4,0.4,0,12389,49.261,30.959,15250.7
4058765748,0.634768,2.223,97.5531,-0.00913165,-0.209735,0.897695,1.14717,2.72823,0.0222559,2.12374,0.104128,0.959681,-2.4,0.4,0,12389,49.261,30.959,15250.7
4058866030,0.634768,2.223,97.5586,-0.0253332,0.0477373,0.898452,1.28204,2.89923,0.0951263,1.52197,-0.0282444,0.90129,-2.4,0.4,0,12389,49.261,30.959,15250.7
4058966354,0.634768,2.223,97.5802,-0.0410327,0.273418,0.894589,1.19615,2.77364,0.108416,-2.26937,-0.146544,-0.410807,-2.4,0.4,0,12389,49.297,30.605,15087.3
4059066657,0.634768,2.223,97.6148,-0.0461753,0.394551,0.89189,1.01644,2.50378,0.0255472,-3.49972,-0.229462,0.961651,-2.4,0.4,0,12389,49.297,30.605,15087.3
4059166993,0.634768,2.223,97.6925,-0.0485854,0.461905,0.890696,0.75809,2.1187,0.03686,-4.48939,-0.284804,1.86391,-2.4,0.4,0,12389,49.297,30.605,15087.3
4059267339,0.634768,2.223,97.728,-0.0465912,0.488861,0.891166,0.461975,1.69457,0.0269897,-4.88373,-0.251187,2.05882,-2.4,0.4,0,12389,49.297,30.605,15087.3
4059367693,0.634768,2.223,97.7319,-0.0422492,0.488698,0.891824,0.152425,1.26235,0.00343462,-4.89786,-0.169717,2.0907,-2.4,0.4,0,12389,49.297,30.605,15087.3
4059468047,0.634768,2.223,97.7322,-0.0393914,0.480888,0.892193,-0.154242,0.838148,-0.0156156,-4.70281,-0.159225,2.22904,-2.4,0.4,0,12389,49.297,30.605,15087.3
4059568396,0.634768,2.223,97.7384,-0.0394286,0.470713,0.892302,-0.455917,0.417761,-0.0385883,-4.60711,-0.162031,2.13196,-2.4,0.4,0,12389,49.297,30.605,15087.3
4059668793,0.634768,2.223,97.7362,-0.0412644,0.450806,0.893269,-0.759735,0.00862014,-0.0498277,-4.49914,-0.0837237,1.98117,-1,2.3,0,12389,49.297,30.605,15087.3
4059769156,0.634768,2.223,97.7196,-0.0296729,0.381782,0.897927,-1.04834,-0.387649,-0.0540671,-4.13818,-0.0826942,1.95374,-1,2.3,0,12389,49.297,30.605,15087.3
4059869509,0.634768,2.223,97.7057,0.102651,0.203638,0.925496,-1.31268,-0.720459,0.0328428,-3.37006,0.119157,1.8321,-1,2.3,0,12389,49.297,30.605,15087.3
4059969877,0.634768,2.223,97.698,0.241525,0.0336645,0.917239,-1.5272,-0.746071,0.0260445,-1.06452,1.95619,-0.613176,-1,2.3,0,12389,49.297,29.347,14467.2
4060070237,0.634768,2.223,97.6802,0.29609,-0.0520476,0.897765,-1.7809,-0.5139,-0.0770056,0.644337,2.94129,0.745352,-1,2.3,0,12389,49.297,29.347,14467.2
4060170584,0.634768,2.223,97.6587,0.294144,-0.0856904,0.887001,-1.99249,-0.234139,-0.0853799,1.00179,3.17547,1.3481,-1,2.3,0,12389,49.297,29.347,14467.2
4060270943,0.634768,2.223,97.6389,0.252756,-0.0832597,0.88615,-2.18602,0.0511411,-0.0637578,1.03672,2.98989,1.10681,-1,2.3,0,12389,49.297,29.347,14467.2
4060371317,0.634768,2.223,97.617,0.193444,-0.0641822,0.889718,-2.32255,0.279735,-0.0461709,0.924667,2.24055,0.983271,-1,2.3,0,12389,49.297,29.347,14467.2
4060471676,0.634768,2.223,97.6085,0.139163,-0.0424584,0.893551,-2.4216,0.449136,-0.026486,0.736354,1.67455,0.533634,-1,2.3,0,12389,49.297,29.347,14467.2
4060572096,0.634768,2.223,97.6203,0.100329,-0.0252732,0.896049,-2.48645,0.58153,-0.0124036,0.548034,1.18082,0.471121,-1,2.3,0,12389,49.297,29.347,14467.2
4060672487,0.634768,2.223,97.6308,0.0694729,-0.0103295,0.897752,-2.53191,0.674497,0.00176826,0.330328,0.819854,0.147036,-4.5,2.3,0,12389,49.297,29.347,14467.2
4060772816,0.634768,2.223,97.643,0.0463718,0.0190755,0.898081,-2.55997,0.74484,0.00798855,0.291809,0.624415,0.43736,-4.5,2.3,0,12389,49.297,29.347,14467.2
4060873187,0.634768,2.223,97.6622,0.016165,0.178912,0.898404,-2.6087,0.749624,0.049621,-0.796685,0.316071,-0.0908009,-4.5,2.3,0,12389,49.297,29.347,14467.2
4060973541,0.634768,2.223,97.6759,0.00208427,0.300287,0.899059,-2.74404,0.598695,0.010625,-2.34313,0.0937206,-0.086944,-4.5,2.3,0,12389,49.292,30.537,15052.3
4061073898,0.634768,2.223,97.6847,-0.00602864,0.373958,0.899585,-2.94173,0.349863,-0.0182264,-3.24386,-0.0702615,1.13749,-4.5,2.3,0,12389,49.292,30.537,15052.3
4061174208,0.634768,2.223,97.695,-0.00812206,0.414903,0.900493,-3.17263,0.0422345,-0.0146805,-3.77276,-0.0848105,1.46805,-4.5,2.3,0,12389,49.292,30.537,15052.3
4061274543,0.634767,2.223,97.7031,-0.0084275,0.426331,0.902014,-3.41638,-0.289884,-0.0106316,-3.85845,-0.103944,1.67802,-4.5,2.3,0,12389,49.292,30.537,15052.3
4061374951,0.634767,2.223,97.698,-0.00787982,0.413434,0.903585,-3.6611,-0.622713,-0.0091592,-3.82415,-0.124186,1.72539,-4.5,2.3,0,12389,49.292,30.537,15052.3
4061475282,0.634767,2.223,97.6888,-0.00306253,0.365074,0.904605,-3.89431,-0.936934,-0.0031736,-3.55429,-0.0825727,1.54897,-4.5,2.3,0,12389,49.292,30.537,15052.3
4061575537,0.634767,2.223,97.6918,0.00181049,0.313213,0.904949,-4.0919,-1.19763,-0.00211758,-3.08001,-0.0376455,0.978656,-4.5,2.3,0,12389,49.292,30.537,15052.3
4061675904,0.634767,2.223,97.6918,0.00549185,0.261838,0.904585,-4.24331,-1.40642,-0.00143747,-2.39246,-0.0492376,0.682411,-2.1,-3.8,0,12389,49.292,30.537,15052.3
4061776207,0.634767,2.223,97.6787,-0.00897401,0.197538,0.90026,-4.36162,-1.56835,-0.00390432,-1.93849,0.0224827,0.439835,-2.1,-3.8,0,12389,49.292,30.537,15052.3
4061876592,0.634767,2.223,97.6749,-0.159941,0.0353937,0.889979,-4.43207,-1.70177,0.0790566,-1.01425,-0.349718,0.822205,-2.1,-3.8,0,12389,49.292,30.537,15052.3
4061976950,0.634767,2.223,97.6827,-0.318113,-0.0760749,0.910587,-4.21961,-1.77631,0.0371713,0.890411,-2.44353,-0.571654,-2.1,-3.8,0,12389,49.287,28.686,14138.5
4062077313,0.634767,2.223,97.6746,-0.411541,-0.124121,0.929823,-3.86284,-1.87228,-0.0500942,1.46403,-3.219,1.31527,-2.1,-3.8,0,12389,49.287,28.686,14138.5
4062177696,0.634767,2.223,97.6569,-0.459299,-0.143868,0.941543,-3.38152,-2.00384,-0.074186,1.74285,-3.94574,2.27521,-2.1,-3.8,0,12389,49.287,28.686,14138.5
4062278036,0.634767,2.223,97.6359,-0.470496,-0.145365,0.945104,-2.84956,-2.13603,-0.0791558,1.93993,-4.21872,2.55149,-2.1,-3.8,0,12389,49.287,28.686,14138.5
4062379010,0.634767,2.223,97.6119,-0.459206,-0.134261,0.943613,-2.31131,-2.26452,-0.0690269,1.9708,-4.25826,2.48066,-2.1,-3.8,0,12389,49.287,28.686,14138.5
4062483919,0.634767,2.223,97.5918,-0.441058,-0.118901,0.938529,-1.79764,-2.39866,-0.0660487,1.74665,-3.94821,2.77333,-2.1,-3.8,0,12389,49.287,28.686,14138.5
4062584330,0.634767,2.223,97.594,-0.42199,-0.101137,0.931857,-1.30059,-2.52971,-0.0189997,1.69541,-3.881,2.39661,-2.1,-3.8,0,12389,49.287,28.686,14138.5
4062684722,0.634767,2.223,97.5979,-0.407186,-0.0752305,0.922012,-0.862471,-2.65748,0.00380747,1.39549,-3.57159,1.85344,2,4.4,0,12389,49.287,28.686,14138.5
4062785049,0.634767,2.223,97.598,-0.385562,-0.0508578,0.91148,-0.459051,-2.79227,0.0124347,1.11561,-3.39989,1.63179,2,4.4,0,12389,49.287,28.686,14138.5
4062885424,0.634767,2.223,97.6059,-0.188183,-0.0827573,0.891552,-0.0911421,-2.95497,0.0737462,0.706131,-3.11174,1.68009,2,4.4,0,12389,49.287,28.686,14138.5
4062985753,0.634767,2.223,97.6385,0.130868,-0.164212,0.874279,0.0687524,-2.90154,0.123166,1.31523,-0.252606,0.426108,2,4.4,0,12389,49.287,28.686,14138.5
4063086074,0.634767,2.223,97.6631,0.32702,-0.209275,0.857955,0.0210801,-2.56984,0.0650831,2.24247,3.06373,-0.27822,2,4.4,0,12389,49.292,29.201,14393.8
4063186456,0.634767,2.223,97.6687,0.418726,-0.227703,0.850158,-0.117397,-2.13477,-0.0482155,2.29161,3.88832,1.6747,2,4.4,0,12389,49.292,29.201,14393.8
4063287987,0.634767,2.223,97.6671,0.448756,-0.229813,0.849967,-0.372648,-1.48422,-0.0682245,2.47241,4.61526,2.56083,2,4.4,0,12389,49.292,29.201,14393.8
4063390221,0.634767,2.223,97.6646,0.442172,-0.223643,0.855052,-0.593558,-0.942511,-0.0763982,2.37295,4.57664,2.60613,2,4.4,0,12389,49.292,29.201,14393.8
4063490575,0.634767,2.223,97.6617,0.423911,-0.218856,0.858092,-0.815312,-0.412992,-0.0595859,2.26788,4.37004,2.76526,2,4.4,0,12389,49.292,29.201,14393.8
4063590914,0.634767,2.223,97.6558,0.404097,-0.217973,0.859957,-1.02781,0.0953397,-0.0432397,2.25913,4.20431,2.36396,2,4.4,0,12389,49.292,29.201,14393.8
4063691314,0.634767,2.223,97.6581,0.384236,-0.218945,0.861511,-1.23166,0.583551,-0.0330751,2.08355,3.90103,2.33203,-1,-0.6,0,12389,49.292,29.201,14393.8
4063791687,0.634767,2.223,97.672,0.34896,-0.207153,0.867219,-1.41621,1.05659,-0.0168186,2.25157,3.77978,1.93243,-1,-0.6,0,12389,49.292,29.201,14393.8
4063892089,0.634767,2.223,97.6853,0.136447,-0.08006,0.899861,-1.56959,1.47123,0.0303218,1.78845,3.01284,1.38927,-1,-0.6,0,12389,49.292,29.201,14393.8
4063992443,0.634767,2.223,97.7011,-0.173742,0.0889526,0.893566,-1.60343,1.52837,0.0780706,-0.113117,-0.0909339,-0.0429522,-1,-0.6,0,12389,49.292,29.201,14393.8
4064092802,0.634767,2.223,97.7186,-0.345422,0.169998,0.869604,-1.50825,1.29199,0.0138599,-1.41146,-2.69117,0.248982,-1,-0.6,0,12344,49.267,28.303,13944
4064193150,0.634767,2.223,97.7354,-0.426859,0.205417,0.853511,-1.35395,0.921784,-0.0198616,-1.92464,-3.53555,1.57423,-1,-0.6,0,12344,49.267,28.303,13944
4064293483,0.634767,2.223,97.7497,-0.424875,0.200344,0.854543,-1.16039,0.476569,-0.0390727,-2.09979,-3.97103,2.30597,-1,-0.6,0,12344,49.267,28.303,13944
4064393820,0.634767,2.223,97.7578,-0.370217,0.172074,0.865451,-0.973202,0.0562965,-0.018851,-1.87711,-3.81091,1.74875,-1,-0.6,0,12344,49.267,28.303,13944
4064494198,0.634767,2.223,97.7636,-0.3042,0.141303,0.875982,-0.812844,-0.276734,-0.0212056,-1.49925,-3.18127,1.07808,-1,-0.6,0,12344,49.267,28.303,13944
4064594537,0.634767,2.223,97.7567,-0.243869,0.113202,0.883763,-0.688123,-0.541604,-0.0221751,-1.1624,-2.51075,0.645289,-1,-0.6,0,12344,49.267,28.303,13944
4064694934,0.634767,2.223,97.7442,-0.191683,0.0885111,0.889569,-0.596296,-0.752105,-0.040066,-0.970838,-1.90936,0.251185,-3.9,4.9,0,12344,49.267,28.303,13944
4064795283,0.634767,2.223,97.7297,-0.129513,0.0803422,0.892797,-0.516705,-0.915252,-0.0391205,-0.588694,-1.43042,0.702899,-3.9,4.9,0,12344,49.267,28.303,13944
4064895664,0.634767,2.223,97.7139,0.0748137,0.144543,0.909321,-0.492241,-1.03898,0.029524,-0.860094,-0.441053,0.0618172,-3.9,4.9,0,12344,49.267,28.303,13944
4064996088,0.634767,2.223,97.6953,0.257701,0.188291,0.927282,-0.716601,-1.06349,-0.061186,-1.63558,2.08123,-0.321778,-3.9,4.9,0,12344,49.267,28.303,13944
4065096437,0.634767,2.223,97.6746,0.356102,0.209003,0.938513,-1.09709,-1.02109,-0.110554,-1.77257,3.17735,1.81015,-3.9,4.9,0,12299,49.198,30.229,14872.1
4065196776,0.634767,2.223,97.6663,0.400789,0.213577,0.941605,-1.57231,-0.942072,-0.10153,-1.98383,3.945,2.07877,-3.9,4.9,0,12299,49.198,30.229,14872.1
4065297109,0.634767,2.223,97.6579,0.404925,0.211138,0.939424,-2.06688,-0.831142,-0.0879499,-1.82244,3.9988,2.56615,-3.9,4.9,0,12299,49.198,30.229,14872.1
4065397476,0.634766,2.223,97.649,0.394387,0.208975,0.936813,-2.54978,-0.714478,-0.0693979,-1.74627,4.08244,2.15512,-3.9,4.9,0,12299,49.198,30.229,14872.1
4065497850,0.634766,2.223,97.6465,0.388031,0.211682,0.935963,-3.01733,-0.609309,-0.0495067,-1.76633,3.85618,2.22727,-3.9,4.9,0,12299,49.198,30.229,14872.1
4065598211,0.634766,2.223,97.6567,0.382577,0.215617,0.936749,-3.47986,-0.501101,-0.0194568,-1.73421,3.80515,2.09239,-3.9,4.9,0,12299,49.198,30.229,14872.1
4065698599,0.634766,2.223,97.6758,0.37291,0.217189,0.936443,-3.92929,-0.403853,-0.00311813,-1.8313,3.69246,1.77235,-2.3,-3.1,0,12299,49.198,30.229,14872.1
4065798966,0.634766,2.223,97.6953,0.335126,0.204803,0.927434,-4.36831,-0.317661,-0.000160217,-1.84504,3.52866,1.6007,-2.3,-3.1,0,12299,49.198,30.229,14872.1
4065899329,0.634766,2.223,97.7152,0.101339,0.121878,0.887655,-4.7598,-0.239476,0.0562418,-1.50716,2.85581,1.23302,-2.3,-3.1,0,12299,49.198,30.229,14872.1
4065999695,0.634766,2.223,97.7412,-0.213993,0.0199009,0.886322,-4.82658,-0.260709,0.121042,-0.331665,-0.162616,0.462611,-2.3,-3.1,0,12299,49.198,30.229,14872.1
4066100090,0.634766,2.223,97.7626,-0.39586,-0.0290296,0.904083,-4.57004,-0.402024,0.0720092,0.560952,-3.53401,-0.590595,-2.3,-3.1,0,12299,49.281,30.076,14821.8
4066200457,0.634766,2.223,97.7599,-0.477734,-0.050862,0.916764,-4.19794,-0.594087,-0.0481212,0.791169,-4.16305,1.44131,-2.3,-3.1,0,12299,49.281,30.076,14821.8
4066300828,0.634766,2.223,97.7514,-0.503213,-0.0582012,0.92339,-3.72262,-0.839026,-0.0660719,0.909139,-4.66749,2.48464,-2.3,-3.1,0,12299,49.281,30.076,14821.8
4066401190,0.634766,2.223,97.7443,-0.500659,-0.0565787,0.924856,-3.23191,-1.07699,-0.0817867,1.03608,-4.73959,2.40148,-2.3,-3.1,0,12299,49.281,30.076,14821.8
4066501518,0.634766,2.223,97.7281,-0.495047,-0.0492809,0.922462,-2.75091,-1.31278,-0.0921839,0.944479,-4.5235,2.58761,-2.3,-3.1,0,12299,49.281,30.076,14821.8
4066601892,0.634766,2.223,97.698,-0.481955,-0.0367006,0.916491,-2.26557,-1.5537,-0.0869719,0.926789,-4.42922,2.71905,-2.3,-3.1,0,12299,49.281,30.076,14821.8
4066702230,0.634766,2.223,97.6697,-0.467493,-0.0224488,0.910952,-1.79869,-1.79842,-0.0861233,0.777896,-4.33113,2.38903,-3.8,-3,0,12299,49.281,30.076,14821.8
4066802505,0.634766,2.223,97.6528,-0.445332,0.00145824,0.904737,-1.3571,-2.05193,-0.0653868,0.584738,-4.07026,2.52985,-3.8,-3,0,12299,49.281,30.076,14821.8
4066902717,0.634766,2.223,97.6391,-0.393962,0.0940616,0.891301,-0.954113,-2.31558,-0.0299043,0.113217,-3.84885,2.14411,-3.8,-3,0,12299,49.281,30.076,14821.8
4067002991,0.634766,2.223,97.6267,-0.356356,0.173244,0.875835,-0.690139,-2.62054,-0.0310684,-0.850948,-3.3179,1.38878,-3.8,-3,0,12299,49.281,30.076,14821.8
4067105052,0.634766,2.223,97.6198,-0.328256,0.226979,0.863886,-0.510086,-2.96215,-0.0344028,-1.51474,-2.86731,1.56082,-3.8,-3,0,12299,49.262,28.079,13832.3
4067211046,0.634766,2.223,97.6214,-0.291528,0.241916,0.861705,-0.384009,-3.3906,-0.0159763,-2.07079,-2.49696,1.44131,-3.8,-3,0,12299,49.262,28.079,13832.3
4067312653,0.634766,2.223,97.6244,-0.247913,0.223612,0.866748,-0.313834,-3.71019,-0.00826669,-1.87032,-2.03532,1.31303,-3.8,-3,0,12299,49.262,28.079,13832.3
4067413077,0.634766,2.223,97.6194,-0.208145,0.199465,0.872827,-0.260129,-3.97911,0.00630976,-1.63696,-1.6707,1.00653,-3.8,-3,0,12299,49.262,28.079,13832.3
4067513477,0.634766,2.223,97.6218,-0.171315,0.174686,0.878607,-0.225902,-4.18783,0.0119652,-1.41514,-1.2383,0.493202,-3.8,-3,0,12299,49.262,28.079,13832.3
4067613891,0.634766,2.223,97.6331,-0.143693,0.151039,0.883967,-0.211773,-4.34799,0.0150562,-1.14382,-0.892159,0.340771,-3.8,-3,0,12299,49.262,28.079,13832.3
4067714321,0.634766,2.223,97.6379,-0.126892,0.130197,0.888183,-0.211615,-4.47855,0.013151,-0.923487,-0.665658,0.334827,4.4,3.2,0,12299,49.262,28.079,13832.3
4067814688,0.634766,2.223,97.6442,-0.0978027,0.0871036,0.895094,-0.205077,-4.58392,0.0278494,-0.766251,-0.620965,0.381918,4.4,3.2,0,12299,49.262,28.079,13832.3
4067915033,0.634766,2.223,97.654,0.0639655,-0.116372,0.894931,-0.203849,-4.62357,0.101879,0.0579268,0.0628462,0.790836,4.4,3.2,0,12299,49.262,28.079,13832.3
4068015389,0.634766,2.223,97.674,0.210413,-0.267317,0.871523,-0.200203,-4.30606,0.113078,2.75922,2.227,-0.0258181,4.4,3.2,0,12299,49.262,28.079,13832.3
4068115782,0.634766,2.223,97.6845,0.289427,-0.345678,0.851547,-0.232656,-3.86464,-0.0183858,3.35402,2.98998,1.11558,4.4,3.2,0,12299,49.238,30.544,15039.3
4068216251,0.634766,2.223,97.6724,0.325717,-0.38613,0.840517,-0.251941,-3.28635,-0.0505204,3.97582,3.28807,2.60312,4.4,3.2,0,12299,49.238,30.544,15039.3
4068316562,0.634766,2.223,97.6488,0.337072,-0.396124,0.838967,-0.270231,-2.66635,-0.089059,4.15268,3.43771,2.72944,4.4,3.2,0,12299,49.238,30.544,15039.3
4068416943,0.634766,2.223,97.6231,0.33351,-0.392788,0.842379,-0.29115,-2.03309,-0.123401,4.04693,3.38346,3.04042,4.4,3.2,0,12299,49.238,30.544,15039.3
4068517340,0.634766,2.223,97.5953,0.321748,-0.389057,0.843453,-0.309225,-1.37584,-0.0935513,4.12285,3.38813,3.55235,4.4,3.2,0,12299,49.238,30.544,15039.3
4068617681,0.634766,2.223,97.5712,0.301228,-0.379598,0.846487,-0.315236,-0.733556,-0.0646814,4.03754,3.22872,3.29102,4.4,3.2,0,12299,49.238,30.544,15039.3
4068718084,0.634766,2.223,97.5544,0.278267,-0.36614,0.851196,-0.314368,-0.129588,-0.0273678,3.85326,3.02429,2.88955,0.2,-4,0,12299,49.238,30.544,15039.3
4068818440,0.634766,2.223,97.5463,0.225575,-0.341496,0.862283,-0.304241,0.430802,-0.00992946,3.64012,2.85588,2.50962,0.2,-4,0,12299,49.238,30.544,15039.3
4068918809,0.634766,2.223,97.5525,0.00885906,-0.223036,0.909592,-0.25718,0.948195,0.106148,3.53626,2.1776,1.88719,0.2,-4,0,12299,49.238,30.544,15039.3
4069019164,0.634766,2.223,97.5794,-0.254266,-0.04294,0.910238,-0.114289,1.10736,0.1061,1.53854,-0.810296,-0.295184,0.2,-4,0,12299,49.238,30.544,15039.3
4069119524,0.634766,2.223,97.604,-0.396644,0.0493912,0.886254,0.106402,0.95383,0.0285655,-0.125769,-2.99156,0.500235,0.2,-4,0,12299,49.238,30.544,15039.3
4069219937,0.634766,2.223,97.6192,-0.461931,0.0893884,0.870831,0.380214,0.664953,0.00585484,-0.720818,-3.8414,1.6274,0.2,-4,0,12255,49.231,28.319,13941.7
4069320324,0.634766,2.223,97.6384,-0.480167,0.100358,0.865267,0.683696,0.302426,0.00195838,-0.952469,-4.26196,2.23524,0.2,-4,0,12255,49.231,28.319,13941.7
4069420660,0.634766,2.223,97.6637,-0.475605,0.0975879,0.865504,0.99031,-0.0701888,0.0128842,-0.970698,-4.20402,2.13962,0.2,-4,0,12255,49.231,28.319,13941.7
4069521017,0.634766,2.223,97.6847,-0.466322,0.0877228,0.868184,1.28709,-0.426358,0.0161804,-0.898536,-4.1465,1.87635,0.2,-4,0,12255,49.231,28.319,13941.7
4069621372,0.634766,2.223,97.6791,-0.455651,0.0750127,0.872368,1.57658,-0.772316,0.00599732,-0.780952,-4.03472,1.62024,0.2,-4,0,12255,49.231,28.319,13941.7
4069721762,0.634766,2.223,97.6739,-0.441785,0.0603124,0.87791,1.87058,-1.10402,-0.00322146,-0.646334,-3.81729,1.77002,-0.9,0,0,12255,49.231,28.319,13941.7
4069822112,0.634766,2.223,97.6754,-0.390046,0.051565,0.882155,2.16186,-1.41097,0.00908979,-0.437727,-3.51502,1.66738,-0.9,0,0,12255,49.231,28.319,13941.7
4069922461,0.634766,2.223,97.6763,-0.16441,0.104419,0.895943,2.42874,-1.68143,0.111048,-0.333514,-2.92694,1.65875,-0.9,0,0,12255,49.231,28.319,13941.7
4070022839,0.634766,2.223,97.6762,0.167254,0.153509,0.919826,2.3919,-1.80953,0.133053,-1.10269,0.274002,0.146534,-0.9,0,0,12255,49.231,28.319,13941.7
4070123244,0.634766,2.223,97.6752,0.368947,0.168064,0.934347,2.06406,-1.75762,0.0740763,-1.5682,3.44895,0.157739,-0.9,0,0,12255,49.231,28.319,13941.7
4070223605,0.634766,2.223,97.688,0.434167,0.164866,0.935427,1.62079,-1.61304,-0.0446851,-1.42375,4.43773,1.71889,-0.9,0,0,12255,49.27,28.69,14135.6
4070323905,0.634766,2.223,97.6951,0.411417,0.145397,0.927256,1.12537,-1.43963,-0.0594205,-1.3962,4.70142,2.11751,-0.9,0,0,12255,49.27,28.69,14135.6
4070424317,0.634766,2.223,97.6926,0.343378,0.116348,0.915531,0.684854,-1.27895,-0.0808196,-1.26665,4.22126,1.48576,-0.9,0,0,12255,49.27,28.69,14135.6
4070524682,0.634766,2.223,97.685,0.258396,0.0913143,0.908174,0.323416,-1.13427,-0.0845802,-0.930558,3.52706,1.22767,-0.9,0,0,12255,49.27,28.69,14135.6
4070625046,0.634766,2.223,97.6746,0.179055,0.0712371,0.903954,0.0389878,-1.02351,-0.0539616,-0.710782,2.68546,0.977714,-0.9,0,0,12255,49.27,28.69,14135.6
4070725414,0.634766,2.223,97.667,0.117765,0.056097,0.903023,-0.169797,-0.933743,-0.040256,-0.444362,2.03676,0.257987,3.7,-5,0,12255,49.27,28.69,14135.6
4070825735,0.634766,2.223,97.6548,0.0624997,0.0382528,0.900589,-0.321871,-0.872025,-0.0255238,-0.325544,1.34004,0.245733,3.7,-5,0,12255,49.27,28.69,14135.6
4070926101,0.634766,2.223,97.6536,-0.0877308,-0.0922678,0.903336,-0.426622,-0.829543,0.0211619,0.0113698,0.709268,0.440634,3.7,-5,0,12255,49.27,28.69,14135.6
4071026471,0.634766,2.223,97.6523,-0.229573,-0.194864,0.92321,-0.276439,-0.766567,-0.007054,1.70944,-1.18893,-0.346783,3.7,-5,0,12255,49.27,28.69,14135.6
4071126817,0.634766,2.223,97.6432,-0.314585,-0.253489,0.940743,0.0223168,-0.695457,-0.0600163,2.4157,-2.02618,1.14678,3.7,-5,0,12255,49.27,28.69,14135.6
4071227197,0.634766,2.223,97.6217,-0.35302,-0.279037,0.949595,0.439944,-0.644686,-0.0487736,2.65672,-2.64839,2.22535,3.7,-5,0,12255,49.145,30.253,14867.8
4071327554,0.634766,2.223,97.6043,-0.363145,-0.284967,0.951418,0.900251,-0.589882,-0.0422246,2.88483,-2.91552,2.19328,3.7,-5,0,12255,49.145,30.253,14867.8
4071427898,0.634766,2.223,97.578,-0.357947,-0.282902,0.950564,1.3612,-0.533318,-0.0361392,2.87656,-2.84358,2.37551,3.7,-5,0,12255,49.145,30.253,14867.8
4071528315,0.634766,2.223,97.5543,-0.35135,-0.277606,0.948314,1.82057,-0.485891,-0.014029,2.71772,-2.75147,2.35852,3.7,-5,0,12255,49.145,30.253,14867.8
4071628677,0.634766,2.223,97.5425,-0.345764,-0.270519,0.945584,2.25985,-0.424823,-0.00488158,2.83109,-2.64534,1.8369,3.7,-5,0,12255,49.145,30.253,14867.8
4071729121,0.634766,2.223,97.5335,-0.343062,-0.262836,0.942816,2.77048,-0.371355,-0.000845231,2.67458,-2.6429,1.70117,3.1,3.8,0,12255,49.145,30.253,14867.8
4071829486,0.634766,2.223,97.5268,-0.325187,-0.254852,0.937238,3.18577,-0.338459,-0.000638321,2.49636,-2.66851,1.48037,3.1,3.8,0,12255,49.145,30.253,14867.8
4071930627,0.634766,2.223,97.5233,-0.093745,-0.209753,0.893848,3.57569,-0.27765,0.0679039,2.4003,-1.86393,1.91109,3.1,3.8,0,12255,49.145,30.253,14867.8
4072032717,0.634766,2.223,97.5337,0.199744,-0.120091,0.878086,3.62733,-0.0709669,0.167733,1.48201,1.42367,0.799275,3.1,3.8,0,12255,49.145,30.253,14867.8
4072133075,0.634766,2.223,97.5559,0.374207,-0.060898,0.888872,3.40605,0.203544,0.104706,0.621778,3.7459,0.474534,3.1,3.8,0,12255,49.145,30.253,14867.8
4072233435,0.634766,2.223,97.5728,0.440944,-0.0359949,0.898818,3.06319,0.519817,0.0561604,0.166156,4.52225,1.88618,3.1,3.8,0,12255,49.219,27.423,13497.3
4072333793,0.634766,2.223,97.5867,0.47049,-0.0212674,0.908138,2.64777,0.862598,0.0402276,0.00384326,5.04809,2.27872,3.1,3.8,0,12255,49.219,27.423,13497.3
4072434153,0.634767,2.223,97.612,0.476244,-0.0213738,0.909996,2.21342,1.21101,0.0214975,0.0389589,5.08576,2.31893,3.1,3.8,0,12255,49.219,27.423,13497.3
4072534521,0.634767,2.223,97.633,0.467954,-0.0254894,0.9113,1.78747,1.54418,0.00860062,-0.0046336,5.01666,2.1444,3.1,3.8,0,12255,49.219,27.423,13497.3
4072635000,0.634767,2.223,97.6334,0.452686,-0.0308224,0.910882,1.36119,1.88491,-0.00959988,0.00522173,4.86153,2.32166,3.1,3.8,0,12255,49.219,27.423,13497.3
4072735387,0.634767,2.223,97.6338,0.432907,-0.045819,0.906739,0.94678,2.21328,-0.00814669,0.0930002,4.72721,2.07807,0.2,-1.9,0,12255,49.219,27.423,13497.3
4072835736,0.634767,2.223,97.6355,0.399623,-0.0468527,0.904344,0.56271,2.54154,-0.0152511,0.281899,4.46749,2.03084,0.2,-1.9,0,12255,49.219,27.423,13497.3
4072936724,0.634767,2.223,97.638,0.197176,0.0649874,0.910829,0.185704,2.86117,0.0802852,0.0164015,4.13584,1.6476,0.2,-1.9,0,12255,49.219,27.423,13497.3
4073037141,0.634767,2.223,97.6388,-0.125509,0.165644,0.889466,-0.032483,2.86206,0.0678807,-1.45252,1.02776,-0.458125,0.2,-1.9,0,12255,49.219,27.423,13497.3
4073137487,0.634767,2.223,97.637,-0.340084,0.203802,0.864149,-0.0309912,2.59435,-0.00816016,-2.04218,-2.04308,0.555056,0.2,-1.9,0,12255,49.219,27.423,13497.3
4073238757,0.634767,2.223,97.6373,-0.441558,0.211822,0.851783,0.090045,2.17061,-0.0444977,-2.29999,-3.49025,1.84258,0.2,-1.9,0,12255,49.263,28.142,13863.6
4073342111,0.634767,2.223,97.6341,-0.479317,0.203969,0.850326,0.279537,1.68424,-0.0525244,-2.30883,-4.10856,2.53107,0.2,-1.9,0,12255,49.263,28.142,13863.6
4073442425,0.634767,2.223,97.6268,-0.48252,0.196,0.851868,0.499389,1.17744,-0.0399242,-2.21076,-4.21556,2.8471,0.2,-1.9,0,12255,49.263,28.142,13863.6
4073542788,0.634767,2.223,97.6159,-0.458012,0.18125,0.857776,0.71702,0.687056,-0.034145,-2.07356,-4.18865,2.57987,0.2,-1.9,0,12255,49.263,28.142,13863.6
4073643135,0.634767,2.223,97.6047,-0.390913,0.150386,0.870181,0.920888,0.236176,-0.00535549,-1.84917,-3.73984,2.22539,0.2,-1.9,0,12255,49.263,28.142,13863.6
4073743530,0.634767,2.223,97.5947,-0.31826,0.112873,0.881904,1.08422,-0.124844,0.0128288,-1.53319,-3.0103,1.39039,-0.4,2.9,0,12255,49.263,28.142,13863.6
4073843845,0.634767,2.223,97.5917,-0.24371,0.0805918,0.888458,1.21816,-0.398289,0.0214796,-1.06477,-2.34505,0.884687,-0.4,2.9,0,12255,49.263,28.142,13863.6
4073944301,0.634767,2.223,97.5959,-0.0134032,0.0742026,0.903203,1.32454,-0.601836,0.0954067,-0.732769,-1.51047,0.757731,-0.4,2.9,0,12255,49.263,28.142,13863.6
4074044672,0.634767,2.223,97.6073,0.253137,0.0678321,0.91235,1.20251,-0.609325,0.0909743,-0.717825,1.77365,-0.326319,-0.4,2.9,0,12255,49.263,28.142,13863.6
4074145028,0.634767,2.223,97.6144,0.390509,0.0609145,0.911291,0.903458,-0.459764,-0.000989971,-0.572387,3.60841,0.838634,-0.4,2.9,0,12255,49.263,28.142,13863.6
4074245371,0.634767,2.223,97.61,0.45382,0.0574808,0.909112,0.500143,-0.228659,-0.0345584,-0.613619,4.66163,1.70893,-0.4,2.9,0,12255,49.263,28.142,13863.6
4074345723,0.634767,2.223,97.6076,0.473167,0.0586267,0.908392,0.0550424,0.04836,-0.0528491,-0.523885,4.91537,2.43197,-0.4,2.9,0,12255,49.196,30.832,15168.1
4074446070,0.634767,2.223,97.6095,0.469759,0.0638055,0.909468,-0.416358,0.349048,-0.046749,-0.514903,4.96951,2.78702,-0.4,2.9,0,12255,49.196,30.832,15168.1
4074546411,0.634767,2.223,97.6145,0.438998,0.0711078,0.911371,-0.883414,0.636871,-0.0277808,-0.618574,4.86545,2.53096,-0.4,2.9,0,12255,49.196,30.832,15168.1
4074646761,0.634767,2.223,97.6139,0.363562,0.0703658,0.909696,-1.32465,0.887132,-0.00543896,-0.719258,4.35583,2.19313,-0.4,2.9,0,12255,49.196,30.832,15168.1
4074747142,0.634767,2.223,97.6124,0.281352,0.0617885,0.906978,-1.6739,1.08235,0.0179205,-0.627337,3.54349,1.34839,3.5,0.2,0,12255,49.196,30.832,15168.1
4074847398,0.634767,2.223,97.6143,0.199314,0.0398497,0.90178,-1.93265,1.22289,0.0275434,-0.534241,2.59804,0.715747,3.5,0.2,0,12255,49.196,30.832,15168.1
4074947759,0.634767,2.223,97.6182,0.0253875,-0.112546,0.901022,-2.13405,1.33876,0.0996147,-0.26099,1.83957,0.615798,3.5,0.2,0,12255,49.196,30.832,15168.1
4075048128,0.634767,2.223,97.6249,-0.145789,-0.261867,0.921701,-2.02228,1.47744,0.0524485,2.01733,-0.510328,-0.430076,3.5,0.2,0,12255,49.196,30.832,15168.1
4075148495,0.634766,2.223,97.6282,-0.242541,-0.350596,0.94306,-1.70994,1.63308,-0.0185843,3.11349,-1.71052,0.967907,3.5,0.2,0,12255,49.196,30.832,15168.1
4075248855,0.634766,2.223,97.6222,-0.289131,-0.390785,0.953451,-1.26368,1.81241,-0.0303175,3.63002,-2.20529,2.35459,3.5,0.2,0,12255,49.196,30.832,15168.1
4075349198,0.634766,2.223,97.6122,-0.301327,-0.403704,0.955214,-0.757557,1.98575,-0.0342423,3.89795,-2.62517,2.50372,3.5,0.2,0,12255,49.187,29.929,14721.2
4075449551,0.634766,2.223,97.5865,-0.297054,-0.402434,0.952252,-0.135372,2.20565,-0.0309112,3.86858,-2.54375,2.81527,3.5,0.2,0,12255,49.187,29.929,14721.2
